[{"lat":"37.662934226","long":"126.66072496","items":[{"name":"GS25 김포누산점","tel":"","addr":"경기도 김포시 양촌읍 누산리 303번지 GS25김포누산점","category":"슈퍼/마트"},{"name":"창성공인중개사사무소","tel":"","addr":"경기도 김포시 양촌읍 누산리 303번지","category":"부동산/인테리어"},{"name":"창성엔터프라이즈","tel":"","addr":"경기도 김포시 양촌읍 누산리 303번지","category":"기타"},{"name":"콩나물뮤직","tel":"","addr":"경기도 김포시 양촌읍 누산리 303번지 1층 3호","category":"기타"}]},{"lat":"37.662992499","long":"126.65599866","items":[{"name":"P A T 모아점","tel":"031-986-0750","addr":"경기도 김포시 양촌읍 누산리 428-1번지 모아패션아울렛","category":"시장/거리"},{"name":"the모아뱅뱅","tel":"","addr":"경기도 김포시 양촌읍 누산리 428-1번지 뱅뱅","category":"기타"},{"name":"금강제화김포모아점","tel":"031-997-1137","addr":"경기도 김포시 양촌읍 누산리 428-1번지 금강제화김포모아점","category":"기타"},{"name":"김포모아뱅뱅","tel":"031-996-7654","addr":"경기도 김포시 양촌읍 누산리 428-1번지 김포모아뱅뱅","category":"시장/거리"},{"name":"데니스골프 김포장기점","tel":"","addr":"경기도 김포시 양촌읍 누산리 428-1번지 더모아패션아울렛 1동 1층","category":"스포츠/헬스"},{"name":"레노마스포츠(김포점)","tel":"031-996-8129","addr":"경기도 김포시 양촌읍 누산리 428-1번지 레노마골프","category":"스포츠/헬스"},{"name":"로가디스정상상설(김포모아점)","tel":"031-996-5030","addr":"경기도 김포시 양촌읍 누산리 428-1번지 모아패션아울렛로가디스","category":"시장/거리"},{"name":"리복 김포 모아점","tel":"031-986-9952","addr":"경기도 김포시 양촌읍 누산리 428-1 더모아패션아울렛 바동 1층","category":"기타"},{"name":"모아골프","tel":"","addr":"경기도 김포시 양촌읍 누산리 428-1번지 모아패션아울렛 리복 2층 모아골프연습장","category":"레저"},{"name":"모아수선실","tel":"","addr":"경기도 김포시 양촌읍 누산리 428-1번지 더모아패션아울렛 2층 수선실","category":"기타"},{"name":"모아카페(김포모아패션 아울렛)","tel":"031-998-9821","addr":"경기도 김포시 양촌읍 누산리 428-1번지 모아패션아울렛 모아카페","category":"카페/베이커리"},{"name":"밀레김포모아아울렛점","tel":"031-982-2276","addr":"경기도 김포시 양촌읍 누산리 428-1번지 모아패션아울렛 밀레","category":"스포츠/헬스"},{"name":"베스띠벨리 김포모아점","tel":"031-987-6799","addr":"경기도 김포시 양촌읍 누산리 428-1번지 모아패션아울렛베스띠벨리","category":"기타"},{"name":"샤트렌(모아패션아울렛)","tel":"031-982-8284","addr":"경기도 김포시 양촌읍 누산리 428-1번지 샤트렌 김포모아점","category":"기타"},{"name":"아놀드 파마 김포모아점","tel":"031-986-1242","addr":"경기도 김포시 양촌읍 누산리 428-1번지 모아패션아울렛 아놀드 파마","category":"스포츠/헬스"},{"name":"에스마켓 김포모아점","tel":"031-985-5800","addr":"경기도 김포시 양촌읍 누산리 428-1번지 모아패션아울렛 에스마켓","category":"기타"},{"name":"인디안상설김포모아점","tel":"031-997-9603","addr":"경기도 김포시 양촌읍 누산리 428-1번지 인디안","category":"스포츠/헬스"},{"name":"캘러웨이골프김포모아","tel":"031-997-4807","addr":"경기도 김포시 양촌읍 누산리 428-1번지 모아패션 아울렛 캘러웨이","category":"기타"},{"name":"파리게이츠 김포장기점","tel":"","addr":"경기도 김포시 양촌읍 누산리 428-1번지 파리게이츠 김포장기점","category":"카페/베이커리"},{"name":"팬텀골프 김포모아점","tel":"031-998-0551","addr":"경기도 김포시 양촌읍 누산리 428-1번지 팬텀골프 김포모아점","category":"스포츠/헬스"},{"name":"프로스펙스/크로커다일(김포모아점)","tel":"031-986-7878","addr":"경기도 김포시 양촌읍 누산리 428-1번지 모아패션아울렛 프로스펙스/크로커다일","category":"스포츠/헬스"},{"name":"핑(PING)김포모아점","tel":"031-989-3355","addr":"경기도 김포시 양촌읍 누산리 428-1번지 핑(PING) 김포모아점","category":"기타"},{"name":"휠라종합상설 김포모아점","tel":"031-983-9966","addr":"경기도 김포시 양촌읍 누산리 428-1번지 모아패션아울렛 휠라","category":"기타"}]},{"lat":"37.662985786","long":"126.65678069","items":[{"name":"k2 김포모아점","tel":"","addr":"경기도 김포시 양촌읍 누산리 420번지 가동","category":"기타"},{"name":"s쏠레지아","tel":"031-997-8486","addr":"경기도 김포시 양촌읍 누산리 420번지 모아패션아울렛 s 쏠레지아","category":"기타"},{"name":"데상트골프모아점","tel":"","addr":"경기도 김포시 양촌읍 누산리 420번지 데상트골프","category":"스포츠/헬스"},{"name":"링스김포장기점","tel":"","addr":"경기도 김포시 양촌읍 누산리 420번지 모아패션아울렛 링스","category":"스포츠/헬스"},{"name":"베스띠벨리","tel":"","addr":"경기도 김포시 양촌읍 누산리 420번지 모아패션아울렛","category":"기타"},{"name":"크로커다일레이디(김포모아점)","tel":"031-997-0123","addr":"경기도 김포시 양촌읍 누산리 420번지","category":"기타"}]},{"lat":"37.668464292","long":"126.64492229","items":[{"name":"김포도가 두두","tel":"","addr":"경기도 김포시 양촌읍 누산리 1116-2번지 김포도가 두두","category":"기타"}]},{"lat":"37.661907878","long":"126.66410699","items":[{"name":"김포청과도매센터","tel":"","addr":"경기도 김포시 양촌읍 누산리 270번지 김포청과도매센터","category":"슈퍼/마트"}]},{"lat":"37.663401919","long":"126.65735677","items":[{"name":"나사모터스","tel":"","addr":"경기도 김포시 양촌읍 누산리 479-6번지","category":"기타"}]},{"lat":"37.670595855","long":"126.64369925","items":[{"name":"네비365","tel":"","addr":"경기도 김포시 양촌읍 누산리 636-2번지 네비365","category":"기타"},{"name":"대동각","tel":"031-985-5349","addr":"경기도 김포시 양촌읍 누산리 636-2번지 1층","category":"일반음식점"}]},{"lat":"37.663131942","long":"126.66055405","items":[{"name":"노블레스","tel":"","addr":"경기도 김포시 양촌읍 누산리 304-1번지 노블레스","category":"기타"},{"name":"탐나는 고등어","tel":"031-996-9244","addr":"경기도 김포시 양촌읍 누산리 304-1번지 1층","category":"일반음식점"}]},{"lat":"37.6703808","long":"126.64408566","items":[{"name":"누산마켓","tel":"031-986-3108","addr":"경기도 김포시 양촌읍 누산리 631-4번지","category":"슈퍼/마트"},{"name":"참빛전기조명","tel":"031-986-9007","addr":"경기도 김포시 양촌읍 누산리 631-4번지 2층 참빛조명","category":"기타"}]},{"lat":"37.670102919","long":"126.64455172","items":[{"name":"돌하르방","tel":"031-986-8989","addr":"경기도 김포시 양촌읍 누산리 627-7번지","category":"일반음식점"}]},{"lat":"37.668790387","long":"126.64549877","items":[{"name":"라피노","tel":"","addr":"경기도 김포시 양촌읍 누산리 1316번지 라피노","category":"기타"}]},{"lat":"37.668656274","long":"126.64583945","items":[{"name":"루안이네 김포점","tel":"","addr":"경기도 김포시 양촌읍 누산리 1321번지 1층 루안이네 김포점","category":"기타"},{"name":"주식회사 원라인모터스","tel":"","addr":"경기도 김포시 양촌읍 누산리 1321번지 A동 101호","category":"기타"}]},{"lat":"37.66512682","long":"126.65567138","items":[{"name":"물회의정석","tel":"031-985-7336","addr":"경기도 김포시 양촌읍 누산리 515-1번지 물회의정석","category":"일반음식점"},{"name":"산들마을","tel":"031-982-3833","addr":"경기도 김포시 양촌읍 누산리 515-1번지","category":"일반음식점"}]},{"lat":"37.664958734","long":"126.65980897","items":[{"name":"밀알꿈씨","tel":"031-998-5135","addr":"경기도 김포시 양촌읍 누산리 196-3번지 밀알꿈씨","category":"기타"}]},{"lat":"37.662186665","long":"126.66080773","items":[{"name":"승진사무용가구","tel":"","addr":"경기도 김포시 양촌읍 누산리 312-3번지 승진사무용가구","category":"기타"}]},{"lat":"37.669208785","long":"126.64980383","items":[{"name":"우리수산","tel":"","addr":"경기도 김포시 양촌읍 누산리 1243번지","category":"기타"}]},{"lat":"37.667570728","long":"126.66578137","items":[{"name":"잡화","tel":"","addr":"경기도 김포시 양촌읍 누산리 1032-74번지","category":"기타"}]},{"lat":"37.661571168","long":"126.6629412","items":[{"name":"진국수","tel":"","addr":"경기도 김포시 양촌읍 누산리 290-7번지","category":"일반음식점"}]},{"lat":"37.669297114","long":"126.64622175","items":[{"name":"카플러스","tel":"","addr":"경기도 김포시 양촌읍 누산리 1279번지 1층","category":"기타"}]},{"lat":"37.669539273","long":"126.64585788","items":[{"name":"커피에반하다 계절곶간","tel":"031-984-9864","addr":"경기도 김포시 양촌읍 누산리 1287번지 1층 계절곳간.커피에반하다","category":"카페/베이커리"}]},{"lat":"37.662100506","long":"126.66216812","items":[{"name":"플러스골프 할인마켓","tel":"031-987-7450","addr":"경기도 김포시 양촌읍 누산리 295-3번지 플러스골프 할인마켓","category":"스포츠/헬스"}]},{"lat":"37.669955387","long":"126.64344165","items":[{"name":"하동재첩마을","tel":"","addr":"경기도 김포시 양촌읍 누산리 643-9번지","category":"일반음식점"}]}]