[{"lat":"37.237191495","long":"127.18928945","items":[{"name":"(용인)우리화원","tel":"031-338-9388","addr":"경기도 용인시 처인구 역북동 424-4","category":"문화.취미 - 화원"},{"name":"미인연출","tel":"031-336-9242","addr":"경기도 용인시 처인구 역북동 424-4번지","category":"보건위생 - 화장품"}]},{"lat":"37.2359930254","long":"127.1949887328","items":[{"name":"(주)기쁨두배여행","tel":"031-335-3400","addr":"경기도 용인시 처인구 역북동 483-9번지 1층","category":"여행 - 관광여행"}]},{"lat":"37.236604773","long":"127.19557629","items":[{"name":"(주)미르이앤씨","tel":"031-798-8320","addr":"경기도 용인시 처인구 역북동 482-6번지 3","category":"건축자재 - 부동산 분양"},{"name":"BF미트","tel":"031-338-6680","addr":"경기도 용인시 처인구 역북동 482-6번지 1층","category":"음료식품 - 정육점"},{"name":"강원도토속음식","tel":"031-338-0882","addr":"경기도 용인시 처인구 역북동 482-6 5","category":"일반휴게음식 - 일반한식"},{"name":"닭을사랑하는마을","tel":"031-321-1044","addr":"경기도 용인시 처인구 역북동 482-6번지","category":"일반휴게음식 - 일반한식"},{"name":"도미솔음악학원","tel":"070-3074-2824","addr":"경기도 용인시 처인구 역북동 482-6번지 4층 4호","category":"학원 - 예·체능계학원"},{"name":"세븐일레븐용인역북용문점","tel":"031-1577-0711","addr":"경기도 용인시 처인구 역북동 482-6번지 1층 103호","category":"유통업 영리 - 편 의 점"},{"name":"어울림 스포츠","tel":"031-328-7570","addr":"경기도 용인시 처인구 역북동 482-6번지","category":"레져용품 - 스포츠·레져용품"},{"name":"어울림노래연습장","tel":"031-339-1019","addr":"경기도 용인시 처인구 역북동 482-6번지 2층","category":"레저업소 - 노 래 방"},{"name":"예지현","tel":"031-334-0986","addr":"경기도 용인시 처인구 역북동 482-6번지","category":"일반휴게음식 - 중국식"},{"name":"육개장군.보쌈군","tel":"031-323-5436","addr":"경기도 용인시 처인구 역북동 482-6번지 1층","category":"일반휴게음식 - 일반한식"},{"name":"주식회사 한가람","tel":"031-322-4377","addr":"경기도 용인시 처인구 역북동 482-6번지 3층 301호","category":"학원 - 기타 교육기관"},{"name":"주식회사최박","tel":"031-332-7480","addr":"경기도 용인시 처인구 역북동 482-6 482-16","category":"용역 서비스 - 부동산 중개·임대"},{"name":"포항물회","tel":"031-332-9825","addr":"경기도 용인시 처인구 역북동 482-6번지","category":"일반휴게음식 - 일식·회집"}]},{"lat":"37.228526679","long":"127.1872962","items":[{"name":"(주)빅터아이엔디-용인점","tel":"02-000-0000","addr":"경기도 용인시 처인구 역북동 778-2번지 1층 전체","category":"레져용품 - 스포츠·레져용품"},{"name":"요코하마 용인","tel":"031-333-5119","addr":"경기도 용인시 처인구 역북동 778-2번지","category":"레져용품 - 스포츠·레져용품"}]},{"lat":"37.235464148","long":"127.19329702","items":[{"name":"(주)설국 / 바다소리","tel":"031-323-1218","addr":"경기도 용인시 처인구 역북동 446-14번지","category":"일반휴게음식 - 일식·회집"},{"name":"설국수산","tel":"031-323-1218","addr":"경기도 용인시 처인구 역북동 446-14번지 설국빌딩 1층","category":"음료식품 - 농·축·수산품"},{"name":"세븐일레븐용인설국점","tel":"","addr":"경기도 용인시 처인구 역북동 446-14번지","category":"유통업 영리 - 편 의 점"}]},{"lat":"37.242720437","long":"127.19143314","items":[{"name":"(주)오성통신공사","tel":"031-634-0033","addr":"경기도 용인시 처인구 역북동 314번지","category":"용역 서비스 - 기타용역서비스"}]},{"lat":"37.230137586","long":"127.18853965","items":[{"name":"(주)용인자동차공업사","tel":"031-332-2351","addr":"경기도 용인시 처인구 역북동 588-1번지","category":"자동차정비 유지 - 자동차정비"}]},{"lat":"37.236158971","long":"127.19265642","items":[{"name":"(주)우리포토스쿨","tel":"031-335-2741","addr":"경기도 용인시 처인구 역북동 437-4로얄프라자1층","category":"용역 서비스 - 종합용역"},{"name":"M당구클럽","tel":"031-111-1111","addr":"경기도 용인시 처인구 역북동 437-4번지 로얄프라자 303호","category":"레저업소 - 당 구 장"},{"name":"꼬꼬닭발","tel":"031-322-0848","addr":"경기도 용인시 처인구 역북동 437-4번지 로얄프라자 1층","category":"일반휴게음식 - 일반한식"},{"name":"놀아봐노래연습장","tel":"031-321-7739","addr":"경기도 용인시 처인구 역북동 437-4","category":"레저업소 - 노 래 방"},{"name":"맛","tel":"031-332-0033","addr":"경기도 용인시 처인구 역북동 437-4번지 로얄프라자 1층","category":"일반휴게음식 - 일반한식"},{"name":"베베앙쥬","tel":"031-111-1111","addr":"경기도 용인시 처인구 역북동 437-4번지 311호","category":"문화.취미 - 애완동물"},{"name":"빙그레 화산유통","tel":"031-336-4462","addr":"경기도 용인시 처인구 역북동 437-4 로얄프라자 1층 14호","category":"음료식품 - 기타음료식품"},{"name":"소꿈돼지꿈","tel":"031-338-2284","addr":"경기도 용인시 처인구 역북동 437-4번지 로얄프라자 1층","category":"일반휴게음식 - 일반한식"},{"name":"시그널(Signal)","tel":"031-321-7032","addr":"경기도 용인시 처인구 역북동 437-4번지 로얄프라자 1층","category":"일반휴게음식 - 주점"},{"name":"아르헤어랩","tel":"031-336-3684","addr":"경기도 용인시 처인구 역북동 437-4번지 로얄프라자 1층","category":"보건위생 - 미용원"},{"name":"아이디어연","tel":"031-332-3377","addr":"경기도 용인시 처인구 역북동 437-4 로얄프라자 210","category":"용역 서비스 - 종합용역"},{"name":"안주창고","tel":"031-335-9930","addr":"경기도 용인시 처인구 역북동 437-4번지 로얄프라자 114호","category":"일반휴게음식 - 주점"},{"name":"역북동족발집","tel":"031-336-7707","addr":"경기도 용인시 처인구 역북동 437-4번지 로얄프라자 1층","category":"일반휴게음식 - 일반한식"},{"name":"옥탑방오봉자(역북점)","tel":"031-339-5437","addr":"경기도 용인시 처인구 역북동 437-4번지","category":"일반휴게음식 - 주점"},{"name":"유지은헤어","tel":"031-334-4972","addr":"경기도 용인시 처인구 역북동 437-4번지 로얄프라자","category":"보건위생 - 미용원"},{"name":"자연산생선나라","tel":"031-321-0087","addr":"경기도 용인시 처인구 역북동 437-4번지 로얄프라자","category":"일반휴게음식 - 일반한식"},{"name":"친구네","tel":"031-339-2210","addr":"경기도 용인시 처인구 역북동 437-4번지 로얄프라자 1층","category":"일반휴게음식 - 일반한식"},{"name":"파란치과기공소","tel":"031-321-9371","addr":"경기도 용인시 처인구 역북동 437-4번지 로얄프라자 203호","category":"보건위생 - 의료용품"},{"name":"퓨전마을","tel":"031-335-1020","addr":"경기도 용인시 처인구 역북동 437-4번지","category":"일반휴게음식 - 일반한식"},{"name":"행복한케이크","tel":"031-322-0044","addr":"경기도 용인시 처인구 역북동 437-4번지 로얄프라자 1층","category":"일반휴게음식 - 일반한식"}]},{"lat":"37.23102276","long":"127.18715579","items":[{"name":"(주)제이원주차장","tel":"031-321-1142","addr":"경기도 용인시 처인구 역북동 757번지 제이1주차타워","category":"자동차정비 유지 - 주차장"},{"name":"경원빈대떡","tel":"031-322-1005","addr":"경기도 용인시 처인구 역북동 757번지 1층 115호","category":"일반휴게음식 - 일반한식"},{"name":"계양연화","tel":"","addr":"경기도 용인시 처인구 역북동 757번지 113호","category":"일반휴게음식 - 일반한식"},{"name":"고칸 용인점","tel":"031-323-0098","addr":"경기도 용인시 처인구 역북동 757번지 108호","category":"일반휴게음식 - 일식·회집"},{"name":"곱창고/주식회사 곱창고용인명지대점","tel":"031-321-9192","addr":"경기도 용인시 처인구 역북동 757번지 110,111호","category":"일반휴게음식 - 일반한식"},{"name":"곱창주점","tel":"","addr":"경기도 용인시 처인구 역북동 757번지 121호","category":"일반휴게음식 - 일반한식"},{"name":"낭만오뎅","tel":"","addr":"경기도 용인시 처인구 역북동 757번지 202호","category":"일반휴게음식 - 일반한식"},{"name":"다니식당","tel":"","addr":"경기도 용인시 처인구 역북동 757번지 1층 116호","category":"일반휴게음식 - 일반한식"},{"name":"버드나무","tel":"031-338-2056","addr":"경기도 용인시 처인구 역북동 757번지 204호","category":"일반휴게음식 - 일반한식"},{"name":"보드람치킨용인명지대점","tel":"031-334-9289","addr":"경기도 용인시 처인구 역북동 757번지 1층 101호","category":"일반휴게음식 - 스넥"},{"name":"생활맥주","tel":"031-333-5469","addr":"경기도 용인시 처인구 역북동 757번지 1층 120호","category":"일반휴게음식 - 주점"},{"name":"선술집모로미","tel":"031-339-1597","addr":"경기도 용인시 처인구 역북동 757번지 1층 106호","category":"일반휴게음식 - 주점"},{"name":"식빵하우스(house)","tel":"031-776-6727","addr":"경기도 용인시 처인구 역북동 757번지 1층 114호","category":"음료식품 - 제과점"},{"name":"씨유용인주차타워점","tel":"031-080-3663","addr":"경기도 용인시 처인구 역북동 757번지 1층 107호","category":"유통업 영리 - 편 의 점"},{"name":"아이센스헤어샵","tel":"031-332-9002","addr":"경기도 용인시 처인구 역북동 757번지 2층 203호","category":"보건위생 - 미용원"},{"name":"엠디씨(M.D.C)치킨","tel":"031-335-9295","addr":"경기도 용인시 처인구 역북동 757번지 1층 118호","category":"일반휴게음식 - 스넥"},{"name":"정통집 역북명지대점","tel":"","addr":"경기도 용인시 처인구 역북동 757번지 105호","category":"일반휴게음식 - 일반한식"},{"name":"집밥한식식당","tel":"031-334-5520","addr":"경기도 용인시 처인구 역북동 757번지 JS타워 117호","category":"일반휴게음식 - 일반한식"},{"name":"타블도트용인명지대점","tel":"031-0000-0000","addr":"경기도 용인시 처인구 역북동 757번지 122,123호","category":"일반휴게음식 - 서양음식"},{"name":"탄야","tel":"031-333-4502","addr":"경기도 용인시 처인구 역북동 757번지 1층 104호","category":"일반휴게음식 - 일반한식"},{"name":"포차천국용인명지대점","tel":"031-332-1090","addr":"경기도 용인시 처인구 역북동 757번지 1층 112호","category":"일반휴게음식 - 주점"},{"name":"프래디컴퍼니","tel":"","addr":"경기도 용인시 처인구 역북동 757번지 1층 119호","category":"일반휴게음식 - 서양음식"},{"name":"휘카페용인점","tel":"","addr":"경기도 용인시 처인구 역북동 757번지 109호","category":"일반휴게음식 - 서양음식"}]},{"lat":"37.230080251","long":"127.17270747","items":[{"name":"(주)티앤컴퍼니","tel":"031-323-5788","addr":"경기도 용인시 처인구 역북동 550-3번지 1층","category":"신변잡화 - 가방"},{"name":"투나인","tel":"02-512-8921","addr":"경기도 용인시 처인구 역북동 550-3번지","category":"신변잡화 - 기타잡화"}]},{"lat":"37.229137866","long":"127.18826676","items":[{"name":"153포인츠부대찌개명지대점","tel":"031-689-3153","addr":"경기도 용인시 처인구 역북동 598-3번지","category":"일반휴게음식 - 일반한식"}]},{"lat":"37.232744042","long":"127.18695714","items":[{"name":"19티","tel":"031-334-0708","addr":"경기도 용인시 처인구 역북동 749번지 111호","category":"일반휴게음식 - 서양음식"},{"name":"고기여행","tel":"031-1899-3272","addr":"경기도 용인시 처인구 역북동 749번지 2층 202호","category":"일반휴게음식 - 일반한식"},{"name":"그리고미술학원","tel":"031-321-0107","addr":"경기도 용인시 처인구 역북동 749번지 502호","category":"학원 - 예·체능계학원"},{"name":"노랑통닭 역북점","tel":"","addr":"경기도 용인시 처인구 역북동 749번지 102호","category":"일반휴게음식 - 스넥"},{"name":"더가맥","tel":"","addr":"경기도 용인시 처인구 역북동 749번지 파스텔시티 3층 302호","category":"일반휴게음식 - 일반한식"},{"name":"드림하우스","tel":"031-000-0000","addr":"경기도 용인시 처인구 역북동 749번지 3층 304호,305호","category":"학원 - 기타 교육기관"},{"name":"리드인독서중심국어학원","tel":"070-7576-4200","addr":"경기도 용인시 처인구 역북동 749번지 파스텔시티 6층 601호","category":"학원 - 보습학원"},{"name":"마시떡","tel":"031-334-0015","addr":"경기도 용인시 처인구 역북동 749번지 상가동 107호","category":"음료식품 - 제과점"},{"name":"명가옛날통닭","tel":"031-333-4696","addr":"경기도 용인시 처인구 역북동 749번지 파스텔시티 1층 110호","category":"일반휴게음식 - 스넥"},{"name":"명문학원","tel":"031-335-6621","addr":"경기도 용인시 처인구 역북동 749번지 504호","category":"학원 - 보습학원"},{"name":"명문학원","tel":"031-335-6621","addr":"경기도 용인시 처인구 역북동 749번지 파스텔시티 상가 504호","category":"학원 - 보습학원"},{"name":"몬스터슬라임","tel":"031-339-1002","addr":"경기도 용인시 처인구 역북동 749번지 6층 605호","category":"일반휴게음식 - 서양음식"},{"name":"바른한의원","tel":"031-332-1075","addr":"경기도 용인시 처인구 역북동 749번지 403호","category":"의원 - 한의원"},{"name":"브롱스용인명지대점","tel":"031-336-2030","addr":"경기도 용인시 처인구 역북동 749번지 2층 203호","category":"일반휴게음식 - 주점"},{"name":"선 아동발달센터","tel":"031-334-4680","addr":"경기도 용인시 처인구 역북동 749번지 파스텔시티 701호, 702호","category":"보건위생 - 기타대인서비스"},{"name":"역북리더스태권도장","tel":"031-338-1590","addr":"경기도 용인시 처인구 역북동 749번지 603,604호","category":"학원 - 예·체능계학원"},{"name":"올유프레스티지살롱 (ALL:UPrestige Salon)","tel":"031-322-8777","addr":"경기도 용인시 처인구 역북동 749번지 2층 205호","category":"보건위생 - 미용원"},{"name":"월남국수역북점","tel":"","addr":"경기도 용인시 처인구 역북동 749번지 105호","category":"일반휴게음식 - 서양음식"},{"name":"이디야용인역북점","tel":"031-335-4867","addr":"경기도 용인시 처인구 역북동 749번지 1층 104호","category":"일반휴게음식 - 서양음식"},{"name":"전희성음악학원","tel":"031-335-3757","addr":"경기도 용인시 처인구 역북동 749번지 파스텔시티 602호","category":"학원 - 예·체능계학원"},{"name":"점프스쿨 역북센터","tel":"031-733-2710","addr":"경기도 용인시 처인구 역북동 749번지 1동 303호","category":"레저업소 - 기타레져업소"},{"name":"컴포즈커피명지대점","tel":"","addr":"경기도 용인시 처인구 역북동 749번지 파스텔시티 109호","category":"일반휴게음식 - 서양음식"},{"name":"크린토피아-역북우미린점","tel":"031-336-4792","addr":"경기도 용인시 처인구 역북동 749번지 1층 101호","category":"수리서비스 - 세탁소"},{"name":"파리바게뜨 용인역북점","tel":"031-335-2585","addr":"경기도 용인시 처인구 역북동 749번지 파스텔시티 106호","category":"음료식품 - 제과점"},{"name":"픽미픽미아이스","tel":"070-7720-4960","addr":"경기도 용인시 처인구 역북동 749번지 1층 108호","category":"음료식품 - 기타음료식품"},{"name":"호탕","tel":"031-339-5333","addr":"경기도 용인시 처인구 역북동 749번지 2층 204호","category":"일반휴게음식 - 일반한식"}]},{"lat":"37.229770679","long":"127.18692738","items":[{"name":"249커피 (coffee)","tel":"","addr":"경기도 용인시 처인구 역북동 765-6번지 101호","category":"일반휴게음식 - 서양음식"}]},{"lat":"37.23088678","long":"127.18768508","items":[{"name":"2도비어역북점","tel":"031-323-2008","addr":"경기도 용인시 처인구 역북동 760번지 1층 102호","category":"일반휴게음식 - 주점"},{"name":"감성주막","tel":"","addr":"경기도 용인시 처인구 역북동 760번지 103호","category":"일반휴게음식 - 주점"},{"name":"그루비(Groovy)","tel":"031-323-4092","addr":"경기도 용인시 처인구 역북동 760번지 베르뉴스퀘어 2층 202호","category":"보건위생 - 미용원"},{"name":"더 참오브주","tel":"","addr":"경기도 용인시 처인구 역북동 760번지 2층 201호","category":"일반휴게음식 - 주점"},{"name":"도원양꼬치","tel":"031-339-2666","addr":"경기도 용인시 처인구 역북동 760번지 201호","category":"일반휴게음식 - 일반한식"},{"name":"마음속약국","tel":"031-338-0924","addr":"경기도 용인시 처인구 역북동 760번지 110호","category":"약국 - 약국"},{"name":"메가MGC커피 역북점","tel":"031-322-3977","addr":"경기도 용인시 처인구 역북동 760번지 1층 111호","category":"일반휴게음식 - 서양음식"},{"name":"배부장찌개가","tel":"031-905-5293","addr":"경기도 용인시 처인구 역북동 760번지 115,116호","category":"일반휴게음식 - 일반한식"},{"name":"비엔나커피하우스 용인역북점","tel":"031-322-1683","addr":"경기도 용인시 처인구 역북동 760번지 107,203호","category":"일반휴게음식 - 서양음식"},{"name":"서울센트럴치과의원","tel":"031-328-2804","addr":"경기도 용인시 처인구 역북동 760번지 베르뉴스퀘어 405,406호","category":"의원 - 치과의원"},{"name":"수경수제만두찐빵","tel":"031-335-8585","addr":"경기도 용인시 처인구 역북동 760번지 1층 104호","category":"일반휴게음식 - 일반한식"},{"name":"아재불닭발&옛날통닭","tel":"031-323-2213","addr":"경기도 용인시 처인구 역북동 760번지","category":"일반휴게음식 - 스넥"},{"name":"엄마손김밥","tel":"031-321-8856","addr":"경기도 용인시 처인구 역북동 760번지 1층 106호","category":"일반휴게음식 - 스넥"},{"name":"용인스카이마취통증의학과의원","tel":"031-526-7882","addr":"경기도 용인시 처인구 역북동 760번지 6층 베르뉴스퀘어 604호 ,605,606,607호","category":"의원 - 의원"},{"name":"용인스카이마취통증의학과의원","tel":"031-526-7882","addr":"경기도 용인시 처인구 역북동 760번지 베르뉴스퀘어 6층 604,605,606,607호","category":"의원 - 의원"},{"name":"용인하나365의원","tel":"031-526-1365","addr":"경기도 용인시 처인구 역북동 760번지 베르뉴스퀘어 3,4층","category":"의원 - 의원"},{"name":"원탑PC","tel":"","addr":"경기도 용인시 처인구 역북동 760번지 베르뉴스퀘어 503,504,50,506호","category":"레저업소 - 기타레져업소"},{"name":"커피랑도서관용인역북점","tel":"070-7782-1140","addr":"경기도 용인시 처인구 역북동 760번지 4층 407호","category":"일반휴게음식 - 서양음식"},{"name":"피자스쿨용인역북점","tel":"031-339-0900","addr":"경기도 용인시 처인구 역북동 760번지 113호","category":"일반휴게음식 - 서양음식"},{"name":"하남돼지집 용인역북점","tel":"","addr":"경기도 용인시 처인구 역북동 760번지 1층 108호 109호","category":"일반휴게음식 - 일반한식"},{"name":"화덕1979","tel":"031-339-1979","addr":"경기도 용인시 처인구 역북동 760번지 206호","category":"일반휴게음식 - 서양음식"}]},{"lat":"37.232248598","long":"127.18687706","items":[{"name":"60계용인역북점","tel":"","addr":"경기도 용인시 처인구 역북동 752번지 1층 102호","category":"일반휴게음식 - 스넥"},{"name":"GS25역북골드점","tel":"","addr":"경기도 용인시 처인구 역북동 752번지 101호","category":"유통업 영리 - 편 의 점"},{"name":"GS25역북우미린점","tel":"","addr":"경기도 용인시 처인구 역북동 752번지","category":"유통업 영리 - 편 의 점"},{"name":"꿈빛온누리약국","tel":"031-321-8961","addr":"경기도 용인시 처인구 역북동 752번지 연세프라자 104호","category":"약국 - 약국"},{"name":"나이스가이역북점","tel":"","addr":"경기도 용인시 처인구 역북동 752번지 1층 103호","category":"보건위생 - 미용원"},{"name":"다짐필라테스 역북점","tel":"031-323-5444","addr":"경기도 용인시 처인구 역북동 752번지 연세프라자 3층 304,305호","category":"레저업소 - 헬스클럽"},{"name":"더 굿 아동청소년심리치발달센터","tel":"031-332-7251","addr":"경기도 용인시 처인구 역북동 752번지 4층","category":"보건위생 - 기타대인서비스"},{"name":"도담소아청소년과의원","tel":"031-338-0714","addr":"경기도 용인시 처인구 역북동 752번지 연세프라자 302호","category":"의원 - 의원"},{"name":"드래곤짬뽕Z","tel":"031-336-3418","addr":"경기도 용인시 처인구 역북동 752번지 연세프라자 201호","category":"일반휴게음식 - 일반한식"},{"name":"디토음악학원","tel":"031-336-7732","addr":"경기도 용인시 처인구 역북동 752번지 연세프라자 4층 401호","category":"학원 - 예·체능계학원"},{"name":"디토음악학원","tel":"031-336-7732","addr":"경기도 용인시 처인구 역북동 752번지 연세프라자 401호","category":"학원 - 예·체능계학원"},{"name":"맘드림찬","tel":"031-5121-2391","addr":"경기도 용인시 처인구 역북동 752번지 1층 110호","category":"일반휴게음식 - 일반한식"},{"name":"명성속독한자집중력학원","tel":"031-335-2258","addr":"경기도 용인시 처인구 역북동 752번지 연세프라자 3층 301호","category":"학원 - 기타 교육기관"},{"name":"미스제이","tel":"","addr":"경기도 용인시 처인구 역북동 752번지 108호","category":"보건위생 - 미용원"},{"name":"뷰티인플레이스","tel":"02-111-1111","addr":"경기도 용인시 처인구 역북동 752번지 206호","category":"보건위생 - 피부미용실"},{"name":"빌리엔젤","tel":"031-339-9809","addr":"경기도 용인시 처인구 역북동 752번지 111호112호","category":"일반휴게음식 - 서양음식"},{"name":"삼성영어한솔플러스수학역북학원","tel":"031-321-3101","addr":"경기도 용인시 처인구 역북동 752번지 연세프라자 404호","category":"학원 - 보습학원"},{"name":"서울뿌리치과","tel":"031-328-5030","addr":"경기도 용인시 처인구 역북동 752번지 연세프라자 303호","category":"의원 - 치과의원"},{"name":"신통치킨 용인명지대점","tel":"031-339-0626","addr":"경기도 용인시 처인구 역북동 752번지 109호","category":"일반휴게음식 - 스넥"},{"name":"썬(sun#)","tel":"","addr":"경기도 용인시 처인구 역북동 752번지 2층 206호","category":"보건위생 - 피부미용실"},{"name":"역북펌킨어하원","tel":"03-100-0000","addr":"경기도 용인시 처인구 역북동 752번지 501호","category":"학원 - 외국어학원"},{"name":"연세바로크음악학원","tel":"031-322-1131","addr":"경기도 용인시 처인구 역북동 752번지 연세프라자 505호","category":"학원 - 예·체능계학원"},{"name":"오픈유어아이즈","tel":"070-7794-4609","addr":"경기도 용인시 처인구 역북동 752번지 107호","category":"보건위생 - 안경"},{"name":"용인대 비전 태권도","tel":"031-336-0122","addr":"경기도 용인시 처인구 역북동 752번지 504호","category":"학원 - 예·체능계학원"},{"name":"육품참숯화로구이","tel":"031-332-9792","addr":"경기도 용인시 처인구 역북동 752번지 연세프라자 2층 202호","category":"일반휴게음식 - 일반한식"},{"name":"토론하는아이들논술교습소","tel":"031-338-7735","addr":"경기도 용인시 처인구 역북동 752번지 401호","category":"학원 - 보습학원"},{"name":"팔레트미술교습소","tel":"031-322-1223","addr":"경기도 용인시 처인구 역북동 752번지 406호","category":"학원 - 예·체능계학원"},{"name":"펀비어킹역북지구점","tel":"031-323-1050","addr":"경기도 용인시 처인구 역북동 752번지 2층 203호","category":"일반휴게음식 - 서양음식"},{"name":"펀펀 (FunFun)어학원","tel":"031-322-7737","addr":"경기도 용인시 처인구 역북동 752번지 연세프라자 403호","category":"학원 - 외국어학원"},{"name":"행복한식부페","tel":"031-333-3633","addr":"경기도 용인시 처인구 역북동 752번지 204,205호","category":"일반휴게음식 - 일반한식"},{"name":"화이트통신","tel":"031-323-3011","addr":"경기도 용인시 처인구 역북동 752번지 연세프라자 106호","category":"사무통신 - 통신기기"}]},{"lat":"37.238054293","long":"127.19067773","items":[{"name":"88포차","tel":"031-334-8992","addr":"경기도 용인시 처인구 역북동 414-22번지 2층","category":"일반휴게음식 - 일반한식"},{"name":"치킨두목","tel":"031-334-0049","addr":"경기도 용인시 처인구 역북동 414-22번지 2층","category":"일반휴게음식 - 일반한식"}]},{"lat":"37.231185715","long":"127.18666037","items":[{"name":"CL어학원","tel":"031-321-8805","addr":"경기도 용인시 처인구 역북동 755번지 골든프라자 401,402호","category":"학원 - 보습학원"},{"name":"가디스(goddess)","tel":"070-7560-1964","addr":"경기도 용인시 처인구 역북동 755번지 1층 108호","category":"의류 - 정장"},{"name":"고래포차","tel":"","addr":"경기도 용인시 처인구 역북동 755번지 201호","category":"일반휴게음식 - 주점"},{"name":"더짬뽕","tel":"031-321-5665","addr":"경기도 용인시 처인구 역북동 755번지 2층 204호","category":"일반휴게음식 - 중국식"},{"name":"든든","tel":"031-321-3454","addr":"경기도 용인시 처인구 역북동 755번지 109호","category":"일반휴게음식 - 일반한식"},{"name":"리썸 LISSOM","tel":"","addr":"경기도 용인시 처인구 역북동 755번지 골든프라자 1층 101호","category":"의류 - 정장"},{"name":"맛조은인생","tel":"031-322-9295","addr":"경기도 용인시 처인구 역북동 755번지 골든프라자 2층 205호","category":"일반휴게음식 - 일반한식"},{"name":"바빈스커피용인명지대점","tel":"","addr":"경기도 용인시 처인구 역북동 755번지 110호, 111호","category":"일반휴게음식 - 서양음식"},{"name":"비비앙쥬","tel":"","addr":"경기도 용인시 처인구 역북동 755번지 104호","category":"의류 - 정장"},{"name":"비비앙쥬","tel":"","addr":"경기도 용인시 처인구 역북동 755번지 1동 1층 104호","category":"의류 - 아동의류"},{"name":"세븐일레븐용인역북골드점","tel":"031-1577-0711","addr":"경기도 용인시 처인구 역북동 755번지 105호","category":"유통업 영리 - 편 의 점"},{"name":"역북참내과 건강검진센터","tel":"031-339-9894","addr":"경기도 용인시 처인구 역북동 755번지 301호,302호,303호","category":"의원 - 의원"},{"name":"연어가","tel":"","addr":"경기도 용인시 처인구 역북동 755번지 1층 113,114호","category":"일반휴게음식 - 일반한식"},{"name":"오늘의식빵175°C","tel":"031-322-7684","addr":"경기도 용인시 처인구 역북동 755번지 골든프라자 103호","category":"음료식품 - 제과점"},{"name":"용인대 석사 엠엔에이취 태권 점핑클럽","tel":"031-321-8494","addr":"경기도 용인시 처인구 역북동 755번지 405호 406호","category":"학원 - 예·체능계학원"},{"name":"원더콩(1thekong)","tel":"","addr":"경기도 용인시 처인구 역북동 755번지 104호","category":"의류 - 정장"},{"name":"웰봄소아청소년과의원","tel":"031-334-3323","addr":"경기도 용인시 처인구 역북동 755번지 304~306호","category":"의원 - 의원"},{"name":"웰스핏","tel":"031-111-1111","addr":"경기도 용인시 처인구 역북동 755번지 골든프라자 501,502,504,505,506호","category":"레저업소 - 헬스클럽"},{"name":"조이스감성미술학원","tel":"031-323-1503","addr":"경기도 용인시 처인구 역북동 755번지 골든프라자 403호","category":"학원 - 예·체능계학원"},{"name":"카페요시","tel":"070-8285-3672","addr":"경기도 용인시 처인구 역북동 755번지 107호","category":"일반휴게음식 - 서양음식"},{"name":"피제리아디마고","tel":"070-7766-9595","addr":"경기도 용인시 처인구 역북동 755번지 골드프라자 2층 202호","category":"일반휴게음식 - 서양음식"},{"name":"함박약국","tel":"031-333-6339","addr":"경기도 용인시 처인구 역북동 755번지 골드프라자 1층 106호","category":"약국 - 약국"},{"name":"훠궈스토리","tel":"031-339-3799","addr":"경기도 용인시 처인구 역북동 755번지 206호","category":"일반휴게음식 - 중국식"}]},{"lat":"37.238685798","long":"127.19018343","items":[{"name":"DDS","tel":"031-338-1429","addr":"경기도 용인시 처인구 역북동 415번지 상가 102호","category":"사무통신 - 컴퓨터"},{"name":"그대의피부","tel":"031-336-6700","addr":"경기도 용인시 처인구 역북동 415번지 458-28 a동203","category":"보건위생 - 화장품"},{"name":"부일카인테리어","tel":"031-321-9723","addr":"경기도 용인시 처인구 역북동 415번지","category":"자동차정비 유지 - 자동차정비"},{"name":"헤어쟁이","tel":"031-336-9833","addr":"경기도 용인시 처인구 역북동 415번지 샬롬하우스1호","category":"보건위생 - 미용원"}]},{"lat":"37.237214318","long":"127.18029652","items":[{"name":"GS25더트리니점","tel":"","addr":"경기도 용인시 처인구 역북동 370-13번지 더트리니 1층 105호, 106호","category":"유통업 영리 - 편 의 점"}]},{"lat":"37.236217887","long":"127.1896026","items":[{"name":"GS25명지사거리점","tel":"031-321-7058","addr":"경기도 용인시 처인구 역북동 428-14번지 GS25명지사 거리점","category":"유통업 영리 - 편 의 점"},{"name":"그린상사","tel":"031-36-1300","addr":"경기도 용인시 처인구 역북동 428-14번지","category":"가구 - 철제가구"},{"name":"금당은당","tel":"031-338-7705","addr":"경기도 용인시 처인구 역북동 428-14번지","category":"신변잡화 - 귀금속"},{"name":"뚜레쥬르 명지대사거리점","tel":"031-321-9277","addr":"경기도 용인시 처인구 역북동 428-14번지 기덕빌딩 1층","category":"음료식품 - 제과점"},{"name":"명지정보통신","tel":"031-335-7703","addr":"경기도 용인시 처인구 역북동 428-14번지","category":"사무통신 - 통신기기"},{"name":"미엘네일","tel":"031-333-9393","addr":"경기도 용인시 처인구 역북동 428-14번지 1층","category":"보건위생 - 피부미용실"},{"name":"썬스카이학원","tel":"031-321-3151","addr":"경기도 용인시 처인구 역북동 428-14번지 일부 2층","category":"학원 - 보습학원"},{"name":"열린논술학원","tel":"031-322-1954","addr":"경기도 용인시 처인구 역북동 428-14번지 기덕빌딩 4층","category":"학원 - 기타 교육기관"},{"name":"용인간호학원","tel":"031-337-2747","addr":"경기도 용인시 처인구 역북동 428-14번지","category":"학원 - 기타 교육기관"},{"name":"용인씨엔씨미술학원","tel":"031-321-2235","addr":"경기도 용인시 처인구 역북동 428-14번지 기덕빌딩 3층","category":"회원제형태 - 학원"},{"name":"용한정보통신","tel":"031-333-9393","addr":"경기도 용인시 처인구 역북동 428-14번지 기덕빌딩 1층","category":"사무통신 - 통신기기"},{"name":"이니스프리 용인명지점","tel":"031-336-3022","addr":"경기도 용인시 처인구 역북동 428-14번지 기덕빌딩 1층","category":"보건위생 - 화장품"},{"name":"타마시헤어명지대점","tel":"031-323-3684","addr":"경기도 용인시 처인구 역북동 428-14번지 기덕빌딩 2층","category":"보건위생 - 미용원"},{"name":"피자투어","tel":"031-335-0263","addr":"경기도 용인시 처인구 역북동 428-14번지 기덕빌딩 1층","category":"일반휴게음식 - 서양음식"}]},{"lat":"37.2388541","long":"127.19756547","items":[{"name":"GS25역북신원점","tel":"","addr":"경기도 용인시 처인구 역북동 795번지 상가 103,104호","category":"유통업 영리 - 편 의 점"}]},{"lat":"37.23579856","long":"127.19265551","items":[{"name":"GS25역북으뜸점","tel":"","addr":"경기도 용인시 처인구 역북동 436-8번지","category":"유통업 영리 - 편 의 점"},{"name":"그라노데카페(GRANODE CAFE)","tel":"","addr":"경기도 용인시 처인구 역북동 436-8번지 103호","category":"일반휴게음식 - 서양음식"},{"name":"마음둘곳","tel":"031-891-0713","addr":"경기도 용인시 처인구 역북동 436-8번지 102호","category":"일반휴게음식 - 주점"}]},{"lat":"37.233886786","long":"127.18796285","items":[{"name":"GS25용인럭스점","tel":"","addr":"경기도 용인시 처인구 역북동 745번지 B107호","category":"유통업 영리 - 편 의 점"},{"name":"더뷰티","tel":"031-338-8207","addr":"경기도 용인시 처인구 역북동 745번지 안강럭스나인 402호","category":"보건위생 - 화장품"},{"name":"더와이네일(TheYNail)","tel":"","addr":"경기도 용인시 처인구 역북동 745번지 204호","category":"보건위생 - 피부미용실"},{"name":"랙커떡볶이","tel":"","addr":"경기도 용인시 처인구 역북동 745번지 용인역북THE럭스나인 2층 202호","category":"일반휴게음식 - 스넥"},{"name":"렌즈미 안경콘택트 용인역북점","tel":"02-111-1111","addr":"경기도 용인시 처인구 역북동 745번지 더럭스애비뉴 1동 B104호","category":"보건위생 - 안경"},{"name":"마라순코우마라탕","tel":"031-322-8760","addr":"경기도 용인시 처인구 역북동 745번지 1층 용인역북THE럭스나인 101호","category":"일반휴게음식 - 중국식"},{"name":"메이킹래쉬","tel":"031-0000-0000","addr":"경기도 용인시 처인구 역북동 745번지 용인역북THE럭스나인 2층 208호","category":"보건위생 - 피부미용실"},{"name":"부자곱","tel":"031-000-0000","addr":"경기도 용인시 처인구 역북동 745번지 109, 110호","category":"일반휴게음식 - 일반한식"},{"name":"순수베이커리카페","tel":"031-4784-0692","addr":"경기도 용인시 처인구 역북동 745번지 1층 143호","category":"일반휴게음식 - 서양음식"},{"name":"썸타임","tel":"031-323-0992","addr":"경기도 용인시 처인구 역북동 745번지 2층 227호","category":"일반휴게음식 - 일반한식"},{"name":"쏭스핫도그역북점","tel":"","addr":"경기도 용인시 처인구 역북동 745번지 119호","category":"일반휴게음식 - 서양음식"},{"name":"아람다움","tel":"031-338-1101","addr":"경기도 용인시 처인구 역북동 745번지 217호","category":"보건위생 - 피부미용실"},{"name":"어반헤어","tel":"","addr":"경기도 용인시 처인구 역북동 745번지 용인역북더럭스나인 1층 131호","category":"보건위생 - 미용원"},{"name":"엽이네일","tel":"","addr":"경기도 용인시 처인구 역북동 745번지 안강럭스나인 2층 239호","category":"보건위생 - 피부미용실"},{"name":"위꾸냥 마라탕","tel":"","addr":"경기도 용인시 처인구 역북동 745번지 237호","category":"일반휴게음식 - 중국식"},{"name":"진진카롱","tel":"031-000-0000","addr":"경기도 용인시 처인구 역북동 745번지 지1층 B119호","category":"일반휴게음식 - 서양음식"},{"name":"카페여름,달","tel":"","addr":"경기도 용인시 처인구 역북동 745번지 1층 122호","category":"일반휴게음식 - 서양음식"},{"name":"칵테일집","tel":"","addr":"경기도 용인시 처인구 역북동 745번지 제지1층 B109호","category":"일반휴게음식 - 일반한식"},{"name":"퀸즈살롱","tel":"","addr":"경기도 용인시 처인구 역북동 745번지 THE럭스나인 2층 216호","category":"보건위생 - 피부미용실"}]},{"lat":"37.23824408","long":"127.19031757","items":[{"name":"GS25용인역북","tel":"031-335-3892","addr":"경기도 용인시 처인구 역북동 415-10번지","category":"유통업 영리 - 편 의 점"}]},{"lat":"37.234218525","long":"127.18901168","items":[{"name":"GS25용인중앙도서관점","tel":"","addr":"경기도 용인시 처인구 역북동 722-9번지","category":"유통업 영리 - 편 의 점"},{"name":"길이네보리손칼국수","tel":"031-283-6778","addr":"경기도 용인시 처인구 역북동 722-9번지 1층","category":"일반휴게음식 - 일반한식"},{"name":"머슬 인","tel":"031-339-4561","addr":"경기도 용인시 처인구 역북동 722-9번지 1층","category":"레저업소 - 헬스클럽"}]},{"lat":"37.237603168","long":"127.19664943","items":[{"name":"GS25처인금학로점","tel":"","addr":"경기도 용인시 처인구 역북동 634-21번지","category":"유통업 영리 - 편 의 점"}]},{"lat":"37.232994591","long":"127.18807336","items":[{"name":"IMD영수학원","tel":"031-322-0119","addr":"경기도 용인시 처인구 역북동 748-2번지 5층 503호","category":"학원 - 보습학원"},{"name":"계탄집","tel":"031-338-1044","addr":"경기도 용인시 처인구 역북동 748-2번지 110호","category":"일반휴게음식 - 일반한식"},{"name":"고피자 용인역북점","tel":"","addr":"경기도 용인시 처인구 역북동 748-2번지 1층 103호","category":"일반휴게음식 - 서양음식"},{"name":"공차코리아(용인역북점)","tel":"","addr":"경기도 용인시 처인구 역북동 748-2번지 디엠씨타워 1층 101,102호","category":"일반휴게음식 - 서양음식"},{"name":"라베골프존파크","tel":"031-321-0753","addr":"경기도 용인시 처인구 역북동 748-2번지 4층 401호","category":"레저업소 - 스크린골프"},{"name":"맘스터치(용인역북점)","tel":"031-333-0220","addr":"경기도 용인시 처인구 역북동 748-2번지 1층 105호","category":"일반휴게음식 - 서양음식"},{"name":"매코만갈비찜&부대찌개","tel":"031-335-0903","addr":"경기도 용인시 처인구 역북동 748-2번지 1층 108호","category":"일반휴게음식 - 일반한식"},{"name":"봉구의 간식 역북점","tel":"","addr":"경기도 용인시 처인구 역북동 748-2번지 1층 104호","category":"문화.취미 - 애완동물"},{"name":"북촌손만두 역북점","tel":"031-338-7222","addr":"경기도 용인시 처인구 역북동 748-2번지 디엠씨타워 1층 107호","category":"일반휴게음식 - 일반한식"},{"name":"비버테일즈","tel":"031-337-1080","addr":"경기도 용인시 처인구 역북동 748-2번지 601호","category":"학원 - 외국어학원"},{"name":"수(SOO)","tel":"","addr":"경기도 용인시 처인구 역북동 748-2번지 106호","category":"보건위생 - 미용원"},{"name":"어뮤즈 (AMUSE STUDIO)","tel":"031-335-7237","addr":"경기도 용인시 처인구 역북동 748-2번지","category":"광학제품 - 사진관"},{"name":"엄마의키친(kitchen)","tel":"031-283-2902","addr":"경기도 용인시 처인구 역북동 748-2번지 1층 109호","category":"음료식품 - 기타음료식품"},{"name":"청림세무회계 세무사 이장기사무소","tel":"031-338-6800","addr":"경기도 용인시 처인구 역북동 748-2번지 302호","category":"용역 서비스 - 법률회계서비스(개인)"},{"name":"피에스타2","tel":"031-322-0988","addr":"경기도 용인시 처인구 역북동 748-2번지 역북DMC타워 2층 205호","category":"일반휴게음식 - 일반한식"},{"name":"한뚝수육국밥","tel":"02-1111-1111","addr":"경기도 용인시 처인구 역북동 748-2번지 2동 202호","category":"일반휴게음식 - 일반한식"}]},{"lat":"37.236605286","long":"127.19526075","items":[{"name":"J&G 컴퍼니","tel":"031-337-2589","addr":"경기도 용인시 처인구 역북동 482-3번지 1층 101호","category":"음료식품 - 농·축·수산품"},{"name":"명품수산","tel":"031-337-2589","addr":"경기도 용인시 처인구 역북동 482-3번지 1층","category":"음료식품 - 농·축·수산품"},{"name":"명품수산","tel":"031-337-2589","addr":"경기도 용인시 처인구 역북동 482-3번지 1층","category":"음료식품 - 농·축·수산품"},{"name":"미끌림","tel":"","addr":"경기도 용인시 처인구 역북동 482-3번지 1층","category":"보건위생 - 피부미용실"},{"name":"백스네일(BAEKnaposS NAIL)","tel":"031-000-0000","addr":"경기도 용인시 처인구 역북동 482-3번지 1층 102호","category":"보건위생 - 피부미용실"}]},{"lat":"37.237382409","long":"127.18820806","items":[{"name":"JS시스템","tel":"","addr":"경기도 용인시 처인구 역북동 418-10번지","category":"수리서비스 - 가정용품수리"},{"name":"도끼떡볶기","tel":"","addr":"경기도 용인시 처인구 역북동 418-10번지","category":"일반휴게음식 - 스넥"},{"name":"손맛분식","tel":"031-334-9931","addr":"경기도 용인시 처인구 역북동 418-10번지","category":"일반휴게음식 - 일반한식"},{"name":"전원설비","tel":"031-337-1181","addr":"경기도 용인시 처인구 역북동 418-10번지","category":"용역 서비스 - 기타용역서비스"}]},{"lat":"37.230022792","long":"127.18704067","items":[{"name":"MAKE IT(메이크잇)","tel":"031-323-1903","addr":"경기도 용인시 처인구 역북동 765-1번지 1층","category":"보건위생 - 미용원"}]},{"lat":"37.226499536","long":"127.18717859","items":[{"name":"NO.1 PC","tel":"031-335-8417","addr":"경기도 용인시 처인구 역북동 605-12번지 1층","category":"레저업소 - 기타레져업소"},{"name":"진주옥냉면","tel":"031-323-7007","addr":"경기도 용인시 처인구 역북동 605-12번지 B101호","category":"일반휴게음식 - 일반한식"},{"name":"커피베이","tel":"031-323-2525","addr":"경기도 용인시 처인구 역북동 605-12번지 B01 B02호","category":"일반휴게음식 - 서양음식"},{"name":"커피베이 (COFFEE BAY)","tel":"031-323-2525","addr":"경기도 용인시 처인구 역북동 605-12번지 지하1층","category":"일반휴게음식 - 서양음식"}]},{"lat":"37.241051643","long":"127.19815716","items":[{"name":"Pishon똥커피핸드드립커피전문점&편집샵","tel":"031-338-8684","addr":"경기도 용인시 처인구 역북동 271-10번지 1층","category":"일반휴게음식 - 서양음식"},{"name":"씨유용인한우리점","tel":"031-321-8887","addr":"경기도 용인시 처인구 역북동 271-10번지","category":"유통업 영리 - 편 의 점"},{"name":"커피비손(CoffeePishon)","tel":"031-338-8684","addr":"경기도 용인시 처인구 역북동 271-10번지 1층","category":"일반휴게음식 - 서양음식"},{"name":"킹","tel":"031-336-8060","addr":"경기도 용인시 처인구 역북동 271-10번지 102호","category":"보건위생 - 화장품"}]},{"lat":"37.232220919","long":"127.18729393","items":[{"name":"SKY당구클럽","tel":"031-336-5333","addr":"경기도 용인시 처인구 역북동 753번지 지석프라자 603동 605호","category":"레저업소 - 당 구 장"},{"name":"고려대학교국제어학원교육프로그램역북이아","tel":"031-338-0688","addr":"경기도 용인시 처인구 역북동 753번지 406호일부 및 407호","category":"학원 - 외국어학원"},{"name":"국수나무 역북점","tel":"","addr":"경기도 용인시 처인구 역북동 753번지 지석프라자 1층 102호","category":"일반휴게음식 - 스넥"},{"name":"궁 노래연습장","tel":"031-3228-8881","addr":"경기도 용인시 처인구 역북동 753번지 지석프라자 207호","category":"레저업소 - 노 래 방"},{"name":"동양수산","tel":"031-336-0432","addr":"경기도 용인시 처인구 역북동 753번지 지석프라자 109호","category":"일반휴게음식 - 일식·회집"},{"name":"돼지마을","tel":"031-339-3392","addr":"경기도 용인시 처인구 역북동 753번지 지석프라자 208,209호","category":"일반휴게음식 - 일반한식"},{"name":"디자인스튜디오 가온","tel":"","addr":"경기도 용인시 처인구 역북동 753번지 지석프라자 504호","category":"광학제품 - 사진관"},{"name":"리틀가우디미술학원","tel":"031-339-9939","addr":"경기도 용인시 처인구 역북동 753번지 지석프라자 409호","category":"학원 - 예·체능계학원"},{"name":"명지상차림","tel":"031-333-8821","addr":"경기도 용인시 처인구 역북동 753번지 201호,202호 일부 2층","category":"일반휴게음식 - 일반한식"},{"name":"명지회센타","tel":"031-333-8821","addr":"경기도 용인시 처인구 역북동 753번지 지석프라자 202-1호","category":"음료식품 - 기타음료식품"},{"name":"바른치킨용인역북점","tel":"031-338-5158","addr":"경기도 용인시 처인구 역북동 753번지 지석프라자 1층 105호","category":"일반휴게음식 - 스넥"},{"name":"백채김치찌개","tel":"031-321-6581","addr":"경기도 용인시 처인구 역북동 753번지 지석프라자 101호","category":"음료식품 - 기타음료식품"},{"name":"브릿지발레학원","tel":"031-336-1074","addr":"경기도 용인시 처인구 역북동 753번지 주건축물제 1동 지석프라자 501호","category":"학원 - 예·체능계학원"},{"name":"빨간석쇠구이 (용인명지대점)","tel":"","addr":"경기도 용인시 처인구 역북동 753번지 지석프라자 116호","category":"일반휴게음식 - 일반한식"},{"name":"손을그리다","tel":"031-338-0512","addr":"경기도 용인시 처인구 역북동 753번지 지석프라자 1층 106호","category":"보건위생 - 피부미용실"},{"name":"시즌아이PC수리","tel":"","addr":"경기도 용인시 처인구 역북동 753번지 지석프라자 6층 601,602호","category":"수리서비스 - 사무·통신기기수리"},{"name":"아리따움 용인역북점","tel":"","addr":"경기도 용인시 처인구 역북동 753번지 지석프라자 104호","category":"보건위생 - 화장품"},{"name":"애플컴퓨터학원","tel":"031-338-2822","addr":"경기도 용인시 처인구 역북동 753번지 지석프라자 1동 4층 405호","category":"학원 - 컴퓨터학원"},{"name":"어부가왕코다리","tel":"070-1111-1111","addr":"경기도 용인시 처인구 역북동 753번지 지석프라자 202-1,203호","category":"일반휴게음식 - 일반한식"},{"name":"오닭꼬치용인역북점","tel":"031-336-0524","addr":"경기도 용인시 처인구 역북동 753번지 지석프라자 1층 112호","category":"일반휴게음식 - 일반한식"},{"name":"올리바바훠궈&참숯구이(역북점)","tel":"031-332-6999","addr":"경기도 용인시 처인구 역북동 753번지 지석프라자 205동 206호","category":"일반휴게음식 - 중국식"},{"name":"왕빈자삼파전","tel":"","addr":"경기도 용인시 처인구 역북동 753번지 지석프라자 1층 110호","category":"일반휴게음식 - 일반한식"},{"name":"왕코등갈비","tel":"031-322-9333","addr":"경기도 용인시 처인구 역북동 753번지 지석프라자 2층 204호","category":"일반휴게음식 - 일반한식"},{"name":"처갓집양념치킨역북점","tel":"031-338-9666","addr":"경기도 용인시 처인구 역북동 753번지 지석프라자 1층 114호","category":"일반휴게음식 - 일반한식"},{"name":"카츠젠용인역북점","tel":"031-111-1111","addr":"경기도 용인시 처인구 역북동 753번지 지석프라자 1층 108호","category":"일반휴게음식 - 일반한식"},{"name":"커피베이역북점","tel":"031-336-7449","addr":"경기도 용인시 처인구 역북동 753번지 지석프라자 1층","category":"일반휴게음식 - 서양음식"},{"name":"투고샐러드 용인명지대점","tel":"031-111-1111","addr":"경기도 용인시 처인구 역북동 753번지 지석프라자 1층 117-1호","category":"일반휴게음식 - 일반한식"},{"name":"파이널 유도 멀티짐","tel":"031-333-8265","addr":"경기도 용인시 처인구 역북동 753번지 지석프라자 5층 503호","category":"학원 - 예·체능계학원"},{"name":"프리티아이","tel":"","addr":"경기도 용인시 처인구 역북동 753번지 지석프라자 406호","category":"보건위생 - 화장품"},{"name":"피자파는집용인역북점","tel":"031-337-0852","addr":"경기도 용인시 처인구 역북동 753번지 지석프라자","category":"일반휴게음식 - 서양음식"},{"name":"하이블영수학원","tel":"031-333-3252","addr":"경기도 용인시 처인구 역북동 753번지 지석프라자 403-1,404호","category":"학원 - 보습학원"},{"name":"황소가한우곱창","tel":"031-526-1388","addr":"경기도 용인시 처인구 역북동 753번지 지석프라자 1층 115호","category":"일반휴게음식 - 일반한식"}]},{"lat":"37.232634232","long":"127.18803867","items":[{"name":"THE웃는치과","tel":"031-337-2879","addr":"경기도 용인시 처인구 역북동 750-2번지 303호","category":"의원 - 치과의원"},{"name":"고봉민김밥  용인역북점","tel":"031-339-5656","addr":"경기도 용인시 처인구 역북동 750-2번지 1층 111호","category":"일반휴게음식 - 일반한식"},{"name":"글라스스토리 역북점","tel":"031-323-2990","addr":"경기도 용인시 처인구 역북동 750-2번지 107호","category":"보건위생 - 안경"},{"name":"나래신경과의원","tel":"031-321-1020","addr":"경기도 용인시 처인구 역북동 750-2번지 301호","category":"의원 - 의원"},{"name":"네일또와","tel":"031-335-3353","addr":"경기도 용인시 처인구 역북동 750-2번지 2층 204호","category":"보건위생 - 피부미용실"},{"name":"데일리커피앤와플","tel":"","addr":"경기도 용인시 처인구 역북동 750-2번지 1층 101호","category":"일반휴게음식 - 서양음식"},{"name":"디델리","tel":"031-273-2420","addr":"경기도 용인시 처인구 역북동 750-2번지 108호","category":"일반휴게음식 - 스넥"},{"name":"명륜진사갈비용인역북점","tel":"031-339-9595","addr":"경기도 용인시 처인구 역북동 750-2번지 201호","category":"일반휴게음식 - 일반한식"},{"name":"바푸리포","tel":"031-332-8272","addr":"경기도 용인시 처인구 역북동 750-2번지 1층 105호","category":"일반휴게음식 - 일반한식"},{"name":"보드빌","tel":"070-4649-1101","addr":"경기도 용인시 처인구 역북동 750-2번지 LINK153타워 4층 402호","category":"레저업소 - 기타레져업소"},{"name":"본죽&비빔밥카페 용인역북점","tel":"031-335-8883","addr":"경기도 용인시 처인구 역북동 750-2번지 1층 103호","category":"일반휴게음식 - 일반한식"},{"name":"서울박내과","tel":"031-321-7124","addr":"경기도 용인시 처인구 역북동 750-2번지 403호","category":"의원 - 의원"},{"name":"세렌디피티 마카롱","tel":"031-322-5055","addr":"경기도 용인시 처인구 역북동 750-2번지 1층 110호","category":"음료식품 - 기타음료식품"},{"name":"에이비씨헤어명지대점","tel":"031-322-6866","addr":"경기도 용인시 처인구 역북동 750-2번지 3층 302호","category":"보건위생 - 미용원"},{"name":"예빛153학원","tel":"031-336-9901","addr":"경기도 용인시 처인구 역북동 750-2번지 링크153 401호","category":"학원 - 보습학원"},{"name":"예빛음악학원","tel":"031-336-9901","addr":"경기도 용인시 처인구 역북동 750-2번지 404호","category":"학원 - 예·체능계학원"},{"name":"올리앤용인명지대점","tel":"031-335-2626","addr":"경기도 용인시 처인구 역북동 750-2번지 202,203호","category":"일반휴게음식 - 서양음식"},{"name":"원기약국","tel":"031-338-2353","addr":"경기도 용인시 처인구 역북동 750-2번지 104호","category":"약국 - 약국"},{"name":"이마트24 용인역북점","tel":"02-1111-1111","addr":"경기도 용인시 처인구 역북동 750-2번지 1층 109호","category":"유통업 영리 - 편 의 점"},{"name":"이마트24 용인역북점","tel":"","addr":"경기도 용인시 처인구 역북동 750-2번지 1층 109호","category":"유통업 영리 - 편 의 점"},{"name":"전슬기예화무용학원","tel":"031-333-4115","addr":"경기도 용인시 처인구 역북동 750-2번지 503호","category":"학원 - 예·체능계학원"},{"name":"제이(J)빌리어드","tel":"","addr":"경기도 용인시 처인구 역북동 750-2번지 601,602호","category":"레저업소 - 당 구 장"},{"name":"조리고","tel":"031-321-3378","addr":"경기도 용인시 처인구 역북동 750-2번지 2층 205호","category":"일반휴게음식 - 일반한식"},{"name":"하움필라테스","tel":"031-333-5255","addr":"경기도 용인시 처인구 역북동 750-2번지 5층 504호","category":"레저업소 - 헬스클럽"},{"name":"향기나는꽃길","tel":"031-336-4877","addr":"경기도 용인시 처인구 역북동 750-2번지 304호","category":"일반휴게음식 - 서양음식"}]},{"lat":"37.2359365","long":"127.19090913","items":[{"name":"Y스터디영어학원","tel":"031-333-3391","addr":"경기도 용인시 처인구 역북동 436번지 2층","category":"학원 - 보습학원"},{"name":"이디야역북점","tel":"031-334-9030","addr":"경기도 용인시 처인구 역북동 436번지 1층","category":"일반휴게음식 - 서양음식"}]},{"lat":"37.238325565","long":"127.19006985","items":[{"name":"refil(리필)PC방","tel":"031-323-2279","addr":"경기도 용인시 처인구 역북동 415-7번지 지하1층","category":"레저업소 - 기타레져업소"},{"name":"베이크카페(Bakecafe)","tel":"031-333-1371","addr":"경기도 용인시 처인구 역북동 415-7번지","category":"음료식품 - 제과점"},{"name":"오사카부르스 (용인명지대역점)","tel":"031-321-7959","addr":"경기도 용인시 처인구 역북동 415-7번지 2층","category":"일반휴게음식 - 주점"},{"name":"용인의료기","tel":"031-336-9277","addr":"경기도 용인시 처인구 역북동 415-7번지","category":"보건위생 - 의료용품"}]},{"lat":"37.235663947","long":"127.1923171","items":[{"name":"가띠헤어샵","tel":"031-339-0069","addr":"경기도 용인시 처인구 역북동 436-10번지","category":"보건위생 - 미용원"},{"name":"임세진","tel":"031-321-7973","addr":"경기도 용인시 처인구 역북동 436-10번지 보광빌딩 502호","category":"학원 - 보습학원"},{"name":"케이투(K2)용인점","tel":"031-336-2992","addr":"경기도 용인시 처인구 역북동 436-10번지 1층-2층","category":"레져용품 - 스포츠·레져용품"},{"name":"혜람학원","tel":"031-335-9490","addr":"경기도 용인시 처인구 역북동 436-10번지 일부 3층","category":"학원 - 보습학원"}]},{"lat":"37.230969556","long":"127.18660351","items":[{"name":"가라와라국물닭발","tel":"031-111-1111","addr":"경기도 용인시 처인구 역북동 755-1번지 2층 204호","category":"일반휴게음식 - 일반한식"},{"name":"라라랜드키즈카페","tel":"070-7856-0110","addr":"경기도 용인시 처인구 역북동 755-1번지 골든프라자2 3층 302호,303호","category":"일반휴게음식 - 서양음식"},{"name":"라운지(Lounge)","tel":"031-322-9377","addr":"경기도 용인시 처인구 역북동 755-1번지 골드프라자2 101호","category":"의류 - 정장"},{"name":"메이플학원","tel":"031-323-5579","addr":"경기도 용인시 처인구 역북동 755-1번지 골든프라자2 4층 402호","category":"학원 - 보습학원"},{"name":"보고싶다용인역북점","tel":"","addr":"경기도 용인시 처인구 역북동 755-1번지 2층 203호","category":"일반휴게음식 - 주점"},{"name":"비앤비인개러지(B&B in Garage)","tel":"","addr":"경기도 용인시 처인구 역북동 755-1번지 골든프라자2 1층 111호","category":"일반휴게음식 - 서양음식"},{"name":"신참떡볶이","tel":"031-333-6049","addr":"경기도 용인시 처인구 역북동 755-1번지 103호","category":"일반휴게음식 - 일반한식"},{"name":"썸ing","tel":"","addr":"경기도 용인시 처인구 역북동 755-1번지 골든프라자II 1층 10호","category":"일반휴게음식 - 주점"},{"name":"아비꼬(용인역북점)","tel":"031-338-2253","addr":"경기도 용인시 처인구 역북동 755-1번지 104호","category":"일반휴게음식 - 일식·회집"},{"name":"에스킹잉글리쉬(Asking English)학원","tel":"031-334-7383","addr":"경기도 용인시 처인구 역북동 755-1번지 골든프라자2 304호","category":"학원 - 보습학원"},{"name":"오쭈용인역북점","tel":"031-333-0513","addr":"경기도 용인시 처인구 역북동 755-1번지 2층 205호","category":"일반휴게음식 - 일반한식"},{"name":"용범이네인계동껍데기용인역북점","tel":"","addr":"경기도 용인시 처인구 역북동 755-1번지 105호","category":"일반휴게음식 - 일반한식"},{"name":"용인검도관","tel":"031-336-7750","addr":"경기도 용인시 처인구 역북동 755-1번지 골든프라자 4층 405,406호","category":"학원 - 예·체능계학원"},{"name":"우리들음악학원","tel":"031-332-1618","addr":"경기도 용인시 처인구 역북동 755-1번지 401호","category":"학원 - 예·체능계학원"},{"name":"유니팝미술학원","tel":"","addr":"경기도 용인시 처인구 역북동 755-1번지 301호","category":"학원 - 예·체능계학원"},{"name":"육회지존용인역북점","tel":"031-333-6566","addr":"경기도 용인시 처인구 역북동 755-1번지 1층 112호","category":"일반휴게음식 - 일반한식"},{"name":"이태리부엌","tel":"070-2925-8710","addr":"경기도 용인시 처인구 역북동 755-1번지 골든프라자2 2층 201호","category":"일반휴게음식 - 일반한식"},{"name":"지컷헤어","tel":"02-423-3505","addr":"경기도 용인시 처인구 역북동 755-1번지 107호","category":"보건위생 - 미용원"},{"name":"짝태&노가리","tel":"","addr":"경기도 용인시 처인구 역북동 755-1번지 108호","category":"일반휴게음식 - 주점"},{"name":"칠성식당","tel":"031-322-7292","addr":"경기도 용인시 처인구 역북동 755-1번지 2층 202호","category":"일반휴게음식 - 일반한식"},{"name":"플레이어스(PLAYUS)","tel":"031-321-2315","addr":"경기도 용인시 처인구 역북동 755-1번지 골든프라자2 306호","category":"일반휴게음식 - 서양음식"},{"name":"헤어살롱더예쁨","tel":"031-332-7445","addr":"경기도 용인시 처인구 역북동 755-1번지 109호","category":"보건위생 - 미용원"},{"name":"홀닭반한","tel":"031-335-0101","addr":"경기도 용인시 처인구 역북동 755-1번지 102호","category":"일반휴게음식 - 일반한식"},{"name":"황실","tel":"070-8616-2223","addr":"경기도 용인시 처인구 역북동 755-1번지 305호","category":"보건위생 - 화장품"}]},{"lat":"37.240717817","long":"127.19842678","items":[{"name":"가마치통닭역북점","tel":"031-332-9911","addr":"경기도 용인시 처인구 역북동 271-25번지 1층","category":"일반휴게음식 - 스넥"},{"name":"다사랑내과의원","tel":"","addr":"경기도 용인시 처인구 역북동 271-25번지 2층","category":"의원 - 의원"},{"name":"미카헤어","tel":"031-332-8916","addr":"경기도 용인시 처인구 역북동 271-25번지 102호","category":"보건위생 - 미용원"},{"name":"에픽에듀[Epic Edu]","tel":"031-333-0578","addr":"경기도 용인시 처인구 역북동 271-25번지 3층","category":"학원 - 보습학원"},{"name":"큰집약국","tel":"031-323-7435","addr":"경기도 용인시 처인구 역북동 271-25번지 1층 103호","category":"약국 - 약국"}]},{"lat":"37.237298908","long":"127.18974049","items":[{"name":"가온누리","tel":"031-328-8744","addr":"경기도 용인시 처인구 역북동 425-7번지 2층","category":"일반휴게음식 - 일반한식"},{"name":"비비큐치킨","tel":"031-321-6121","addr":"경기도 용인시 처인구 역북동 425-7번지 1층","category":"일반휴게음식 - 스넥"},{"name":"신길양꼬치","tel":"050-5489-4189","addr":"경기도 용인시 처인구 역북동 425-7번지 1층","category":"일반휴게음식 - 일반한식"},{"name":"쭌선생실용음악학원","tel":"070-4025-4077","addr":"경기도 용인시 처인구 역북동 425-7번지","category":"회원제형태 - 학원"},{"name":"홍춘천명지대역점","tel":"031-336-4688","addr":"경기도 용인시 처인구 역북동 425-7번지 1층 2호","category":"일반휴게음식 - 일반한식"}]},{"lat":"37.239302868","long":"127.19862598","items":[{"name":"가위손이발관","tel":"031-336-6872","addr":"경기도 용인시 처인구 역북동 467-9번지 1층","category":"보건위생 - 이용원"}]},{"lat":"37.23916304","long":"127.1903762","items":[{"name":"가족헤어샵","tel":"031-321-2574","addr":"경기도 용인시 처인구 역북동 377-17번지 1층","category":"보건위생 - 미용원"}]},{"lat":"37.237968729","long":"127.18779252","items":[{"name":"가현종합설비","tel":"031-337-1335","addr":"경기도 용인시 처인구 역북동 417-19번지","category":"용역 서비스 - 기타용역서비스"}]},{"lat":"37.233966272","long":"127.18898852","items":[{"name":"갈풍집","tel":"031-335-1301","addr":"경기도 용인시 처인구 역북동 723-1번지 1층","category":"일반휴게음식 - 일반한식"},{"name":"더플라워","tel":"031-333-0563","addr":"경기도 용인시 처인구 역북동 723-1번지 103호","category":"문화.취미 - 화원"},{"name":"명지탁구클럽","tel":"031-339-9658","addr":"경기도 용인시 처인구 역북동 723-1번지 4층","category":"레저업소 - 기타레져업소"},{"name":"쁘띠메종 여성전용 고시텔","tel":"","addr":"경기도 용인시 처인구 역북동 723-1번지 5층","category":"학원 - 독서실"},{"name":"연세세브란스치과","tel":"031-526-2037","addr":"경기도 용인시 처인구 역북동 723-1번지 정명빌딩 3층","category":"의원 - 치과의원"},{"name":"호림한의원","tel":"031-337-1526","addr":"경기도 용인시 처인구 역북동 723-1번지 202호","category":"의원 - 한의원"}]},{"lat":"37.233998619","long":"127.18557411","items":[{"name":"감성미장","tel":"031-321-2929","addr":"경기도 용인시 처인구 역북동 736번지 우미린센트럴파크 상가 2동 1층 108호","category":"보건위생 - 미용원"},{"name":"개인과외","tel":"","addr":"경기도 용인시 처인구 역북동 736번지 우미린센트럴파크 110동 1004호","category":"학원 - 기타 교육기관"},{"name":"골프메카닉스","tel":"031-751-6366","addr":"경기도 용인시 처인구 역북동 736번지 우미린센트럴파크 110동 1404호","category":"레져용품 - 스포츠·레져용품"},{"name":"공부천국","tel":"070-8031-4038","addr":"경기도 용인시 처인구 역북동 736번지 우미린센트럴파크 102동 103호","category":"학원 - 기타 교육기관"},{"name":"과일나무","tel":"","addr":"경기도 용인시 처인구 역북동 736번지 우미린센트럴파크 상가 1동 109호","category":"음료식품 - 농·축·수산품"},{"name":"늘문정육점","tel":"","addr":"경기도 용인시 처인구 역북동 736번지 우미린센트럴파크 상가2동 지하1층 111호","category":"음료식품 - 정육점"},{"name":"라라라","tel":"","addr":"경기도 용인시 처인구 역북동 736번지 우미린센트럴파크 상가동 109호","category":"의류 - 정장"},{"name":"모찌가카페본점","tel":"02-1111-1111","addr":"경기도 용인시 처인구 역북동 736번지 우미린센트럴파크 지하1층 108호","category":"일반휴게음식 - 서양음식"},{"name":"새마을축산","tel":"031-322-1717","addr":"경기도 용인시 처인구 역북동 736번지 우미린센트럴파크 상가 1동 103호","category":"음료식품 - 정육점"},{"name":"셀파우등생교실","tel":"031-321-7358","addr":"경기도 용인시 처인구 역북동 736번지 우미린센트럴파크 103동 302호","category":"학원 - 기타 교육기관"},{"name":"씨유역북우미린점","tel":"031-239-6670","addr":"경기도 용인시 처인구 역북동 736번지 우미 린 센트럴파크 2상가동 101호","category":"유통업 영리 - 편 의 점"},{"name":"안시사이언스","tel":"","addr":"경기도 용인시 처인구 역북동 736번지 우미린센트럴파크 110동 202호","category":"학원 - 기타 교육기관"},{"name":"에듀바비용인처인지사","tel":"02-1522-0701","addr":"경기도 용인시 처인구 역북동 736번지 우미린센트럴파크","category":"용역 서비스 - 사무서비스"},{"name":"역북경희대태권도장","tel":"031-322-3655","addr":"경기도 용인시 처인구 역북동 736번지 우미린센트럴파크 상가1동 206-208호","category":"학원 - 예·체능계학원"},{"name":"역북우미린뮤엠","tel":"031-328-2771","addr":"경기도 용인시 처인구 역북동 736번지 우미린센트럴파크 110동 201호","category":"학원 - 기타 교육기관"},{"name":"윤선생우리집앞영어교실역북우미린","tel":"","addr":"경기도 용인시 처인구 역북동 736번지 우미린센트럴파크 103동 501호","category":"학원 - 기타 교육기관"},{"name":"잇츠네일(It's NAIL)","tel":"031-338-3421","addr":"경기도 용인시 처인구 역북동 736번지 우미린센트럴파크 상가 1동 204호","category":"보건위생 - 피부미용실"},{"name":"창의놀이터","tel":"031-333-9728","addr":"경기도 용인시 처인구 역북동 736번지 우미린센트럴파크 상가 1동 2층 203호","category":"학원 - 기타 교육기관"},{"name":"코딩앤플레이스역북센터","tel":"031-337-0953","addr":"경기도 용인시 처인구 역북동 736번지 우미린센트럴파크 101동 201호","category":"학원 - 기타 교육기관"},{"name":"크린에이드 역북이섬점","tel":"031-338-0446","addr":"경기도 용인시 처인구 역북동 736번지 우미린센트럴파크 단지내 상가동 1동 202호","category":"수리서비스 - 세탁소"},{"name":"하이든음악학원","tel":"031-322-3495","addr":"경기도 용인시 처인구 역북동 736번지 우미린센트럴파크 상가 1동 201호","category":"학원 - 예·체능계학원"},{"name":"함박공인중개사사무소","tel":"031-333-5600","addr":"경기도 용인시 처인구 역북동 736번지 우미린센트럴파크 상가 2동 102호","category":"용역 서비스 - 부동산 중개·임대"}]},{"lat":"37.229468724","long":"127.18407577","items":[{"name":"강남명품세탁소","tel":"031-333-2959","addr":"경기도 용인시 처인구 역북동 808번지 골드클래스 상가동 1층 103호","category":"수리서비스 - 세탁소"},{"name":"루비네일","tel":"031-333-5566","addr":"경기도 용인시 처인구 역북동 808번지 골드클래스 상가동 1층 101호","category":"보건위생 - 피부미용실"},{"name":"엉클스치킨","tel":"031-333-4410","addr":"경기도 용인시 처인구 역북동 808번지 골드클래스 1층 104호","category":"일반휴게음식 - 스넥"},{"name":"올가뷰티","tel":"","addr":"경기도 용인시 처인구 역북동 808번지 골드클래스 상가동 108호","category":"보건위생 - 피부미용실"},{"name":"제이미헤어","tel":"031-334-5959","addr":"경기도 용인시 처인구 역북동 808번지 골드클래스 상가동 107호","category":"보건위생 - 미용원"}]},{"lat":"37.236911644","long":"127.18962684","items":[{"name":"강릉교동짬뽕","tel":"031-334-8885","addr":"경기도 용인시 처인구 역북동 428번지 1층","category":"일반휴게음식 - 중국식"},{"name":"맥스복싱짐","tel":"031-321-6315","addr":"경기도 용인시 처인구 역북동 428번지 충 2","category":"레저업소 - 헬스클럽"},{"name":"부쳐부쳐","tel":"031-336-3311","addr":"경기도 용인시 처인구 역북동 428번지 1층","category":"일반휴게음식 - 일반한식"},{"name":"전곱","tel":"031-323-2984","addr":"경기도 용인시 처인구 역북동 428번지","category":"일반휴게음식 - 일반한식"},{"name":"허니허니스튜디오","tel":"031-321-0401","addr":"경기도 용인시 처인구 역북동 428번지","category":"광학제품 - 사진관"}]},{"lat":"37.243301176","long":"127.18885368","items":[{"name":"강원도","tel":"031-333-8881","addr":"경기도 용인시 처인구 역북동 313-8번지 현창빌딩 1층","category":"일반휴게음식 - 일식·회집"},{"name":"성산숯불갈비","tel":"031-321-2208","addr":"경기도 용인시 처인구 역북동 313-8번지 현창빌딩","category":"일반휴게음식 - 일반한식"}]},{"lat":"37.228886968","long":"127.18737596","items":[{"name":"강한남자들의고기집","tel":"031-334-5599","addr":"경기도 용인시 처인구 역북동 777-5번지 1층","category":"일반휴게음식 - 일반한식"}]},{"lat":"37.230301111","long":"127.18768365","items":[{"name":"강한남자들의맥주집","tel":"","addr":"경기도 용인시 처인구 역북동 776번지 102호","category":"일반휴게음식 - 일반한식"}]},{"lat":"37.226164713","long":"127.18810173","items":[{"name":"갯마을조개구이","tel":"031-339-9239","addr":"경기도 용인시 처인구 역북동 604-7번지 1층","category":"일반휴게음식 - 일반한식"},{"name":"한솥도시락","tel":"031-334-1181","addr":"경기도 용인시 처인구 역북동 604-7번지 103호","category":"일반휴게음식 - 일반한식"}]},{"lat":"37.248299461","long":"127.19039883","items":[{"name":"경기 P.V.C 상사","tel":"031-322-2145","addr":"경기도 용인시 처인구 역북동 112-2","category":"건축자재 - 기타건축자재"}]},{"lat":"37.233857883","long":"127.18915729","items":[{"name":"경기빙과","tel":"031-336-4461","addr":"경기도 용인시 처인구 역북동 723-3번지","category":"음료식품 - 기타음료식품"},{"name":"윤숲","tel":"031-000-0000","addr":"경기도 용인시 처인구 역북동 723-3번지 1층","category":"일반휴게음식 - 서양음식"}]},{"lat":"37.234803751","long":"127.18929484","items":[{"name":"경원냉동설비","tel":"031-339-8856","addr":"경기도 용인시 처인구 역북동 721-1번지 역북마을신성아파트","category":"용역 서비스 - 기타용역서비스"}]},{"lat":"37.231769543","long":"127.18784499","items":[{"name":"고기원칙 용인역북점","tel":"031-0000-0000","addr":"경기도 용인시 처인구 역북동 759번지 1층","category":"일반휴게음식 - 일반한식"},{"name":"금비단가","tel":"031-322-6462","addr":"경기도 용인시 처인구 역북동 759번지 109호","category":"음료식품 - 기타음료식품"},{"name":"꼬꼬아찌 역북명지대점","tel":"031-526-7642","addr":"경기도 용인시 처인구 역북동 759번지 104호","category":"일반휴게음식 - 일반한식"},{"name":"도쿄술집","tel":"031-333-2290","addr":"경기도 용인시 처인구 역북동 759번지 용인H탑 2층 205호","category":"일반휴게음식 - 주점"},{"name":"리안헤어(용인명지대점)","tel":"031-323-1014","addr":"경기도 용인시 처인구 역북동 759번지 303호","category":"보건위생 - 미용원"},{"name":"명품노래연습장","tel":"031-322-8369","addr":"경기도 용인시 처인구 역북동 759번지 3층 302호","category":"레저업소 - 노 래 방"},{"name":"비어첸용인역북점","tel":"031-333-3345","addr":"경기도 용인시 처인구 역북동 759번지 204,203호일부","category":"일반휴게음식 - 주점"},{"name":"양신콩국 용인역북점","tel":"031-339-3347","addr":"경기도 용인시 처인구 역북동 759번지 108호","category":"일반휴게음식 - 일반한식"},{"name":"연안식당 용인역북점","tel":"031-338-9599","addr":"경기도 용인시 처인구 역북동 759번지 용인H탑 107,108호","category":"일반휴게음식 - 일반한식"},{"name":"용인이안한방병원","tel":"031-333-0051","addr":"경기도 용인시 처인구 역북동 759번지 501호~504호/601~603호/701,702호","category":"병원 - 한방병원"},{"name":"용인파란문약국","tel":"031-323-3272","addr":"경기도 용인시 처인구 역북동 759번지 H탑-용인2 1층 105호","category":"약국 - 약국"},{"name":"우주라이크커피 명지대점","tel":"","addr":"경기도 용인시 처인구 역북동 759번지","category":"일반휴게음식 - 서양음식"},{"name":"육차돌 용인역북점","tel":"031-323-3346","addr":"경기도 용인시 처인구 역북동 759번지 2층 201,202,203(일부)호","category":"일반휴게음식 - 일반한식"},{"name":"인스앤슬라임 용인역북점","tel":"031-3332-3332","addr":"경기도 용인시 처인구 역북동 759번지 3층","category":"서적문구 - 완구점"},{"name":"청담피트니스","tel":"031-339-2888","addr":"경기도 용인시 처인구 역북동 759번지 H탑용인2 404~406호","category":"레져용품 - 스포츠·레져용품"},{"name":"청담필라테스","tel":"031-339-2888","addr":"경기도 용인시 처인구 역북동 759번지 엽북동 H탑 용인2 401~403호","category":"레져용품 - 스포츠·레져용품"},{"name":"홍루이젠역북점","tel":"031-333-7083","addr":"경기도 용인시 처인구 역북동 759번지 1층 110호","category":"일반휴게음식 - 일반한식"}]},{"lat":"37.235300765","long":"127.19404037","items":[{"name":"고려상사","tel":"031-321-0477","addr":"경기도 용인시 처인구 역북동 446-10번지","category":"건축자재 - 페인트"},{"name":"신화사","tel":"031-322-5769","addr":"경기도 용인시 처인구 역북동 446-10번지","category":"직물 - 침구·수예점"}]},{"lat":"37.236662712","long":"127.18748506","items":[{"name":"고려수지침학회","tel":"031-336-8275","addr":"경기도 용인시 처인구 역북동 423-15번지 예성빌딩 403호","category":"보건위생 - 의료용품"},{"name":"루이애드","tel":"031-337-1379","addr":"경기도 용인시 처인구 역북동 423-15번지 예성빌딩 204호","category":"회원제형태 - 기타4"},{"name":"새솔아동발달지원센타","tel":"031-336-7005","addr":"경기도 용인시 처인구 역북동 423-15번지 예성빌딩 3층 306호","category":"회원제형태 - 학원"},{"name":"세상물정","tel":"031-337-1990","addr":"경기도 용인시 처인구 역북동 423-15번지 예성빌딩 204호","category":"용역 서비스 - 종합용역"},{"name":"세아환경주식회사","tel":"031-321-2538","addr":"경기도 용인시 처인구 역북동 423-15번지 예성빌딩 303호","category":"용역 서비스 - 기타용역서비스"}]},{"lat":"37.231553331","long":"127.18782193","items":[{"name":"고릴라치과의원","tel":"031-328-8873","addr":"경기도 용인시 처인구 역북동 759-1번지 3층 301호","category":"의원 - 치과의원"},{"name":"광장노래연습장","tel":"","addr":"경기도 용인시 처인구 역북동 759-1번지 4층 404호","category":"레저업소 - 노 래 방"},{"name":"광장약국","tel":"031-333-2773","addr":"경기도 용인시 처인구 역북동 759-1번지","category":"약국 - 약국"},{"name":"놀숲 용인역북점","tel":"031-333-5186","addr":"경기도 용인시 처인구 역북동 759-1번지 402호","category":"서적문구 - 일반서적"},{"name":"더블루밍랩","tel":"070-8956-9241","addr":"경기도 용인시 처인구 역북동 759-1번지 1층 112호","category":"일반휴게음식 - 서양음식"},{"name":"돈까스광장","tel":"031-333-0113","addr":"경기도 용인시 처인구 역북동 759-1번지 광장프라자 1층 111호","category":"일반휴게음식 - 서양음식"},{"name":"두리이비인후과","tel":"031-334-2004","addr":"경기도 용인시 처인구 역북동 759-1번지 302호","category":"의원 - 의원"},{"name":"리얼야구존","tel":"031-333-9966","addr":"경기도 용인시 처인구 역북동 759-1번지 601 ,602호","category":"레저업소 - 기타레져업소"},{"name":"명랑시대쌀핫도그용인역북점","tel":"031-337-0513","addr":"경기도 용인시 처인구 역북동 759-1번지 1층 113호","category":"일반휴게음식 - 서양음식"},{"name":"블럭팡 용인역북점","tel":"031-335-4600","addr":"경기도 용인시 처인구 역북동 759-1번지 5층 504호","category":"서적문구 - 완구점"},{"name":"스시도도","tel":"031-333-4552","addr":"경기도 용인시 처인구 역북동 759-1번지 101호","category":"일반휴게음식 - 일식·회집"},{"name":"용인전자담배갤러리","tel":"","addr":"경기도 용인시 처인구 역북동 759-1번지 108호","category":"기타 - 기타 전문점"},{"name":"전부인","tel":"031-338-8202","addr":"경기도 용인시 처인구 역북동 759-1번지 1층 110호","category":"일반휴게음식 - 일반한식"},{"name":"정다움짬뽕/주식회사 선전푸드시스 용인지","tel":"031-323-2733","addr":"경기도 용인시 처인구 역북동 759-1번지 106~108호,201~206호","category":"일반휴게음식 - 중국식"},{"name":"지안텔레콤","tel":"031-323-2010","addr":"경기도 용인시 처인구 역북동 759-1번지 광장프라자 103,104호","category":"사무통신 - 통신기기"},{"name":"쭈꾸미광장","tel":"031-321-1358","addr":"경기도 용인시 처인구 역북동 759-1번지 2층 204호","category":"일반휴게음식 - 일반한식"},{"name":"카츠곳간","tel":"031-334-0970","addr":"경기도 용인시 처인구 역북동 759-1번지 201호","category":"일반휴게음식 - 일반한식"},{"name":"쿨샵마사지","tel":"031-756-5845","addr":"경기도 용인시 처인구 역북동 759-1번지 304호","category":"보건위생 - 피부미용실"},{"name":"투썸플레이스(용인역북점)","tel":"031-323-0044","addr":"경기도 용인시 처인구 역북동 759-1번지 역북지구광장프라자 105,106,202호","category":"일반휴게음식 - 서양음식"},{"name":"포메인(용인역북점)","tel":"031-321-0077","addr":"경기도 용인시 처인구 역북동 759-1번지 203호","category":"일반휴게음식 - 서양음식"},{"name":"포크포크","tel":"031-339-0153","addr":"경기도 용인시 처인구 역북동 759-1번지 102호","category":"일반휴게음식 - 서양음식"}]},{"lat":"37.231888309","long":"127.1867973","items":[{"name":"고베규카츠","tel":"031-339-7038","addr":"경기도 용인시 처인구 역북동 754번지 2층 206호","category":"일반휴게음식 - 일반한식"},{"name":"고양이부엌","tel":"031-333-3193","addr":"경기도 용인시 처인구 역북동 754번지 리치타워 101호","category":"일반휴게음식 - 일반한식"},{"name":"동태랑갑오징어","tel":"","addr":"경기도 용인시 처인구 역북동 754번지 106호,107호","category":"일반휴게음식 - 일반한식"},{"name":"마꼬창","tel":"","addr":"경기도 용인시 처인구 역북동 754번지 리치타워 1층 109호","category":"일반휴게음식 - 일반한식"},{"name":"맵도리탕 (용인역북지구점)","tel":"","addr":"경기도 용인시 처인구 역북동 754번지 1층 108호","category":"일반휴게음식 - 일반한식"},{"name":"무한리필쏘고기(무쏘)","tel":"031-335-2030","addr":"경기도 용인시 처인구 역북동 754번지 201,202,203호","category":"일반휴게음식 - 일반한식"},{"name":"부라보쪽갈비","tel":"031-328-2692","addr":"경기도 용인시 처인구 역북동 754번지 102,103호","category":"일반휴게음식 - 일반한식"},{"name":"빨간펜수학의달인신역북점학원","tel":"031-336-9199","addr":"경기도 용인시 처인구 역북동 754번지 리치타워 302호","category":"학원 - 보습학원"},{"name":"수비덕스테이크","tel":"031-338-1101","addr":"경기도 용인시 처인구 역북동 754번지 207호","category":"일반휴게음식 - 일반한식"},{"name":"써니김밥","tel":"031-323-2133","addr":"경기도 용인시 처인구 역북동 754번지 104호","category":"일반휴게음식 - 일반한식"},{"name":"아리랑아지트","tel":"070-7365-0492","addr":"경기도 용인시 처인구 역북동 754번지 105호","category":"일반휴게음식 - 일반한식"},{"name":"아이센스리그PC방","tel":"","addr":"경기도 용인시 처인구 역북동 754번지 리치타워 303호, 304호","category":"레저업소 - 기타레져업소"},{"name":"역북정철어학원","tel":"041-322-5500","addr":"경기도 용인시 처인구 역북동 754번지 402호,403호","category":"학원 - 외국어학원"},{"name":"역북카카오VX","tel":"","addr":"경기도 용인시 처인구 역북동 754번지 리치타워 5층 501,502,503,504호","category":"레져용품 - 골프용품 전문점"},{"name":"우육면","tel":"031-000-0000","addr":"경기도 용인시 처인구 역북동 754번지 205호","category":"일반휴게음식 - 일반한식"},{"name":"테니스온","tel":"","addr":"경기도 용인시 처인구 역북동 754번지 리치타워 6층","category":"레저업소 - 테니스장"}]},{"lat":"37.233164444","long":"127.18893021","items":[{"name":"곤드레찜드레","tel":"031-335-6777","addr":"경기도 용인시 처인구 역북동 582-16번지 104,105호","category":"일반휴게음식 - 일반한식"},{"name":"오디너리커피","tel":"","addr":"경기도 용인시 처인구 역북동 582-16번지 영수상가 106호","category":"일반휴게음식 - 서양음식"}]},{"lat":"37.231824466","long":"127.18729297","items":[{"name":"골든벨노래연습장","tel":"031-322-3177","addr":"경기도 용인시 처인구 역북동 756번지 301호,302호","category":"레저업소 - 노 래 방"},{"name":"꼬치만개","tel":"031-321-1779","addr":"경기도 용인시 처인구 역북동 756번지 201호","category":"일반휴게음식 - 일반한식"},{"name":"더 공간 스터디카페 용인명지대점","tel":"","addr":"경기도 용인시 처인구 역북동 756번지 5층 503호","category":"용역 서비스 - 사무서비스"},{"name":"도쿄라멘","tel":"","addr":"경기도 용인시 처인구 역북동 756번지","category":"일반휴게음식 - 일반한식"},{"name":"디저트39 용인역북점","tel":"031-339-2232","addr":"경기도 용인시 처인구 역북동 756번지 102호","category":"일반휴게음식 - 서양음식"},{"name":"루프탑1992","tel":"02-1111-1111","addr":"경기도 용인시 처인구 역북동 756번지 7층 701호","category":"일반휴게음식 - 일반한식"},{"name":"마브로(MAVRO)","tel":"02-1111-1111","addr":"경기도 용인시 처인구 역북동 756번지 304호","category":"일반휴게음식 - 일반한식"},{"name":"설화참치","tel":"031-223-5214","addr":"경기도 용인시 처인구 역북동 756번지 202호","category":"일반휴게음식 - 일식·회집"},{"name":"스츠미","tel":"","addr":"경기도 용인시 처인구 역북동 756번지 101호","category":"일반휴게음식 - 일반한식"},{"name":"에어로점핑","tel":"031-1111-1111","addr":"경기도 용인시 처인구 역북동 756번지 401호","category":"레저업소 - 헬스클럽"},{"name":"여장군역북점","tel":"031-1111-1111","addr":"경기도 용인시 처인구 역북동 756번지 1층 105호,106호","category":"일반휴게음식 - 일반한식"},{"name":"역북회직판장","tel":"031-328-2058","addr":"경기도 용인시 처인구 역북동 756번지 103동 104호","category":"일반휴게음식 - 일식·회집"},{"name":"용인야다이","tel":"031-338-7712","addr":"경기도 용인시 처인구 역북동 756번지 H탑 2층 203호","category":"일반휴게음식 - 일반한식"},{"name":"용인야다이","tel":"031-338-7712","addr":"경기도 용인시 처인구 역북동 756번지 203호","category":"일반휴게음식 - 일반한식"},{"name":"용인역북남부점 빽다방","tel":"031-335-9146","addr":"경기도 용인시 처인구 역북동 756번지 108호","category":"일반휴게음식 - 서양음식"},{"name":"즐거운 맥주 더 루프탑","tel":"031-326-0805","addr":"경기도 용인시 처인구 역북동 756번지 탑3빌딩 601호","category":"일반휴게음식 - 주점"},{"name":"치요남치킨 용인역북점","tel":"031-336-1818","addr":"경기도 용인시 처인구 역북동 756번지 109호","category":"일반휴게음식 - 스넥"},{"name":"칠성포차용인명지대점","tel":"","addr":"경기도 용인시 처인구 역북동 756번지 204호","category":"일반휴게음식 - 일반한식"},{"name":"커피콩자매","tel":"","addr":"경기도 용인시 처인구 역북동 756번지 702호일부","category":"일반휴게음식 - 서양음식"},{"name":"터치왁싱","tel":"","addr":"경기도 용인시 처인구 역북동 756번지 4층 404호","category":"보건위생 - 피부미용실"},{"name":"하정양평해장국(역북점)","tel":"031-336-5454","addr":"경기도 용인시 처인구 역북동 756번지 107호","category":"일반휴게음식 - 일반한식"}]},{"lat":"37.228687175","long":"127.18837834","items":[{"name":"골마켓 용인처인점","tel":"031-321-3659","addr":"경기도 용인시 처인구 역북동 597번지 1층 일부","category":"레져용품 - 스포츠·레져용품"},{"name":"라쥬아베이커리카페","tel":"031-337-0453","addr":"경기도 용인시 처인구 역북동 597번지 1층","category":"음료식품 - 제과점"},{"name":"법무법인동천","tel":"031-334-1600","addr":"경기도 용인시 처인구 역북동 597번지","category":"용역 서비스 - 법률회계서비스(법인)"},{"name":"용인상공회의소","tel":"031-8020-9577","addr":"경기도 용인시 처인구 역북동 597번지","category":"용역 서비스 - 사무서비스"},{"name":"용인상공회의소","tel":"031-8020-9577","addr":"경기도 용인시 처인구 역북동 597번지","category":"용역 서비스 - 사무서비스"},{"name":"주식회사 용인골프존","tel":"031-334-0999","addr":"경기도 용인시 처인구 역북동 597번지","category":"레저업소 - 스크린골프"}]},{"lat":"37.239022739","long":"127.19359898","items":[{"name":"골목식당","tel":"031-322-5039","addr":"경기도 용인시 처인구 역북동 434-85번지","category":"일반휴게음식 - 일반한식"}]},{"lat":"37.235911164","long":"127.19546183","items":[{"name":"골뱅이와빈대떡","tel":"031-336-6947","addr":"경기도 용인시 처인구 역북동 483-17번지 1층","category":"일반휴게음식 - 주점"}]},{"lat":"37.236768171","long":"127.18918699","items":[{"name":"곱창의신,마약곱창","tel":"031-336-1213","addr":"경기도 용인시 처인구 역북동 423-8번지","category":"일반휴게음식 - 일반한식"},{"name":"플러스당구클럽","tel":"031-336-3631","addr":"경기도 용인시 처인구 역북동 423-8번지 2층","category":"레저업소 - 당 구 장"}]},{"lat":"37.250353266","long":"127.19074206","items":[{"name":"공리","tel":"031-322-9259","addr":"경기도 용인시 처인구 역북동 108-5번지 1층","category":"일반휴게음식 - 중국식"},{"name":"카페제로투원","tel":"031-333-0021","addr":"경기도 용인시 처인구 역북동 108-5번지 101호","category":"일반휴게음식 - 서양음식"}]},{"lat":"37.239717154","long":"127.19873975","items":[{"name":"공연제작센타","tel":"031-904-0274","addr":"경기도 용인시 처인구 역북동 465-1번지 2층","category":"문화.취미 - 티켓"},{"name":"용인대타이곤태권도","tel":"031-336-1432","addr":"경기도 용인시 처인구 역북동 465-1번지 외1필지 2층","category":"학원 - 예·체능계학원"},{"name":"제이와이(JY)푸드","tel":"031-337-0366","addr":"경기도 용인시 처인구 역북동 465-1번지 1층","category":"일반휴게음식 - 일반한식"},{"name":"파파헤어라인","tel":"031-336-4304","addr":"경기도 용인시 처인구 역북동 465-1번지","category":"보건위생 - 미용원"}]},{"lat":"37.230776198","long":"127.1834366","items":[{"name":"과일숲","tel":"031-323-1253","addr":"경기도 용인시 처인구 역북동 809번지 역북지웰푸르지오 1층 7호","category":"음료식품 - 농·축·수산품"},{"name":"굽네치킨(용인역북점)","tel":"031-339-9294","addr":"경기도 용인시 처인구 역북동 809번지 역북지웰푸르지오 상가동 지1층 13호","category":"일반휴게음식 - 일반한식"},{"name":"나는음악가음악학원","tel":"031-335-7133","addr":"경기도 용인시 처인구 역북동 809번지 역북지웰푸르지오 503호","category":"학원 - 예·체능계학원"},{"name":"다둥이네 푸줏간","tel":"031-333-5482","addr":"경기도 용인시 처인구 역북동 809번지 역북지웰푸르지오 1층 6호","category":"음료식품 - 정육점"},{"name":"봄별공방","tel":"","addr":"경기도 용인시 처인구 역북동 809번지 역북지웰푸르지오","category":"문화.취미 - 문화취미기타"},{"name":"비상태권도장","tel":"031-333-9631","addr":"경기도 용인시 처인구 역북동 809번지 역북지웰푸르지오 상가동 지1층 3,4호","category":"학원 - 예·체능계학원"},{"name":"아름다운 향기","tel":"","addr":"경기도 용인시 처인구 역북동 809번지 역북지웰푸르지오","category":"신변잡화 - 기타잡화"},{"name":"에스원 골프 아카데미","tel":"031-3049-2002","addr":"경기도 용인시 처인구 역북동 809번지 역북지웰푸르지오","category":"레저업소 - 골프연습장"},{"name":"용인크린토피아역북푸르지오점","tel":"031-322-7770","addr":"경기도 용인시 처인구 역북동 809번지 역북지웰푸르지오 상가동 지하1층 5호","category":"수리서비스 - 세탁소"},{"name":"하늘공조","tel":"","addr":"경기도 용인시 처인구 역북동 809번지 역북지웰푸르지오","category":"용역 서비스 - 기타용역서비스"},{"name":"함박꽃 음악학원","tel":"031-334-6621","addr":"경기도 용인시 처인구 역북동 809번지 역북지웰푸르지오 상가동 1호","category":"학원 - 예·체능계학원"}]},{"lat":"37.237799007","long":"127.1981037","items":[{"name":"과일천국","tel":"031-339-0909","addr":"경기도 용인시 처인구 역북동 632-48번지 1층","category":"음료식품 - 농·축·수산품"},{"name":"맛있는빵집2호","tel":"031-338-3434","addr":"경기도 용인시 처인구 역북동 632-48번지 1층","category":"음료식품 - 제과점"},{"name":"편의점사랑(김량점역점)","tel":"031-336-0990","addr":"경기도 용인시 처인구 역북동 632-48번지 외1필지","category":"유통업 영리 - 슈퍼마켓"},{"name":"필헤어#","tel":"031-335-8905","addr":"경기도 용인시 처인구 역북동 632-48번지 1층","category":"보건위생 - 미용원"}]},{"lat":"37.236546558","long":"127.19256724","items":[{"name":"관인박옥주피아노학원","tel":"031-335-0823","addr":"경기도 용인시 처인구 역북동 438-10번지","category":"학원 - 예·체능계학원"},{"name":"꿀꿀이노래연습장","tel":"031-321-0119","addr":"경기도 용인시 처인구 역북동 438-10번지 지하1층","category":"레저업소 - 노 래 방"},{"name":"서린정","tel":"031-335-4902","addr":"경기도 용인시 처인구 역북동 438-10번지","category":"일반휴게음식 - 일반한식"}]},{"lat":"37.244272065","long":"127.19026488","items":[{"name":"궁","tel":"031-336-6500","addr":"경기도 용인시 처인구 역북동 202-2번지 외1필지","category":"일반휴게음식 - 중국식"}]},{"lat":"37.237824814","long":"127.18176298","items":[{"name":"그린꽃화원","tel":"031-281-1889","addr":"경기도 용인시 처인구 역북동 367-10번지","category":"문화.취미 - 화원"}]},{"lat":"37.229465656","long":"127.18607025","items":[{"name":"그린라이트","tel":"","addr":"경기도 용인시 처인구 역북동 767-6번지","category":"문화.취미 - 화원"}]},{"lat":"37.237768909","long":"127.19446357","items":[{"name":"그린스포츠","tel":"031-339-2333","addr":"경기도 용인시 처인구 역북동 456-2번지 1층","category":"레져용품 - 스포츠·레져용품"},{"name":"떴다","tel":"","addr":"경기도 용인시 처인구 역북동 456-2번지 2층","category":"레저업소 - 노 래 방"},{"name":"백조세탁소","tel":"031-335-6166","addr":"경기도 용인시 처인구 역북동 456-2","category":"수리서비스 - 세탁소"},{"name":"용인전자담배","tel":"","addr":"경기도 용인시 처인구 역북동 456-2번지","category":"기타 - 기타 전문점"}]},{"lat":"37.240965845","long":"127.18990732","items":[{"name":"그린이벤트","tel":"031-336-0412","addr":"경기도 용인시 처인구 역북동 318-18번지","category":"용역 서비스 - 사무서비스"},{"name":"다온스포츠","tel":"031-282-3049","addr":"경기도 용인시 처인구 역북동 318-18번지 103호","category":"레져용품 - 스포츠·레져용품"},{"name":"천하제일이벤트","tel":"","addr":"경기도 용인시 처인구 역북동 318-18번지 B04호","category":"용역 서비스 - 종합용역"}]},{"lat":"37.237554432","long":"127.18767881","items":[{"name":"그린정보통신","tel":"031-335-7752","addr":"경기도 용인시 처인구 역북동 418-5번지","category":"사무통신 - 통신기기"},{"name":"미바트","tel":"02-959-0324","addr":"경기도 용인시 처인구 역북동 418-5번지 104호","category":"건축자재 - 인테리어전문"},{"name":"숙명멜로디 음악교습소","tel":"","addr":"경기도 용인시 처인구 역북동 418-5번지","category":"학원 - 예·체능계학원"},{"name":"쮸커","tel":"","addr":"경기도 용인시 처인구 역북동 418-5번지 1층","category":"일반휴게음식 - 서양음식"},{"name":"치킨플러스용인역북점","tel":"031-322-7070","addr":"경기도 용인시 처인구 역북동 418-5번지 102호","category":"일반휴게음식 - 스넥"}]},{"lat":"37.238104762","long":"127.18134667","items":[{"name":"금호365","tel":"031-336-3230","addr":"경기도 용인시 처인구 역북동 366-6번지","category":"자동차정비 유지 - 자동차부품"},{"name":"행랑채","tel":"031-335-3275","addr":"경기도 용인시 처인구 역북동 366-6 1/2","category":"일반휴게음식 - 일반한식"}]},{"lat":"37.243772424","long":"127.19282202","items":[{"name":"금호자동차공업사","tel":"031-336-9494","addr":"경기도 용인시 처인구 역북동 213-26번지","category":"자동차정비 유지 - 자동차정비"},{"name":"원탑손세차장","tel":"031-336-9494","addr":"경기도 용인시 처인구 역북동 213-26번지","category":"자동차정비 유지 - 세차장"}]},{"lat":"37.244440519","long":"127.19198968","items":[{"name":"금호타이어(역북점)","tel":"031-338-4711","addr":"경기도 용인시 처인구 역북동 213-18번지","category":"자동차정비 유지 - 자동차정비"}]},{"lat":"37.23665948","long":"127.18954734","items":[{"name":"기장산꼼장어","tel":"031-323-0092","addr":"경기도 용인시 처인구 역북동 428-17번지 101호","category":"일반휴게음식 - 일반한식"},{"name":"더퍼스트힐링&커피","tel":"031-336-7309","addr":"경기도 용인시 처인구 역북동 428-17번지 103,104호","category":"일반휴게음식 - 서양음식"},{"name":"지니헤어","tel":"031-321-3331","addr":"경기도 용인시 처인구 역북동 428-17번지 105호","category":"보건위생 - 미용원"}]},{"lat":"37.237548134","long":"127.18593203","items":[{"name":"길용각","tel":"031-335-0013","addr":"경기도 용인시 처인구 역북동 391-3번지","category":"일반휴게음식 - 중국식"}]},{"lat":"37.232129779","long":"127.18795856","items":[{"name":"김가네김밥","tel":"031-321-8908","addr":"경기도 용인시 처인구 역북동 753-2번지","category":"일반휴게음식 - 일반한식"},{"name":"더풋샵 용인명지대점","tel":"031-334-1119","addr":"경기도 용인시 처인구 역북동 753-2번지 601호","category":"보건위생 - 화장품"},{"name":"리틀비틀","tel":"031-337-3636","addr":"경기도 용인시 처인구 역북동 753-2번지 5층","category":"일반휴게음식 - 서양음식"},{"name":"민들레치과","tel":"031-338-2275","addr":"경기도 용인시 처인구 역북동 753-2번지 3층 302호","category":"의원 - 치과의원"},{"name":"본도시락용인역북점","tel":"031-333-4282","addr":"경기도 용인시 처인구 역북동 753-2번지 1동 101층","category":"일반휴게음식 - 일반한식"},{"name":"비에뜨반미 명지대점","tel":"","addr":"경기도 용인시 처인구 역북동 753-2번지 1층 112호","category":"일반휴게음식 - 서양음식"},{"name":"선비만두역북점","tel":"031-339-4887","addr":"경기도 용인시 처인구 역북동 753-2번지 1층 103호","category":"일반휴게음식 - 일반한식"},{"name":"스타스터디학원","tel":"031-333-0515","addr":"경기도 용인시 처인구 역북동 753-2번지 602호","category":"학원 - 보습학원"},{"name":"신전떡볶이 (역북점)","tel":"031-337-2733","addr":"경기도 용인시 처인구 역북동 753-2번지 1층 109호","category":"일반휴게음식 - 일반한식"},{"name":"오네일","tel":"031-334-4343","addr":"경기도 용인시 처인구 역북동 753-2번지 113호","category":"보건위생 - 피부미용실"},{"name":"카페샌앤토명지대점","tel":"031-336-6669","addr":"경기도 용인시 처인구 역북동 753-2번지 1층 104호","category":"일반휴게음식 - 서양음식"},{"name":"토리헤어","tel":"031-338-6766","addr":"경기도 용인시 처인구 역북동 753-2번지 3층 303호","category":"보건위생 - 미용원"},{"name":"헌터PC역북점","tel":"070-9161-9241","addr":"경기도 용인시 처인구 역북동 753-2번지 4층","category":"레저업소 - 기타레져업소"}]},{"lat":"37.230664674","long":"127.17357645","items":[{"name":"김남희한우","tel":"031-322-2236","addr":"경기도 용인시 처인구 역북동 551-28번지","category":"음료식품 - 정육점"},{"name":"김남희한우","tel":"031-322-2236","addr":"경기도 용인시 처인구 역북동 551-28번지","category":"일반휴게음식 - 일반한식"}]},{"lat":"37.236352472","long":"127.18996354","items":[{"name":"김샘학원","tel":"031-323-6021","addr":"경기도 용인시 처인구 역북동 428-4 3,4층","category":"학원 - 보습학원"}]},{"lat":"37.235637377","long":"127.18629929","items":[{"name":"김스시","tel":"031-335-2225","addr":"경기도 용인시 처인구 역북동 734번지 역북동원로얄듀크 상가 119동 지하층 비123호","category":"일반휴게음식 - 일식·회집"},{"name":"더에스헤어","tel":"031-334-7712","addr":"경기도 용인시 처인구 역북동 734번지 역북동원로얄듀크 1층 108호","category":"보건위생 - 미용원"},{"name":"돌빙커피 본사직영점","tel":"031-322-8489","addr":"경기도 용인시 처인구 역북동 734번지 역북동원로얄듀크 B102,B103호","category":"일반휴게음식 - 서양음식"},{"name":"또뚜마켓","tel":"","addr":"경기도 용인시 처인구 역북동 734번지 역북동원로얄듀크 상가 119동 지하 B115호","category":"가구 - 기타가구"},{"name":"문헤어(Moon)","tel":"031-322-6157","addr":"경기도 용인시 처인구 역북동 734번지 역북동원로얄듀크 상가 119동 B113호","category":"보건위생 - 미용원"},{"name":"바른간판","tel":"","addr":"경기도 용인시 처인구 역북동 734번지 역북동원로얄듀크 110동 901호","category":"유통업 영리 - 기타유통업"},{"name":"바이민트","tel":"031-111-1111","addr":"경기도 용인시 처인구 역북동 734번지 역북동원로얄듀크 상가 114호","category":"일반휴게음식 - 서양음식"},{"name":"삼촌네과일","tel":"","addr":"경기도 용인시 처인구 역북동 734번지 역북동원로얄듀크 119동 B121호","category":"음료식품 - 농·축·수산품"},{"name":"선릿가든","tel":"070-4556-5366","addr":"경기도 용인시 처인구 역북동 734번지 제상가119동 제지하층B104호","category":"문화.취미 - 화원"},{"name":"세븐일레븐용인역북로얄점","tel":"031-1577-0711","addr":"경기도 용인시 처인구 역북동 734번지 역북동원로얄듀크 제상가119동 제지하층 109,110호","category":"유통업 영리 - 편 의 점"},{"name":"아이엠","tel":"031-332-8685","addr":"경기도 용인시 처인구 역북동 734번지 역북동원로얄듀크 상가 119동 지하 B101호","category":"사무통신 - 컴퓨터"},{"name":"어썸샵","tel":"031-328-2520","addr":"경기도 용인시 처인구 역북동 734번지 역북동원로얄듀크 119동 B105호","category":"보건위생 - 피부미용실"},{"name":"일구칠일(1971)헤어샵","tel":"031-338-9131","addr":"경기도 용인시 처인구 역북동 734번지 역북동원로얄듀크 상가119동지하1층118","category":"보건위생 - 미용원"},{"name":"전국반찬","tel":"031-919-5217","addr":"경기도 용인시 처인구 역북동 734번지 역북동원로얄듀크 B동 1층 117호","category":"음료식품 - 기타음료식품"},{"name":"진바오","tel":"","addr":"경기도 용인시 처인구 역북동 734번지 역북동원로얄듀크 102동 2102호","category":"보건위생 - 화장품"},{"name":"초록빛 아뜰리에","tel":"031-111-1111","addr":"경기도 용인시 처인구 역북동 734번지 역북동원로얄듀크 상가 119동 120호","category":"음료식품 - 기타음료식품"},{"name":"카앤피플 처인구2호점","tel":"","addr":"경기도 용인시 처인구 역북동 734번지 역북동원로얄듀크 105동 1301호","category":"자동차정비 유지 - 세차장"},{"name":"햇살머믄꼬마김밥","tel":"","addr":"경기도 용인시 처인구 역북동 734번지 역북동원로얄듀크 상가 119동 1층 116호","category":"일반휴게음식 - 스넥"},{"name":"향기로운 세탁","tel":"031-281-0207","addr":"경기도 용인시 처인구 역북동 734번지 역북동원로얄듀크 상가 119동 B119호","category":"수리서비스 - 세탁소"}]},{"lat":"37.235554884","long":"127.19290283","items":[{"name":"김진혁탁구클럽","tel":"031-322-7985","addr":"경기도 용인시 처인구 역북동 446-16번지 장난감백화점 지하층","category":"레저업소 - 기타레져업소"},{"name":"더블유 빌리지고시원","tel":"031-336-8253","addr":"경기도 용인시 처인구 역북동 446-16번지 장난감백화점 3층","category":"학원 - 독서실"},{"name":"빈폴아웃도어용인시청점","tel":"031-322-8877","addr":"경기도 용인시 처인구 역북동 446-16번지 장난감백화점 빈폴아웃도어용인시청 점","category":"레져용품 - 스포츠·레져용품"},{"name":"역북이룸프리미움스터디센터독서실","tel":"031-333-7233","addr":"경기도 용인시 처인구 역북동 446-16번지 장난감백화점 2층","category":"학원 - 독서실"}]},{"lat":"37.242215988","long":"127.19693172","items":[{"name":"까페시모 (역북점)","tel":"031-337-1266","addr":"경기도 용인시 처인구 역북동 291-8번지 역북1단지우남퍼스트빌","category":"일반휴게음식 - 서양음식"},{"name":"더 달달 아이스크림","tel":"070-7423-6603","addr":"경기도 용인시 처인구 역북동 291-8번지 역북1단지우남퍼스트빌 120동 102호 103호","category":"음료식품 - 기타음료식품"},{"name":"레인보우 홈케어","tel":"","addr":"경기도 용인시 처인구 역북동 291-8번지 역북1단지우남퍼스트빌","category":"자동차정비 유지 - 세차장"},{"name":"마루삼계탕","tel":"031-335-2489","addr":"경기도 용인시 처인구 역북동 291-8번지 역북1단지우남퍼스트빌 2층 203호","category":"일반휴게음식 - 일반한식"},{"name":"스터디업학원","tel":"031-322-1353","addr":"경기도 용인시 처인구 역북동 291-8번지 역북1단지우남퍼스트빌","category":"학원 - 보습학원"},{"name":"역북우남당구장","tel":"031-321-4980","addr":"경기도 용인시 처인구 역북동 291-8번지 역북1단지우남퍼스트빌 상가 120동 201호","category":"레저업소 - 당 구 장"},{"name":"우남어시장","tel":"031-000-0000","addr":"경기도 용인시 처인구 역북동 291-8번지 역북1단지우남퍼스트빌","category":"일반휴게음식 - 일식·회집"},{"name":"월드크리닝 용인역북점","tel":"031-321-5998","addr":"경기도 용인시 처인구 역북동 291-8번지 역북1단지우남퍼스트빌 120동 105층","category":"수리서비스 - 세탁소"}]},{"lat":"37.230526509","long":"127.18759405","items":[{"name":"께벨로","tel":"031-333-9099","addr":"경기도 용인시 처인구 역북동 762-4번지 (역북지구 단독 2-5블럭 로트)","category":"일반휴게음식 - 서양음식"}]},{"lat":"37.240880225","long":"127.19829196","items":[{"name":"꼬꼬C참숯불닭갈비","tel":"031-338-0092","addr":"경기도 용인시 처인구 역북동 271-5번지 1층","category":"일반휴게음식 - 일반한식"}]},{"lat":"37.235963137","long":"127.19115712","items":[{"name":"꽃뜰","tel":"031-335-9566","addr":"경기도 용인시 처인구 역북동 436-2번지","category":"문화.취미 - 화원"},{"name":"아이더용인점","tel":"031-334-2201","addr":"경기도 용인시 처인구 역북동 436-2번지 G3 TOWER 1층 101호","category":"레져용품 - 스포츠·레져용품"}]},{"lat":"37.228915714","long":"127.18627175","items":[{"name":"꾸리하우스","tel":"","addr":"경기도 용인시 처인구 역북동 773-2번지","category":"일반휴게음식 - 서양음식"}]},{"lat":"37.236830249","long":"127.18981822","items":[{"name":"끌림헤어","tel":"031-338-0008","addr":"경기도 용인시 처인구 역북동 428-1번지 102호","category":"보건위생 - 미용원"},{"name":"더 네일","tel":"031-321-9000","addr":"경기도 용인시 처인구 역북동 428-1번지 103호","category":"보건위생 - 화장품"},{"name":"뷰티아트","tel":"031-1111-1111","addr":"경기도 용인시 처인구 역북동 428-1번지 103호","category":"의류 - 정장"},{"name":"색동다리분식","tel":"0031-339-8338","addr":"경기도 용인시 처인구 역북동 428-1번지 비버리힐즈 101호","category":"일반휴게음식 - 스넥"}]},{"lat":"37.23729595","long":"127.17993609","items":[{"name":"나무이야기","tel":"031-337-9944","addr":"경기도 용인시 처인구 역북동 370-3번지 1층117-124호","category":"일반휴게음식 - 일반한식"},{"name":"나무이야기","tel":"031-337-3944","addr":"경기도 용인시 처인구 역북동 370-3번지 1층117~124호","category":"일반휴게음식 - 일반한식"},{"name":"앤스윗(CAFE ANN'S WIT)/(주)트리아스","tel":"031-898-0060","addr":"경기도 용인시 처인구 역북동 370-3번지 용인센트럴코업2층일부","category":"일반휴게음식 - 서양음식"},{"name":"호텔분식","tel":"031-333-8688","addr":"경기도 용인시 처인구 역북동 370-3번지 110호","category":"일반휴게음식 - 스넥"}]},{"lat":"37.235355136","long":"127.19384893","items":[{"name":"나비헤어비스","tel":"031-338-9578","addr":"경기도 용인시 처인구 역북동 446-11번지 2층","category":"보건위생 - 미용원"},{"name":"베니에듀학원","tel":"031-335-2992","addr":"경기도 용인시 처인구 역북동 446-11번지 2층일부","category":"학원 - 보습학원"},{"name":"새그린독서실","tel":"031-321-3214","addr":"경기도 용인시 처인구 역북동 446-11번지 3층 4호","category":"학원 - 독서실"},{"name":"알레르망 용인역북점","tel":"031-334-0011","addr":"경기도 용인시 처인구 역북동 446-11번지 1층","category":"직물 - 침구·수예점"}]},{"lat":"37.24688483","long":"127.1904066","items":[{"name":"남도수산","tel":"031-336-7717","addr":"경기도 용인시 처인구 역북동 214-3번지","category":"음료식품 - 농·축·수산품"},{"name":"해원일식","tel":"031-336-7717","addr":"경기도 용인시 처인구 역북동 214-3번지","category":"일반휴게음식 - 일식·회집"}]},{"lat":"37.237687663","long":"127.18890751","items":[{"name":"남양우유동용인대리점","tel":"031-213-7384","addr":"경기도 용인시 처인구 역북동 417-22번지 스타빌","category":"음료식품 - 기타음료식품"},{"name":"파마미용실(PAMA)","tel":"031-322-0558","addr":"경기도 용인시 처인구 역북동 417-22번지 스타빌 1층 101호","category":"보건위생 - 미용원"}]},{"lat":"37.235911439","long":"127.19529279","items":[{"name":"남해식당","tel":"031-335-0533","addr":"경기도 용인시 처인구 역북동 483-16번지 1층","category":"일반휴게음식 - 일반한식"}]},{"lat":"37.236385346","long":"127.19195829","items":[{"name":"내발이쏘푸드","tel":"031-333-3133","addr":"경기도 용인시 처인구 역북동 437-1번지 1층","category":"일반휴게음식 - 일반한식"},{"name":"밀라패션","tel":"070-7650-0195","addr":"경기도 용인시 처인구 역북동 437-1번지 104호","category":"의류 - 내의판매"},{"name":"아라스킨","tel":"031-337-0715","addr":"경기도 용인시 처인구 역북동 437-1번지 1층 104호","category":"보건위생 - 피부미용실"}]},{"lat":"37.239158144","long":"127.1989637","items":[{"name":"내밥상","tel":"031-335-9655","addr":"경기도 용인시 처인구 역북동 467-2번지 1층 일부","category":"일반휴게음식 - 일반한식"},{"name":"동화헤어샵","tel":"031-333-3900","addr":"경기도 용인시 처인구 역북동 467-2번지","category":"보건위생 - 미용원"},{"name":"멕시카나(용인아침도시점)","tel":"031-321-9585","addr":"경기도 용인시 처인구 역북동 467-2번지","category":"일반휴게음식 - 스넥"},{"name":"아드방네일 (A demain Nail)","tel":"","addr":"경기도 용인시 처인구 역북동 467-2번지 1층 일부","category":"보건위생 - 피부미용실"},{"name":"육회한불고기 (용인점)","tel":"031-334-8595","addr":"경기도 용인시 처인구 역북동 467-2번지 1층 2호","category":"일반휴게음식 - 일반한식"}]},{"lat":"37.23052672","long":"127.18745883","items":[{"name":"네리움헤어","tel":"031-336-7432","addr":"경기도 용인시 처인구 역북동 762-3번지 상가","category":"보건위생 - 미용원"}]},{"lat":"37.230110855","long":"127.18834802","items":[{"name":"네오튠즈","tel":"031-338-4042","addr":"경기도 용인시 처인구 역북동 571-1","category":"자동차정비 유지 - 자동차부품"},{"name":"레드(Red)","tel":"031-322-2622","addr":"경기도 용인시 처인구 역북동 571-1번지 101호","category":"자동차정비 유지 - 카인테리어"},{"name":"화이트세탁","tel":"031-355-2345","addr":"경기도 용인시 처인구 역북동 571-1번지 102호","category":"수리서비스 - 세탁소"}]},{"lat":"37.229383533","long":"127.18673488","items":[{"name":"네일제이(NAIL.J)","tel":"02-1600-5801","addr":"경기도 용인시 처인구 역북동 768-7번지 1층","category":"보건위생 - 피부미용실"},{"name":"베이킹 스튜디오 쏙(BAKING STUDIO SSOK)","tel":"070-4038-5507","addr":"경기도 용인시 처인구 역북동 768-7번지 101호","category":"문화.취미 - 문화취미기타"}]},{"lat":"37.235990919","long":"127.19068388","items":[{"name":"네파용인역북","tel":"031-332-2600","addr":"경기도 용인시 처인구 역북동 428-9번지","category":"레져용품 - 스포츠·레져용품"},{"name":"역북동엠베스트학원","tel":"031-332-2428","addr":"경기도 용인시 처인구 역북동 428-9번지 수영빌딩 3층","category":"학원 - 보습학원"},{"name":"역북동엠베스트학원","tel":"031-332-2428","addr":"경기도 용인시 처인구 역북동 428-9번지 ,2,3층","category":"학원 - 보습학원"},{"name":"파란기획","tel":"031-338-9896","addr":"경기도 용인시 처인구 역북동 428-9번지 파란기획","category":"서적문구 - 출판 및 인쇄물"}]},{"lat":"37.237079982","long":"127.18568297","items":[{"name":"노스페이스 용인처인점","tel":"031-321-4321","addr":"경기도 용인시 처인구 역북동 376-3번지 ,1~2층","category":"레져용품 - 스포츠·레져용품"},{"name":"변호사오수환사무소","tel":"031-321-4066","addr":"경기도 용인시 처인구 역북동 376-3번지 옥토빌딩 3층","category":"용역 서비스 - 법률회계서비스(개인)"},{"name":"세무법인 택스인 용인지점","tel":"031-335-3480","addr":"경기도 용인시 처인구 역북동 376-3번지 옥토빌딩 201호","category":"용역 서비스 - 법률회계서비스(법인)"},{"name":"용인속기사무소","tel":"031-321-4066","addr":"경기도 용인시 처인구 역북동 376-3번지 옥토빌딩 302호","category":"용역 서비스 - 사무서비스"}]},{"lat":"37.235559211","long":"127.19018697","items":[{"name":"느와","tel":"","addr":"경기도 용인시 처인구 역북동 721-1번지 역북마을신성아파트","category":"신변잡화 - 액세서리"}]},{"lat":"37.23030141","long":"127.18749209","items":[{"name":"늘 부띠끄","tel":"","addr":"경기도 용인시 처인구 역북동 763-3번지","category":"의류 - 정장"},{"name":"명가한식","tel":"031-335-4321","addr":"경기도 용인시 처인구 역북동 763-3번지 1층상가","category":"일반휴게음식 - 일반한식"},{"name":"오리엔치","tel":"","addr":"경기도 용인시 처인구 역북동 763-3번지 1층","category":"음료식품 - 기타음료식품"},{"name":"카페네로우(cafe narrow)","tel":"","addr":"경기도 용인시 처인구 역북동 763-3번지 1층","category":"일반휴게음식 - 서양음식"}]},{"lat":"37.235714965","long":"127.19421045","items":[{"name":"다롱다롱","tel":"031-5500-7735","addr":"경기도 용인시 처인구 역북동 441-8번지 102호","category":"음료식품 - 기타음료식품"},{"name":"소길","tel":"031-322-4626","addr":"경기도 용인시 처인구 역북동 441-8번지 104,105호","category":"일반휴게음식 - 일식·회집"},{"name":"헤어1004","tel":"031-322-0077","addr":"경기도 용인시 처인구 역북동 441-8번지","category":"보건위생 - 미용원"}]},{"lat":"37.236135352","long":"127.1905152","items":[{"name":"다수인영수학원","tel":"031-336-5266","addr":"경기도 용인시 처인구 역북동 428-7번지 낙원빌딩 501호","category":"학원 - 보습학원"},{"name":"롯데리아용인역북점","tel":"031-322-3800","addr":"경기도 용인시 처인구 역북동 428-7번지 외1필지 낙원빌딩 101호","category":"일반휴게음식 - 서양음식"},{"name":"불닭발땡초동대문엽기떡볶이","tel":"031-335-8591","addr":"경기도 용인시 처인구 역북동 428-7번지 낙원빌딩 1층 102호","category":"일반휴게음식 - 일반한식"},{"name":"치클치과","tel":"031-321-9877","addr":"경기도 용인시 처인구 역북동 428-7번지","category":"의원 - 치과의원"},{"name":"퍼펙트짐","tel":"031-334-5600","addr":"경기도 용인시 처인구 역북동 428-7번지 낙원빌딩 401호","category":"회원제형태 - 레져업소"},{"name":"푸른한의원","tel":"031-335-1078","addr":"경기도 용인시 처인구 역북동 428-7,10","category":"의원 - 한의원"},{"name":"해피 원룸텔","tel":"031-339-1103","addr":"경기도 용인시 처인구 역북동 428-7번지 외1필지낙원빌딩 301호","category":"학원 - 독서실"}]},{"lat":"37.237990559","long":"127.19109454","items":[{"name":"다오라뷰티","tel":"","addr":"경기도 용인시 처인구 역북동 414-26번지 101호","category":"보건위생 - 피부미용실"},{"name":"주식회사 올더컴퍼니","tel":"031-332-4242","addr":"경기도 용인시 처인구 역북동 414-26번지","category":"용역 서비스 - 종합용역"}]},{"lat":"37.237967008","long":"127.19454296","items":[{"name":"다올디자인","tel":"031-332-8116","addr":"경기도 용인시 처인구 역북동 454-50번지 광남맨션 402호","category":"용역 서비스 - 종합용역"}]},{"lat":"37.236907706","long":"127.18638126","items":[{"name":"다우","tel":"031-323-0982","addr":"경기도 용인시 처인구 역북동 416-3번지 서룡빌라 101호","category":"서적문구 - 출판 및 인쇄물"},{"name":"대승전자","tel":"031-336-0998","addr":"경기도 용인시 처인구 역북동 416-3번지 서룡빌라 102호","category":"자동차정비 유지 - 자동차부품"},{"name":"영덕대게 수산물","tel":"031-338-4660","addr":"경기도 용인시 처인구 역북동 416-3번지 서룡 3동 103호","category":"회원제형태 - 기타1"},{"name":"영덕대게전문점","tel":"031-338-4660","addr":"경기도 용인시 처인구 역북동 416-3번지 서룡빌라","category":"일반휴게음식 - 일반한식"},{"name":"해람수산","tel":"","addr":"경기도 용인시 처인구 역북동 416-3번지 서룡빌라 1층","category":"음료식품 - 농·축·수산품"},{"name":"해람회수산시장","tel":"","addr":"경기도 용인시 처인구 역북동 416-3번지 서룡빌라 1층","category":"일반휴게음식 - 일식·회집"}]},{"lat":"37.232689279","long":"127.18740776","items":[{"name":"다원유통","tel":"031-335-4655","addr":"경기도 용인시 처인구 역북동 750번지 1층 101호","category":"음료식품 - 정육점"},{"name":"더행복","tel":"02-1670-9301","addr":"경기도 용인시 처인구 역북동 750번지 SK프라자 401호","category":"학원 - 기타 교육기관"},{"name":"동신참치","tel":"031-1111-1111","addr":"경기도 용인시 처인구 역북동 750번지 301호","category":"일반휴게음식 - 일반한식"},{"name":"뚱보집(용인역북점)","tel":"031-337-1377","addr":"경기도 용인시 처인구 역북동 750번지 1층 106호","category":"일반휴게음식 - 일반한식"},{"name":"무림합기도","tel":"031-321-1601","addr":"경기도 용인시 처인구 역북동 750번지 5층 01호","category":"학원 - 예·체능계학원"},{"name":"보이즈빌리지","tel":"031-333-6846","addr":"경기도 용인시 처인구 역북동 750번지 1층 109호","category":"보건위생 - 미용원"},{"name":"세븐일레븐용인역북SK점","tel":"031-1577-0711","addr":"경기도 용인시 처인구 역북동 750번지 1층 103호","category":"유통업 영리 - 편 의 점"},{"name":"스윙박스 골프아카데미 역북점","tel":"031-335-2526","addr":"경기도 용인시 처인구 역북동 750번지 7층 701호","category":"레저업소 - 골프연습장"},{"name":"야키니쿠Amazing","tel":"","addr":"경기도 용인시 처인구 역북동 750번지 3층 302호","category":"일반휴게음식 - 일반한식"},{"name":"예숲음악학원","tel":"031-338-8107","addr":"경기도 용인시 처인구 역북동 750번지 SK프라자 502호","category":"학원 - 예·체능계학원"},{"name":"오직한우","tel":"031-338-0844","addr":"경기도 용인시 처인구 역북동 750번지 SK프라자 2층 201호","category":"음료식품 - 정육점"},{"name":"오직한우","tel":"031-338-0844","addr":"경기도 용인시 처인구 역북동 750번지","category":"일반휴게음식 - 일반한식"},{"name":"이통닭","tel":"031-547-2569","addr":"경기도 용인시 처인구 역북동 750번지 107호","category":"일반휴게음식 - 스넥"},{"name":"장인족발608","tel":"031-333-6080","addr":"경기도 용인시 처인구 역북동 750번지 1층 104호,105호","category":"일반휴게음식 - 일반한식"},{"name":"제이와이무용학원","tel":"031-334-9933","addr":"경기도 용인시 처인구 역북동 750번지 503호","category":"학원 - 예·체능계학원"},{"name":"주식회사 진에프엔비인터네셔널 용인역북점","tel":"031-339-8251","addr":"경기도 용인시 처인구 역북동 750번지 6층 601호","category":"레저업소 - 헬스클럽"},{"name":"철뚝집","tel":"031-322-8686","addr":"경기도 용인시 처인구 역북동 750번지 2층 202호","category":"일반휴게음식 - 일반한식"},{"name":"초초네","tel":"031-334-7209","addr":"경기도 용인시 처인구 역북동 750번지 6층 602호","category":"일반휴게음식 - 일반한식"},{"name":"크리드 피씨","tel":"070-3123-7607","addr":"경기도 용인시 처인구 역북동 750번지 303호,304호","category":"레저업소 - 기타레져업소"},{"name":"플러스(plus)더채움수학학원","tel":"031-322-7749","addr":"경기도 용인시 처인구 역북동 750번지 SK프라자 402호","category":"학원 - 보습학원"},{"name":"헤르","tel":"031-333-2120","addr":"경기도 용인시 처인구 역북동 750번지 110호","category":"의류 - 정장"}]},{"lat":"37.230275763","long":"127.18660182","items":[{"name":"다위헤어","tel":"","addr":"경기도 용인시 처인구 역북동 569-5번지 1층","category":"보건위생 - 미용원"}]},{"lat":"37.236491954","long":"127.19290518","items":[{"name":"다인플러스통신","tel":"031-336-8764","addr":"경기도 용인시 처인구 역북동 438-8번지","category":"사무통신 - 통신기기"},{"name":"우신전기조명","tel":"031-338-5991","addr":"경기도 용인시 처인구 역북동 438-8번지","category":"전기제품 - 기타전기제품"},{"name":"청춘","tel":"031-321-5592","addr":"경기도 용인시 처인구 역북동 438-8번지","category":"일반휴게음식 - 주점"},{"name":"커피블로그","tel":"031-336-2819","addr":"경기도 용인시 처인구 역북동 438-8번지","category":"일반휴게음식 - 일반한식"},{"name":"프라임영어학원","tel":"031-321-4937","addr":"경기도 용인시 처인구 역북동 438-8번지 2층","category":"학원 - 보습학원"},{"name":"현자씨헤어","tel":"070-8878-1566","addr":"경기도 용인시 처인구 역북동 438-8번지","category":"보건위생 - 미용원"}]},{"lat":"37.249436853","long":"127.18907164","items":[{"name":"단케(DANKE)","tel":"031-291-8607","addr":"경기도 용인시 처인구 역북동 203-16번지 1층","category":"일반휴게음식 - 서양음식"}]},{"lat":"37.238104759","long":"127.19293176","items":[{"name":"달궁","tel":"","addr":"경기도 용인시 처인구 역북동 412-11번지 1층","category":"일반휴게음식 - 서양음식"},{"name":"세븐일레븐용인선정점","tel":"","addr":"경기도 용인시 처인구 역북동 412-11번지 1층","category":"유통업 영리 - 편 의 점"}]},{"lat":"37.234325992","long":"127.1894289","items":[{"name":"달봄빵","tel":"031-322-1363","addr":"경기도 용인시 처인구 역북동 722-3번지 영성빌딩","category":"음료식품 - 제과점"},{"name":"떡이랑뎅이랑","tel":"031-446-9524","addr":"경기도 용인시 처인구 역북동 722-3번지 1층","category":"일반휴게음식 - 스넥"},{"name":"마이파이널학원","tel":"031-338-5674","addr":"경기도 용인시 처인구 역북동 722-3번지 2층","category":"학원 - 보습학원"},{"name":"양지컴퓨터세탁","tel":"031-322-2545","addr":"경기도 용인시 처인구 역북동 722-3번지","category":"수리서비스 - 세탁소"},{"name":"영완전산","tel":"02-717-9700","addr":"경기도 용인시 처인구 역북동 722-3번지 305호","category":"사무통신 - 기타 사무용품"},{"name":"투다리(명지점)","tel":"031-323-0792","addr":"경기도 용인시 처인구 역북동 722-3번지 영성빌딩 1층 상가 101호","category":"일반휴게음식 - 주점"}]},{"lat":"37.237659489","long":"127.19526343","items":[{"name":"담뱃잎","tel":"","addr":"경기도 용인시 처인구 역북동 634-15번지 1층","category":"음료식품 - 기타음료식품"}]},{"lat":"37.230103236","long":"127.1874578","items":[{"name":"담벼락","tel":"","addr":"경기도 용인시 처인구 역북동 763-4번지 1층","category":"일반휴게음식 - 일반한식"},{"name":"리코","tel":"031-334-1114","addr":"경기도 용인시 처인구 역북동 763-4번지 1층","category":"음료식품 - 제과점"}]},{"lat":"37.229881782","long":"127.17287605","items":[{"name":"담어일식","tel":"031-323-5254","addr":"경기도 용인시 처인구 역북동 550-7번지","category":"일반휴게음식 - 일반한식"}]},{"lat":"37.230356261","long":"127.18698514","items":[{"name":"대동집 역북점","tel":"031-321-0328","addr":"경기도 용인시 처인구 역북동 763번지 1층","category":"일반휴게음식 - 일반한식"}]},{"lat":"37.242913747","long":"127.18301474","items":[{"name":"대동타일상사","tel":"031-337-0308","addr":"경기도 용인시 처인구 역북동 338-8번지","category":"건축자재 - 건축용 요업제품"}]},{"lat":"37.238023305","long":"127.19315695","items":[{"name":"대명닭집","tel":"031-338-8230","addr":"경기도 용인시 처인구 역북동 434-47번지","category":"일반휴게음식 - 스넥"},{"name":"배달의 쌀국수","tel":"031-339-2540","addr":"경기도 용인시 처인구 역북동 434-47번지 1층","category":"일반휴게음식 - 서양음식"},{"name":"테트리스찜닭","tel":"031-322-2356","addr":"경기도 용인시 처인구 역북동 434-47번지 1층 일부","category":"일반휴게음식 - 일반한식"}]},{"lat":"37.244325072","long":"127.19092997","items":[{"name":"대봉설악산삼계탕추어탕","tel":"031-322-7900","addr":"경기도 용인시 처인구 역북동 303-16번지 1층","category":"일반휴게음식 - 일반한식"},{"name":"성산골프","tel":"02-000-0000","addr":"경기도 용인시 처인구 역북동 303-16번지 2층","category":"레져용품 - 골프용품 전문점"},{"name":"세븐골프","tel":"031-336-0754","addr":"경기도 용인시 처인구 역북동 303-16번지","category":"레져용품 - 골프용품 전문점"},{"name":"잇토우스시","tel":"031-336-5252","addr":"경기도 용인시 처인구 역북동 303-16번지 103호","category":"일반휴게음식 - 일식·회집"},{"name":"좋구먼반상","tel":"031-332-3600","addr":"경기도 용인시 처인구 역북동 303-16번지 1층 101호","category":"일반휴게음식 - 일반한식"}]},{"lat":"37.23663303","long":"127.19482132","items":[{"name":"대원생고기전문점","tel":"031-337-2770","addr":"경기도 용인시 처인구 역북동 482번지","category":"일반휴게음식 - 일반한식"},{"name":"한남정육점","tel":"031-336-1518","addr":"경기도 용인시 처인구 역북동 482번지","category":"음료식품 - 정육점"}]},{"lat":"37.237685475","long":"127.19590586","items":[{"name":"대진엔지니어링","tel":"031-335-4230","addr":"경기도 용인시 처인구 역북동 475-29번지","category":"용역 서비스 - 기타용역서비스"}]},{"lat":"37.244827208","long":"127.19800912","items":[{"name":"대한간호노인요양원","tel":"031-333-2266","addr":"경기도 용인시 처인구 역북동 257-1번지 대한간호사협회KNA연수원","category":"기타의료기관 - 기타의료기관 및 기타"}]},{"lat":"37.237990809","long":"127.19093677","items":[{"name":"대한리모델링.건축","tel":"031-335-3600","addr":"경기도 용인시 처인구 역북동 414-25번지","category":"건축자재 - 페인트"},{"name":"도깨비방망이","tel":"02-1111-1111","addr":"경기도 용인시 처인구 역북동 414-25번지 1층","category":"유통업 영리 - 슈퍼마켓"},{"name":"땅땅치킨역북점","tel":"031-338-7703","addr":"경기도 용인시 처인구 역북동 414-25번지 1층","category":"일반휴게음식 - 일반한식"},{"name":"마음을 담은 정육점","tel":"031-1111-1111","addr":"경기도 용인시 처인구 역북동 414-25번지","category":"음료식품 - 정육점"}]},{"lat":"37.243823258","long":"127.18918181","items":[{"name":"대한소방방재관리공사","tel":"031-322-8383","addr":"경기도 용인시 처인구 역북동 313-3번지","category":"용역 서비스 - 기타용역서비스"},{"name":"썬골프","tel":"031-339-2777","addr":"경기도 용인시 처인구 역북동 313-3번지","category":"레져용품 - 스포츠·레져용품"},{"name":"용인왁싱클래스By털마녀","tel":"","addr":"경기도 용인시 처인구 역북동 313-3번지 1층 102호","category":"보건위생 - 피부미용실"},{"name":"조선팔도순대국","tel":"031-322-8347","addr":"경기도 용인시 처인구 역북동 313-3번지","category":"일반휴게음식 - 일반한식"}]},{"lat":"37.229635559","long":"127.18690451","items":[{"name":"더김치찌개","tel":"031-338-5680","addr":"경기도 용인시 처인구 역북동 768-1번지 1층 일부","category":"일반휴게음식 - 일반한식"}]},{"lat":"37.229661643","long":"127.18751306","items":[{"name":"더맑은샵","tel":"031-322-8780","addr":"경기도 용인시 처인구 역북동 776-5번지 1층","category":"보건위생 - 화장품"},{"name":"만나네 마라탕","tel":"","addr":"경기도 용인시 처인구 역북동 776-5번지 1층","category":"일반휴게음식 - 중국식"}]},{"lat":"37.231326026","long":"127.18912852","items":[{"name":"더카페","tel":"031-339-0091","addr":"경기도 용인시 처인구 역북동 586-6번지 지하2층","category":"일반휴게음식 - 서양음식"},{"name":"송사부수제쌀고로케(이마트용인점)","tel":"","addr":"경기도 용인시 처인구 역북동 586-6번지 이마트용인점 지하2층 일부","category":"일반휴게음식 - 서양음식"},{"name":"용인스피드키서비스","tel":"031-338-8279","addr":"경기도 용인시 처인구 역북동 586-6번지 E마트","category":"건축자재 - 목재·석재·철물"},{"name":"이가자헤어비스용인점","tel":"031-338-4778","addr":"경기도 용인시 처인구 역북동 586-6번지 지하1층","category":"보건위생 - 미용원"},{"name":"이마트용인점안경원","tel":"031-336-0008","addr":"경기도 용인시 처인구 역북동 586-6지하1층","category":"보건위생 - 안경"}]},{"lat":"37.240212906","long":"127.19862833","items":[{"name":"더폴","tel":"031-328-4853","addr":"경기도 용인시 처인구 역북동 464-7번지 1층","category":"음료식품 - 제과점"},{"name":"봄봄미용실","tel":"031-333-2811","addr":"경기도 용인시 처인구 역북동 464-7번지 1층","category":"보건위생 - 미용원"},{"name":"플라잉요가테스","tel":"031-322-9892","addr":"경기도 용인시 처인구 역북동 464-7번지 2층","category":"레저업소 - 헬스클럽"}]},{"lat":"37.237885323","long":"127.18926862","items":[{"name":"덕진설비","tel":"031-335-0026","addr":"경기도 용인시 처인구 역북동 424번지","category":"수리서비스 - 기타수리서비스"},{"name":"돼지나라","tel":"031-321-3220","addr":"경기도 용인시 처인구 역북동 424번지","category":"일반휴게음식 - 일반한식"}]},{"lat":"37.239385789","long":"127.19195451","items":[{"name":"도서출판 드림","tel":"031-321-2915","addr":"경기도 용인시 처인구 역북동 378-5","category":"서적문구 - 출판 및 인쇄물"}]},{"lat":"37.228635713","long":"127.18671053","items":[{"name":"도자기 공방 오로지","tel":"031-000-0000","addr":"경기도 용인시 처인구 역북동 774-6번지 101호","category":"문화.취미 - 민예·공예품"}]},{"lat":"37.237552119","long":"127.18915511","items":[{"name":"돈방석","tel":"031-337-0516","addr":"경기도 용인시 처인구 역북동 424-5번지 상명주택","category":"일반휴게음식 - 일반한식"},{"name":"오복식당","tel":"031-335-1140","addr":"경기도 용인시 처인구 역북동 424-5번지 상명주택","category":"일반휴게음식 - 일반한식"},{"name":"푸른수학교습소","tel":"","addr":"경기도 용인시 처인구 역북동 424-5번지 상명주택","category":"학원 - 보습학원"}]},{"lat":"37.226137118","long":"127.18846223","items":[{"name":"돈코복코","tel":"031-338-8839","addr":"경기도 용인시 처인구 역북동 604-6번지 G동 1층","category":"일반휴게음식 - 일반한식"},{"name":"에이스당구장","tel":"070-9305-9949","addr":"경기도 용인시 처인구 역북동 604-6번지 3층","category":"레저업소 - 당 구 장"},{"name":"프네트르","tel":"031-339-0330","addr":"경기도 용인시 처인구 역북동 604-6번지 1층","category":"일반휴게음식 - 일반한식"}]},{"lat":"37.239045995","long":"127.19031956","items":[{"name":"돈호원","tel":"031-336-0610","addr":"경기도 용인시 처인구 역북동 377-11번지","category":"일반휴게음식 - 일반한식"},{"name":"명지대 동아태권도","tel":"031-335-4861","addr":"경기도 용인시 처인구 역북동 377-11번지 2층","category":"학원 - 예·체능계학원"}]},{"lat":"37.228991258","long":"127.18982141","items":[{"name":"동그라미 어학원","tel":"031-332-0607","addr":"경기도 용인시 처인구 역북동 591-3번지","category":"학원 - 보습학원"}]},{"lat":"37.237796305","long":"127.19423825","items":[{"name":"동아카센타","tel":"031-33-0900","addr":"경기도 용인시 처인구 역북동 454-53번지","category":"자동차정비 유지 - 자동차부품"},{"name":"정민헤어","tel":"031-323-3291","addr":"경기도 용인시 처인구 역북동 454-53번지 1층","category":"보건위생 - 미용원"}]},{"lat":"37.237102613","long":"127.18851165","items":[{"name":"두마리치킨마당","tel":"031-335-5666","addr":"경기도 용인시 처인구 역북동 419-15번지 101호","category":"일반휴게음식 - 스넥"},{"name":"마틸다(MATILDA)","tel":"031-321-4825","addr":"경기도 용인시 처인구 역북동 419-15번지 1층 일부","category":"일반휴게음식 - 일반한식"}]},{"lat":"37.233859191","long":"127.18832339","items":[{"name":"두부쑤는집","tel":"031-339-1485","addr":"경기도 용인시 처인구 역북동 506번지","category":"일반휴게음식 - 일반한식"}]},{"lat":"37.232164549","long":"127.18876999","items":[{"name":"두툼마약갈비","tel":"031-3353-3901","addr":"경기도 용인시 처인구 역북동 504-13번지","category":"일반휴게음식 - 일반한식"},{"name":"명지나눔로또","tel":"031-332-0929","addr":"경기도 용인시 처인구 역북동 504-13번지","category":"음료식품 - 기타음료식품"},{"name":"명지모바일(할인매장)","tel":"031-333-6762","addr":"경기도 용인시 처인구 역북동 504-13번지 107호","category":"사무통신 - 통신기기"},{"name":"명지슈퍼","tel":"031-332-0929","addr":"경기도 용인시 처인구 역북동 504-13번지","category":"유통업 영리 - 슈퍼마켓"},{"name":"이(E)세탁할인점","tel":"031-332-5252","addr":"경기도 용인시 처인구 역북동 504-13번지","category":"수리서비스 - 세탁소"},{"name":"장수손칼국수","tel":"031-323-3211","addr":"경기도 용인시 처인구 역북동 504-13번지","category":"일반휴게음식 - 스넥"},{"name":"전세계과일","tel":"031-334-3303","addr":"경기도 용인시 처인구 역북동 504-13번지 101호","category":"음료식품 - 농·축·수산품"},{"name":"찹찹꽈배기","tel":"031-1588-4583","addr":"경기도 용인시 처인구 역북동 504-13번지 108호","category":"일반휴게음식 - 서양음식"}]},{"lat":"37.236966327","long":"127.18923255","items":[{"name":"둠벙","tel":"031-321-1310","addr":"경기도 용인시 처인구 역북동 423-7번지","category":"일반휴게음식 - 스넥"},{"name":"역북동그집","tel":"031-332-3737","addr":"경기도 용인시 처인구 역북동 423-7번지","category":"일반휴게음식 - 일반한식"}]},{"lat":"37.227662985","long":"127.18646027","items":[{"name":"디앤씨","tel":"031-322-7858","addr":"경기도 용인시 처인구 역북동 607-2번지","category":"용역 서비스 - 사무서비스"}]},{"lat":"37.237490955","long":"127.18793786","items":[{"name":"디자인21","tel":"031-336-4104","addr":"경기도 용인시 처인구 역북동 418-13번지","category":"건축자재 - 인테리어전문"}]},{"lat":"37.237823518","long":"127.19412563","items":[{"name":"디자인벗","tel":"031-336-4902","addr":"경기도 용인시 처인구 역북동 454-57번지 2층","category":"용역 서비스 - 종합용역"},{"name":"해태유업용인특약점","tel":"031-335-0883","addr":"경기도 용인시 처인구 역북동 454-57번지","category":"유통업 영리 - 편 의 점"},{"name":"회포차","tel":"031-328-8753","addr":"경기도 용인시 처인구 역북동 454-57번지 1층","category":"일반휴게음식 - 일반한식"}]},{"lat":"37.236271447","long":"127.19554163","items":[{"name":"딜리삼겹","tel":"031-335-9981","addr":"경기도 용인시 처인구 역북동 482-17번지","category":"일반휴게음식 - 일반한식"},{"name":"사랑해꽃돼지","tel":"031-335-8108","addr":"경기도 용인시 처인구 역북동 482-17번지 사랑해꽃돼지","category":"일반휴게음식 - 일반한식"},{"name":"사랑해사랑해호프","tel":"031-322-2247","addr":"경기도 용인시 처인구 역북동 482-17번지","category":"일반휴게음식 - 주점"}]},{"lat":"37.236415557","long":"127.19557581","items":[{"name":"따뜻한밥상","tel":"031-336-6871","addr":"경기도 용인시 처인구 역북동 482-7번지 1층","category":"일반휴게음식 - 일반한식"}]},{"lat":"37.238576889","long":"127.19067903","items":[{"name":"떡갑&푸드","tel":"031-323-5236","addr":"경기도 용인시 처인구 역북동 414번지 1층","category":"일반휴게음식 - 일반한식"},{"name":"오늘은머리하는날","tel":"031-335-5124","addr":"경기도 용인시 처인구 역북동 414번지 1층","category":"보건위생 - 미용원"},{"name":"피자나라치킨공주","tel":"031-339-4767","addr":"경기도 용인시 처인구 역북동 414번지 1층 2호","category":"일반휴게음식 - 서양음식"}]},{"lat":"37.23643744","long":"127.19318677","items":[{"name":"떡튀","tel":"031-339-8856","addr":"경기도 용인시 처인구 역북동 439-1번지","category":"일반휴게음식 - 스넥"},{"name":"모듬전","tel":"031-336-3618","addr":"경기도 용인시 처인구 역북동 439-1번지","category":"일반휴게음식 - 일반한식"},{"name":"민속촌감자탕","tel":"031-322-3881","addr":"경기도 용인시 처인구 역북동 439-1번지","category":"일반휴게음식 - 일반한식"},{"name":"조&김머리쟁이미용실","tel":"031-336-2940","addr":"경기도 용인시 처인구 역북동 439-1번지","category":"보건위생 - 미용원"}]},{"lat":"37.237963259","long":"127.19126352","items":[{"name":"떡튀순","tel":"031-322-4646","addr":"경기도 용인시 처인구 역북동 414-27번지","category":"일반휴게음식 - 스넥"}]},{"lat":"37.237470015","long":"127.18979726","items":[{"name":"떼루아헤어","tel":"070-4898-1031","addr":"경기도 용인시 처인구 역북동 425-8번지 101호","category":"보건위생 - 미용원"}]},{"lat":"37.238437597","long":"127.19327069","items":[{"name":"또와또와","tel":"031-334-9500","addr":"경기도 용인시 처인구 역북동 434-43","category":"일반휴게음식 - 스넥"},{"name":"영뷰티샵","tel":"031-321-5003","addr":"경기도 용인시 처인구 역북동 434-43번지","category":"신변잡화 - 기타잡화"},{"name":"이모네식당","tel":"031-334-7714","addr":"경기도 용인시 처인구 역북동 434-43번지","category":"일반휴게음식 - 일반한식"}]},{"lat":"37.2301053","long":"127.18612814","items":[{"name":"라벨르(La_Belle)","tel":"031-000-0000","addr":"경기도 용인시 처인구 역북동 산81-4번지 1층","category":"보건위생 - 피부미용실"},{"name":"브라운아일랜드","tel":"02-111-1111","addr":"경기도 용인시 처인구 역북동 산81-4번지 1층","category":"일반휴게음식 - 서양음식"},{"name":"어고흐(agoh)","tel":"031-000-0000","addr":"경기도 용인시 처인구 역북동 산81-4번지 1층","category":"일반휴게음식 - 서양음식"},{"name":"포레스트비","tel":"","addr":"경기도 용인시 처인구 역북동 산81-4번지 1층 상가","category":"일반휴게음식 - 서양음식"},{"name":"한앤둘치킨","tel":"031-332-9220","addr":"경기도 용인시 처인구 역북동 산81-4번지 1층","category":"일반휴게음식 - 스넥"},{"name":"해화","tel":"031-338-2547","addr":"경기도 용인시 처인구 역북동 산81-4번지 1층","category":"일반휴게음식 - 서양음식"}]},{"lat":"37.22991423","long":"127.18732212","items":[{"name":"라보 (LAVO)","tel":"070-5214-0920","addr":"경기도 용인시 처인구 역북동 765-3번지 101호","category":"일반휴게음식 - 서양음식"}]},{"lat":"37.237686922","long":"127.19501557","items":[{"name":"라온포차","tel":"031-335-6096","addr":"경기도 용인시 처인구 역북동 432-8번지","category":"일반휴게음식 - 일반한식"},{"name":"라온포차","tel":"031-335-6096","addr":"경기도 용인시 처인구 역북동 432-8번지","category":"일반휴게음식 - 일반한식"},{"name":"서광열쇠전기","tel":"031-336-6884","addr":"경기도 용인시 처인구 역북동 432-8번지","category":"건축자재 - 조명기구"}]},{"lat":"37.236247027","long":"127.19393007","items":[{"name":"라이거스포츠","tel":"02-2264-5941","addr":"경기도 용인시 처인구 역북동 439-22번지 1층","category":"레져용품 - 스포츠·레져용품"},{"name":"진주축산","tel":"031-336-1825","addr":"경기도 용인시 처인구 역북동 439-22번지 동광오피스텔 1층 상가","category":"음료식품 - 정육점"}]},{"lat":"37.230050977","long":"127.18629703","items":[{"name":"라이프트리","tel":"031-275-0617","addr":"경기도 용인시 처인구 역북동 794-1번지 1층","category":"일반휴게음식 - 서양음식"}]},{"lat":"37.230521475","long":"127.19079427","items":[{"name":"랑카티스","tel":"031-333-3386","addr":"경기도 용인시 처인구 역북동 586-17번지 G동 1층 102호","category":"음료식품 - 기타음료식품"},{"name":"바이유어데이","tel":"031-323-5560","addr":"경기도 용인시 처인구 역북동 586-17번지 G동 1층 101호","category":"용역 서비스 - 혼례서비스"}]},{"lat":"37.233713718","long":"127.18915693","items":[{"name":"런던펍","tel":"070-4086-8994","addr":"경기도 용인시 처인구 역북동 723-4번지 1층","category":"일반휴게음식 - 주점"},{"name":"미앤뷰","tel":"031-322-8631","addr":"경기도 용인시 처인구 역북동 723-4번지 203호","category":"보건위생 - 화장품"},{"name":"오에이원","tel":"031-275-1440","addr":"경기도 용인시 처인구 역북동 723-4번지","category":"사무통신 - 사무용 OA기기"}]},{"lat":"37.23660722","long":"127.19406621","items":[{"name":"로이힐링","tel":"031-3381-0462","addr":"경기도 용인시 처인구 역북동 439-5번지","category":"보건위생 - 피부미용실"},{"name":"손크린데이","tel":"031-339-9215","addr":"경기도 용인시 처인구 역북동 439-5번지","category":"수리서비스 - 세탁소"}]},{"lat":"37.229193792","long":"127.18707246","items":[{"name":"루시앤마르코","tel":"","addr":"경기도 용인시 처인구 역북동 771-2번지","category":"주방용구 - 주방용식기"}]},{"lat":"37.241242046","long":"127.19743637","items":[{"name":"룰루커피(loolloo coffe)","tel":"","addr":"경기도 용인시 처인구 역북동 279-3번지","category":"일반휴게음식 - 서양음식"},{"name":"머리하는날오늘","tel":"031-333-8853","addr":"경기도 용인시 처인구 역북동 279-3번지 1층","category":"보건위생 - 미용원"},{"name":"엘림음악학원","tel":"031-336-1733","addr":"경기도 용인시 처인구 역북동 279-3번지 2층","category":"학원 - 예·체능계학원"},{"name":"예성음악학원","tel":"031-335-6057","addr":"경기도 용인시 처인구 역북동 279-3번지","category":"학원 - 예·체능계학원"}]},{"lat":"37.229130509","long":"127.18720753","items":[{"name":"르보","tel":"031-321-8209","addr":"경기도 용인시 처인구 역북동 771-3번지 1층","category":"문화.취미 - 화원"},{"name":"마이보리","tel":"031-000-0000","addr":"경기도 용인시 처인구 역북동 771-3번지","category":"일반휴게음식 - 서양음식"}]},{"lat":"37.230524711","long":"127.18874343","items":[{"name":"리프(Leaf)","tel":"070-7425-4545","addr":"경기도 용인시 처인구 역북동 587-3번지 신흥빌 103호","category":"문화.취미 - 문화취미기타"}]},{"lat":"37.229301231","long":"127.18751219","items":[{"name":"마라양꼬치","tel":"031-335-0580","addr":"경기도 용인시 처인구 역북동 777-2번지","category":"일반휴게음식 - 일반한식"}]},{"lat":"37.228662954","long":"127.18657537","items":[{"name":"마음한과","tel":"031-321-3440","addr":"경기도 용인시 처인구 역북동 774-7번지 1층","category":"음료식품 - 제과점"}]},{"lat":"37.239546145","long":"127.19862661","items":[{"name":"마일로케이크 (MILO cake)","tel":"02-0000-0000","addr":"경기도 용인시 처인구 역북동 467-36번지 1층","category":"일반휴게음식 - 서양음식"},{"name":"우리살림","tel":"031-339-9775","addr":"경기도 용인시 처인구 역북동 467-36번지 2층","category":"문화.취미 - 민예·공예품"},{"name":"추억의돼지마당","tel":"031-338-0775","addr":"경기도 용인시 처인구 역북동 467-36번지","category":"일반휴게음식 - 일반한식"}]},{"lat":"37.232740872","long":"127.18898551","items":[{"name":"마포굴다리김치찌개","tel":"031-334-2731","addr":"경기도 용인시 처인구 역북동 504-4번지 평촌 지하1층","category":"일반휴게음식 - 일반한식"}]},{"lat":"37.226353365","long":"127.18846276","items":[{"name":"막창클라쓰","tel":"","addr":"경기도 용인시 처인구 역북동 604-9번지 302호","category":"음료식품 - 기타음료식품"}]},{"lat":"37.237020725","long":"127.18901857","items":[{"name":"만나손칼국수","tel":"031-332-8827","addr":"경기도 용인시 처인구 역북동 423-6번지 1층","category":"일반휴게음식 - 일반한식"},{"name":"세븐일레븐용인역북중앙점","tel":"","addr":"경기도 용인시 처인구 역북동 423-6번지 1층","category":"유통업 영리 - 편 의 점"},{"name":"헤어벨살롱","tel":"031-322-2822","addr":"경기도 용인시 처인구 역북동 423-6번지 1층","category":"보건위생 - 미용원"}]},{"lat":"37.237687233","long":"127.19482399","items":[{"name":"만두랑찐빵","tel":"031-334-0435","addr":"경기도 용인시 처인구 역북동 432-7번지 1층","category":"음료식품 - 기타음료식품"}]},{"lat":"37.237693026","long":"127.17952004","items":[{"name":"만사성","tel":"031-336-6785","addr":"경기도 용인시 처인구 역북동 368번지","category":"일반휴게음식 - 중국식"}]},{"lat":"37.237969641","long":"127.19290889","items":[{"name":"말술클럽","tel":"031-323-7200","addr":"경기도 용인시 처인구 역북동 412-5번지 1층","category":"일반휴게음식 - 주점"},{"name":"헤어지지마","tel":"031-333-5666","addr":"경기도 용인시 처인구 역북동 412-5번지","category":"보건위생 - 미용원"}]},{"lat":"37.237109781","long":"127.18968368","items":[{"name":"맘모스상사","tel":"031-337-0587","addr":"경기도 용인시 처인구 역북동 425-6번지","category":"서적문구 - 문구용품"},{"name":"페리카나","tel":"031-338-6641","addr":"경기도 용인시 처인구 역북동 425-6번지","category":"일반휴게음식 - 서양음식"}]},{"lat":"37.237935079","long":"127.1919847","items":[{"name":"매직","tel":"031-321-3201","addr":"경기도 용인시 처인구 역북동 412-12번지 세웅하이빌타운 102동 101호","category":"일반휴게음식 - 일반한식"},{"name":"오스카미용실","tel":"031-335-4243","addr":"경기도 용인시 처인구 역북동 412-12번지 세웅하이빌타운 1층 101호","category":"보건위생 - 미용원"},{"name":"용천전기조명","tel":"031-322-0489","addr":"경기도 용인시 처인구 역북동 412-12번지 세웅하이빌타운 101호","category":"건축자재 - 조명기구"}]},{"lat":"37.238268826","long":"127.18009614","items":[{"name":"맥과이어광택","tel":"031-321-7332","addr":"경기도 용인시 처인구 역북동 365-61번지","category":"자동차정비 유지 - 자동차정비"},{"name":"명가칼국수","tel":"031-321-4005","addr":"경기도 용인시 처인구 역북동 365-61번지","category":"일반휴게음식 - 일반한식"},{"name":"블루존","tel":"031-334-5001","addr":"경기도 용인시 처인구 역북동 365-61번지","category":"회원제형태 - 기타3"},{"name":"스마일세차장","tel":"070-4221-2479","addr":"경기도 용인시 처인구 역북동 365-61번지","category":"자동차정비 유지 - 세차장"}]},{"lat":"37.238407173","long":"127.18974323","items":[{"name":"메디칼사랑약국","tel":"031-333-3668","addr":"경기도 용인시 처인구 역북동 420-35번지","category":"약국 - 약국"}]},{"lat":"37.237582344","long":"127.19281776","items":[{"name":"명성전기","tel":"031-335-3278","addr":"경기도 용인시 처인구 역북동 413-7","category":"전기제품 - 냉열기기"}]},{"lat":"37.236744387","long":"127.19281566","items":[{"name":"명지댄스뮤지컬학원","tel":"031-332-2228","addr":"경기도 용인시 처인구 역북동 438-6번지 1층","category":"회원제형태 - 레져업소"},{"name":"역북셀파우등생학원","tel":"031-333-4861","addr":"경기도 용인시 처인구 역북동 438-6번지","category":"학원 - 보습학원"}]},{"lat":"37.236163345","long":"127.18990673","items":[{"name":"명지문고","tel":"031-339-1998","addr":"경기도 용인시 처인구 역북동 428-13번지 흥양빌딩 지층","category":"서적문구 - 일반서적"},{"name":"명지약국","tel":"031-335-0078","addr":"경기도 용인시 처인구 역북동 428-13번지 흥양빌딩 1층","category":"약국 - 약국"},{"name":"스타트업모바일","tel":"031-322-5010","addr":"경기도 용인시 처인구 역북동 428-13번지 흥양빌딩 1층","category":"사무통신 - 통신기기"},{"name":"아프로디테","tel":"031-321-2874","addr":"경기도 용인시 처인구 역북동 428-13번지 흥양빌딩 1층","category":"보건위생 - 미용원"},{"name":"연세이비인후과의원","tel":"031-335-5030","addr":"경기도 용인시 처인구 역북동 428-13번지 흥양빌딩 2층","category":"의원 - 의원"},{"name":"연세플라워치과의원","tel":"031-337-2282","addr":"경기도 용인시 처인구 역북동 428-13번지 홍양빌딩 4층","category":"의원 - 치과의원"},{"name":"우림테크(주)","tel":"02-3488-6823","addr":"경기도 용인시 처인구 역북동 428-13번지","category":"건축자재 - 부동산 분양"},{"name":"카파커피명지대점","tel":"031-334-0108","addr":"경기도 용인시 처인구 역북동 428-13번지 흥양빌딩 1층","category":"일반휴게음식 - 서양음식"}]},{"lat":"37.229804681","long":"127.18823459","items":[{"name":"명지자동차용품","tel":"031-323-1181","addr":"경기도 용인시 처인구 역북동 570-2번지","category":"자동차정비 유지 - 자동차부품"}]},{"lat":"37.229194177","long":"127.18682456","items":[{"name":"명지할인마트","tel":"031-332-8588","addr":"경기도 용인시 처인구 역북동 771-1번지 1층","category":"유통업 영리 - 슈퍼마켓"}]},{"lat":"37.230106716","long":"127.17310192","items":[{"name":"명현네간장게장칼국수","tel":"031-322-3020","addr":"경기도 용인시 처인구 역북동 550-4번지","category":"일반휴게음식 - 일반한식"},{"name":"피싱프로","tel":"031-321-7838","addr":"경기도 용인시 처인구 역북동 550-4번지","category":"레져용품 - 스포츠·레져용품"}]},{"lat":"37.237745724","long":"127.19763024","items":[{"name":"모현스포츠","tel":"070-7018-5392","addr":"경기도 용인시 처인구 역북동 475-9번지 월드팰리스 503호","category":"레져용품 - 스포츠·레져용품"}]},{"lat":"37.228914437","long":"127.18709432","items":[{"name":"몽듀듀","tel":"031-222-2222","addr":"경기도 용인시 처인구 역북동 771-4번지 1층","category":"음료식품 - 제과점"}]},{"lat":"37.244630005","long":"127.1918211","items":[{"name":"무쏘","tel":"031-321-5052","addr":"경기도 용인시 처인구 역북동 213-14번지 1층","category":"일반휴게음식 - 일반한식"}]},{"lat":"37.229882299","long":"127.17251546","items":[{"name":"무주천마","tel":"070-4103-0065","addr":"경기도 용인시 처인구 역북동 550번지 반정프라자 1층","category":"음료식품 - 농·축·수산품"},{"name":"산골흑돼지","tel":"031-322-6625","addr":"경기도 용인시 처인구 역북동 550번지 1층","category":"일반휴게음식 - 일반한식"}]},{"lat":"37.22891594","long":"127.18612526","items":[{"name":"무지","tel":"031-000-0000","addr":"경기도 용인시 처인구 역북동 773-1번지 1층","category":"일반휴게음식 - 주점"},{"name":"송술","tel":"031-000-0000","addr":"경기도 용인시 처인구 역북동 773-1번지","category":"일반휴게음식 - 주점"}]},{"lat":"37.228499911","long":"127.18712712","items":[{"name":"무토","tel":"031-000-0000","addr":"경기도 용인시 처인구 역북동 774-4번지 1층","category":"보건위생 - 화장품"}]},{"lat":"37.246967808","long":"127.18921209","items":[{"name":"문어로용인역삼점","tel":"031-332-8525","addr":"경기도 용인시 처인구 역북동 208-7번지 ,1,2층","category":"일반휴게음식 - 일반한식"}]},{"lat":"37.236076503","long":"127.19351267","items":[{"name":"문화종합설비공사","tel":"031-335-4682","addr":"경기도 용인시 처인구 역북동 441-15번지","category":"건축자재 - 보일러·펌프·샷시"},{"name":"쌀눈쌀현미누룽지","tel":"","addr":"경기도 용인시 처인구 역북동 441-15번지 1층","category":"음료식품 - 기타음료식품"}]},{"lat":"37.237963026","long":"127.19141002","items":[{"name":"뮤즈헤어","tel":"031-332-2433","addr":"경기도 용인시 처인구 역북동 414-29번지","category":"보건위생 - 미용원"}]},{"lat":"37.235415722","long":"127.18975839","items":[{"name":"므누","tel":"","addr":"경기도 용인시 처인구 역북동 721-1번지 역북마을신성아파트","category":"신변잡화 - 액세서리"}]},{"lat":"37.229248763","long":"127.18648665","items":[{"name":"미드나잇프로젝트","tel":"","addr":"경기도 용인시 처인구 역북동 770-3번지 1층","category":"일반휴게음식 - 서양음식"}]},{"lat":"37.229303331","long":"127.18616","items":[{"name":"미미아로마","tel":"031-333-3658","addr":"경기도 용인시 처인구 역북동 770-1번지 1층 상가","category":"보건위생 - 화장품"}]},{"lat":"37.228852397","long":"127.18642935","items":[{"name":"미장원(773.3)","tel":"031-111-1111","addr":"경기도 용인시 처인구 역북동 773-3번지 1층","category":"보건위생 - 미용원"}]},{"lat":"37.237573786","long":"127.18682238","items":[{"name":"밀알광고기획","tel":"031-321-1711","addr":"경기도 용인시 처인구 역북동 416번지","category":"용역 서비스 - 종합용역"}]},{"lat":"37.23560947","long":"127.19257616","items":[{"name":"배움영어학원","tel":"031-335-0701","addr":"경기도 용인시 처인구 역북동 436-9번지 서울빌딩 4층 401호","category":"학원 - 외국어학원"},{"name":"보성환경기술","tel":"031-321-4001","addr":"경기도 용인시 처인구 역북동 436-9번지 서울빌딩 5층","category":"용역 서비스 - 종합용역"},{"name":"이투스수학역삼학원","tel":"031-336-7778","addr":"경기도 용인시 처인구 역북동 436-9번지 서울빌딩 4층 2호 3호","category":"학원 - 보습학원"},{"name":"처인한솔플러스수학학원","tel":"031-333-9135","addr":"경기도 용인시 처인구 역북동 436-9번지 서울빌딩 301호","category":"학원 - 보습학원"},{"name":"피플S","tel":"031-335-4561","addr":"경기도 용인시 처인구 역북동 436-9번지 3층 2,3호","category":"레저업소 - 헬스클럽"},{"name":"피플라인","tel":"031-333-4561","addr":"경기도 용인시 처인구 역북동 436-9번지 보성빌딩 201호","category":"회원제형태 - 레져업소"},{"name":"피플휘트니스","tel":"031-333-4561","addr":"경기도 용인시 처인구 역북동 436-9번지 보성빌딩 2층","category":"회원제형태 - 레져업소"}]},{"lat":"37.243581777","long":"127.1937119","items":[{"name":"백두산광고","tel":"031-338-6667","addr":"경기도 용인시 처인구 역북동 305-2번지","category":"용역 서비스 - 종합용역"},{"name":"셈틀광고기획","tel":"031-335-2181","addr":"경기도 용인시 처인구 역북동 305-2번지","category":"용역 서비스 - 종합용역"}]},{"lat":"37.23019425","long":"127.18687207","items":[{"name":"백두산양꼬치","tel":"031-338-8818","addr":"경기도 용인시 처인구 역북동 763-7번지 1층","category":"일반휴게음식 - 일반한식"}]},{"lat":"37.238936188","long":"127.18563111","items":[{"name":"백리향","tel":"031-321-8811","addr":"경기도 용인시 처인구 역북동 399-21번지","category":"일반휴게음식 - 중국식"}]},{"lat":"37.238081485","long":"127.19057637","items":[{"name":"백업테일러(100up Tailor)","tel":"031-321-5454","addr":"경기도 용인시 처인구 역북동 414-21번지","category":"의류 - 맞춤복점"}]},{"lat":"37.240441069","long":"127.19128096","items":[{"name":"버블가든","tel":"070-4181-7870","addr":"경기도 용인시 처인구 역북동 316-1번지 온누리마을","category":"신변잡화 - 기타잡화"}]},{"lat":"37.237962811","long":"127.19154526","items":[{"name":"법무사 임동연 사무소","tel":"031-336-1060","addr":"경기도 용인시 처인구 역북동 414-45번지 101호","category":"용역 서비스 - 법률회계서비스(개인)"}]},{"lat":"37.236971127","long":"127.18615602","items":[{"name":"법무사한현규사무소","tel":"031-337-1600","addr":"경기도 용인시 처인구 역북동 416-2번지 서룡빌라","category":"용역 서비스 - 법률회계서비스(개인)"}]},{"lat":"37.228968972","long":"127.18679021","items":[{"name":"베베유어","tel":"031-322-3644","addr":"경기도 용인시 처인구 역북동 771-6번지 1층 101호","category":"의류 - 아동의류"}]},{"lat":"37.237435729","long":"127.1886815","items":[{"name":"벽옥인테리어","tel":"031-336-9757","addr":"경기도 용인시 처인구 역북동 418-3번지 청수종합시장 124","category":"직물 - 카페트,커튼,천막,지물"}]},{"lat":"37.236825879","long":"127.18685437","items":[{"name":"벽창호","tel":"031-321-2415","addr":"경기도 용인시 처인구 역북동 416-5번지 1층 101~103호","category":"직물 - 침구·수예점"}]},{"lat":"37.22988676","long":"127.18760376","items":[{"name":"보라꽃향기","tel":"031-338-3700","addr":"경기도 용인시 처인구 역북동 776-3번지 1층 401호","category":"문화.취미 - 화원"},{"name":"이은제헤어","tel":"031-336-0692","addr":"경기도 용인시 처인구 역북동 776-3번지 1층","category":"보건위생 - 미용원"}]},{"lat":"37.235969141","long":"127.1930391","items":[{"name":"복돼지식당","tel":"031-339-9253","addr":"경기도 용인시 처인구 역북동 441-18번지 1층 일부","category":"일반휴게음식 - 일반한식"},{"name":"아이두헤어","tel":"031-323-4600","addr":"경기도 용인시 처인구 역북동 441-18번지 1층","category":"보건위생 - 미용원"}]},{"lat":"37.2381356","long":"127.1905427","items":[{"name":"복음보청기용인센터","tel":"031-336-0164","addr":"경기도 용인시 처인구 역북동 414-20번지 2층","category":"보건위생 - 의료용품"},{"name":"야참있는 집","tel":"031-333-8856","addr":"경기도 용인시 처인구 역북동 414-20번지 1층","category":"일반휴게음식 - 일반한식"}]},{"lat":"37.236131326","long":"127.1930395","items":[{"name":"봉이치킨","tel":"031-321-0083","addr":"경기도 용인시 처인구 역북동 441-1번지 1층","category":"일반휴게음식 - 스넥"}]},{"lat":"37.229248973","long":"127.18635143","items":[{"name":"브라운리퀴드(BROWNLIQUID)","tel":"0505-991-1472","addr":"경기도 용인시 처인구 역북동 770-2번지 상가 1층 전체","category":"일반휴게음식 - 서양음식"}]},{"lat":"37.240746444","long":"127.19745764","items":[{"name":"브로우오늘(brow onel)","tel":"","addr":"경기도 용인시 처인구 역북동 471-1번지 유노빌 502호","category":"보건위생 - 미용원"}]},{"lat":"37.228634679","long":"127.18737534","items":[{"name":"브이랩(V.lab)","tel":"","addr":"경기도 용인시 처인구 역북동 778-1번지 1층","category":"일반휴게음식 - 서양음식"}]},{"lat":"37.239693288","long":"127.19123402","items":[{"name":"비비헤어샵(B.B)","tel":"031-339-6188","addr":"경기도 용인시 처인구 역북동 378-1번지 스터디텔금수오피스텔 1층 106호","category":"보건위생 - 미용원"}]},{"lat":"37.2389646","long":"127.19051094","items":[{"name":"비에이치씨(BHC)김량장점","tel":"031-339-8892","addr":"경기도 용인시 처인구 역북동 377-8번지 1층 일부","category":"일반휴게음식 - 스넥"}]},{"lat":"37.239325671","long":"127.19009486","items":[{"name":"비주알미륨","tel":"031-335-9816","addr":"경기도 용인시 처인구 역북동 411-3","category":"건축자재 - 보일러·펌프·샷시"},{"name":"신무교총본산계승종천비궁","tel":"031-332-5186","addr":"경기도 용인시 처인구 역북동 411-3번지 2층","category":"보건위생 - 기타대인서비스"}]},{"lat":"37.238635606","long":"127.19340642","items":[{"name":"뿌리깊은나무까페","tel":"031-338-3927","addr":"경기도 용인시 처인구 역북동 434-40번지 1층","category":"일반휴게음식 - 서양음식"}]},{"lat":"37.232551514","long":"127.18907519","items":[{"name":"사이스튜디오","tel":"031-000-0000","addr":"경기도 용인시 처인구 역북동 504-14번지 두영빌 100호","category":"광학제품 - 사진관"}]},{"lat":"37.23374105","long":"127.18896543","items":[{"name":"사진한장","tel":"031-335-3315","addr":"경기도 용인시 처인구 역북동 723-5번지 청송빌딩","category":"광학제품 - 사진관"},{"name":"제일추어탕","tel":"031-335-2727","addr":"경기도 용인시 처인구 역북동 723-5번지","category":"일반휴게음식 - 일반한식"},{"name":"활어직판장","tel":"031-335-9200","addr":"경기도 용인시 처인구 역북동 723-5번지 청송빌딩 1층 1-2호","category":"음료식품 - 농·축·수산품"}]},{"lat":"37.246824865","long":"127.18843405","items":[{"name":"산마루","tel":"031-335-7861","addr":"경기도 용인시 처인구 역북동 192-1번지 1층","category":"일반휴게음식 - 일반한식"}]},{"lat":"37.240303697","long":"127.19821158","items":[{"name":"삼삼오오","tel":"031-323-1991","addr":"경기도 용인시 처인구 역북동 470-28번지","category":"일반휴게음식 - 일반한식"},{"name":"카파커피 (김량장역)","tel":"031-323-5467","addr":"경기도 용인시 처인구 역북동 470-28번지 1층","category":"일반휴게음식 - 서양음식"}]},{"lat":"37.237467251","long":"127.1857966","items":[{"name":"삼성농원","tel":"031-338-0030","addr":"경기도 용인시 처인구 역북동 391-4번지","category":"문화.취미 - 화원"}]},{"lat":"37.238186652","long":"127.1808172","items":[{"name":"삼성적벽돌상사","tel":"031-335-4735","addr":"경기도 용인시 처인구 역북동 365-19","category":"건축자재 - 기타건축자재"}]},{"lat":"37.236132518","long":"127.19229574","items":[{"name":"삼진카센타","tel":"031-338-2009","addr":"경기도 용인시 처인구 역북동 437-5번지","category":"자동차정비 유지 - 자동차정비"}]},{"lat":"37.237605826","long":"127.18938063","items":[{"name":"삼천리자전거","tel":"031-336-5928","addr":"경기도 용인시 처인구 역북동 424-2번지","category":"레져용품 - 스포츠·레져용품"}]},{"lat":"37.238747369","long":"127.19113024","items":[{"name":"서룡해장국","tel":"031-335-4613","addr":"경기도 용인시 처인구 역북동 385-9번지","category":"일반휴게음식 - 일반한식"}]},{"lat":"37.234380657","long":"127.18904588","items":[{"name":"서브웨이 처인점","tel":"031-332-3070","addr":"경기도 용인시 처인구 역북동 722-1번지 101호","category":"일반휴게음식 - 일반한식"},{"name":"윈 복싱 클래스","tel":"031-337-1211","addr":"경기도 용인시 처인구 역북동 722-1번지 3층","category":"레저업소 - 헬스클럽"},{"name":"평안도찹쌀순대명지대점","tel":"031-335-0008","addr":"경기도 용인시 처인구 역북동 722-1번지 1층","category":"일반휴게음식 - 일반한식"},{"name":"호미빙(용인처인구점)","tel":"031-321-1889","addr":"경기도 용인시 처인구 역북동 722-1번지 2층","category":"일반휴게음식 - 일반한식"}]},{"lat":"37.238302406","long":"127.19329289","items":[{"name":"선봉사","tel":"070-4085-4578","addr":"경기도 용인시 처인구 역북동 434-44번지","category":"서적문구 - 문구용품"},{"name":"손가네족발","tel":"031-326-0122","addr":"경기도 용인시 처인구 역북동 434-44번지 1층","category":"일반휴게음식 - 일반한식"},{"name":"프렌치프라이(French Fries)","tel":"031-111-1111","addr":"경기도 용인시 처인구 역북동 434-44번지","category":"일반휴게음식 - 일반한식"}]},{"lat":"37.239355539","long":"127.19396045","items":[{"name":"선우기획","tel":"031-335-6004","addr":"경기도 용인시 처인구 역북동 444-8번지 202호 일부","category":"레져용품 - 스포츠·레져용품"}]},{"lat":"37.236134565","long":"127.19101105","items":[{"name":"선진사관어학원","tel":"031-323-6022","addr":"경기도 용인시 처인구 역북동 436-1번지 2층","category":"학원 - 외국어학원"}]},{"lat":"37.236380995","long":"127.18901699","items":[{"name":"성광상사삼화페인트(대리점)","tel":"031-335-2816","addr":"경기도 용인시 처인구 역북동 423-10","category":"건축자재 - 페인트"},{"name":"연탄근돼지","tel":"031-323-3114","addr":"경기도 용인시 처인구 역북동 423-10번지","category":"일반휴게음식 - 일반한식"}]},{"lat":"37.234191175","long":"127.18921445","items":[{"name":"성산고을","tel":"031-321-1254","addr":"경기도 용인시 처인구 역북동 722-8번지","category":"일반휴게음식 - 일반한식"}]},{"lat":"37.231967629","long":"127.18793563","items":[{"name":"세계로플라워엔가든","tel":"031-333-1004","addr":"경기도 용인시 처인구 역북동 582-7","category":"문화.취미 - 화원"}]},{"lat":"37.234353325","long":"127.18923739","items":[{"name":"소담정육","tel":"031-336-6602","addr":"경기도 용인시 처인구 역북동 722-2번지 1층","category":"음료식품 - 정육점"},{"name":"용인대 멀티짐","tel":"031-333-0855","addr":"경기도 용인시 처인구 역북동 722-2번지 2층","category":"학원 - 예·체능계학원"}]},{"lat":"37.242073646","long":"127.19581561","items":[{"name":"소율  음악학원","tel":"031-332-3212","addr":"경기도 용인시 처인구 역북동 787번지 역북2단지우남퍼스트빌 302호","category":"학원 - 예·체능계학원"},{"name":"신통치킨역북우남점","tel":"031-322-4255","addr":"경기도 용인시 처인구 역북동 787번지 역북2단지우남퍼스트빌","category":"일반휴게음식 - 일반한식"},{"name":"올 플러스 미술(ALL+미술)","tel":"031-526-0052","addr":"경기도 용인시 처인구 역북동 787번지 역북2단지우남퍼스트빌","category":"학원 - 예·체능계학원"},{"name":"윤선생IGSE아카데미용인역북우남학원","tel":"031-526-0042","addr":"경기도 용인시 처인구 역북동 787번지 역북2단지우남퍼스트빌","category":"학원 - 보습학원"},{"name":"퍼스트 태권도장","tel":"031-322-1449","addr":"경기도 용인시 처인구 역북동 787번지 역북2단지우남퍼스트빌","category":"학원 - 예·체능계학원"}]},{"lat":"37.230130863","long":"127.18707474","items":[{"name":"소잉빌","tel":"","addr":"경기도 용인시 처인구 역북동 763-6번지 1층","category":"신변잡화 - 가방"}]},{"lat":"37.228939463","long":"127.18837895","items":[{"name":"솔가의집","tel":"031-323-0058","addr":"경기도 용인시 처인구 역북동 598-4번지","category":"일반휴게음식 - 일반한식"}]},{"lat":"37.239546648","long":"127.19832233","items":[{"name":"송탄부대찌개","tel":"031-322-9802","addr":"경기도 용인시 처인구 역북동 470-23번지 1층","category":"일반휴게음식 - 일반한식"}]},{"lat":"37.246550789","long":"127.19082279","items":[{"name":"수수꽃다리","tel":"031-322-7742","addr":"경기도 용인시 처인구 역북동 217-8번지","category":"일반휴게음식 - 서양음식"}]},{"lat":"37.238825672","long":"127.19287723","items":[{"name":"수호크린(주)","tel":"031-334-1597","addr":"경기도 용인시 처인구 역북동 380-3번지 전원빌라 107호","category":"회원제형태 - 기타3"}]},{"lat":"37.237636914","long":"127.19804693","items":[{"name":"숙이호프","tel":"031-338-5420","addr":"경기도 용인시 처인구 역북동 475-42번지 1층","category":"일반휴게음식 - 주점"},{"name":"와바노래연습장","tel":"031-336-1162","addr":"경기도 용인시 처인구 역북동 475-42번지","category":"레저업소 - 노 래 방"},{"name":"통닭쏠까?호프쏠까?","tel":"031-332-1817","addr":"경기도 용인시 처인구 역북동 475-42번지","category":"일반휴게음식 - 주점"}]},{"lat":"37.235744046","long":"127.19293711","items":[{"name":"스시환","tel":"031-333-4230","addr":"경기도 용인시 처인구 역북동 446번지 1층","category":"일반휴게음식 - 일식·회집"}]},{"lat":"37.228969182","long":"127.18665499","items":[{"name":"스쿱키","tel":"","addr":"경기도 용인시 처인구 역북동 771-7번지 1층","category":"일반휴게음식 - 일반한식"}]},{"lat":"37.234325673","long":"127.18963174","items":[{"name":"시편음악학원","tel":"031-322-1995","addr":"경기도 용인시 처인구 역북동 722-4번지","category":"학원 - 예·체능계학원"},{"name":"헤어더공감","tel":"031-332-0075","addr":"경기도 용인시 처인구 역북동 722-4번지 상은빌딩 1층","category":"보건위생 - 미용원"}]},{"lat":"37.237665742","long":"127.19695387","items":[{"name":"실과바늘 리폼 나라","tel":"031-335-9494","addr":"경기도 용인시 처인구 역북동 634-22번지 1층","category":"수리서비스 - 세탁소"}]},{"lat":"37.236609883","long":"127.19240962","items":[{"name":"싱싱참치","tel":"031-332-5657","addr":"경기도 용인시 처인구 역북동 438-13번지","category":"일반휴게음식 - 일식·회집"}]},{"lat":"37.228824807","long":"127.18678986","items":[{"name":"쌀로만피자","tel":"031-332-4584","addr":"경기도 용인시 처인구 역북동 774-1번지 1층","category":"일반휴게음식 - 서양음식"}]},{"lat":"37.230326361","long":"127.18882182","items":[{"name":"썬고속관광 주식회사","tel":"031-338-7772","addr":"경기도 용인시 처인구 역북동 587-15번지","category":"여행 - 관광여행"}]},{"lat":"37.24246797","long":"127.19154521","items":[{"name":"쓰리원 파트너스 카페테리아","tel":"031-321-7780","addr":"경기도 용인시 처인구 역북동 314-1번지 1층","category":"일반휴게음식 - 서양음식"}]},{"lat":"37.238157534","long":"127.19373204","items":[{"name":"씨유용인고점","tel":"031-334-5566","addr":"경기도 용인시 처인구 역북동 434-58번지 102호","category":"유통업 영리 - 편 의 점"}]},{"lat":"37.230714369","long":"127.18846218","items":[{"name":"씨유용인명지원룸점","tel":"031-898-6566","addr":"경기도 용인시 처인구 역북동 587번지 101호","category":"유통업 영리 - 편 의 점"},{"name":"한라종합건재","tel":"031-336-0156","addr":"경기도 용인시 처인구 역북동 587번지","category":"건축자재 - 기타건축자재"}]},{"lat":"37.244964049","long":"127.19140492","items":[{"name":"아자아자장어구이 역북동본점","tel":"031-324-9292","addr":"경기도 용인시 처인구 역북동 213-12번지 1층","category":"일반휴게음식 - 일반한식"}]},{"lat":"37.238269314","long":"127.17976932","items":[{"name":"아카사카","tel":"031-332-6450","addr":"경기도 용인시 처인구 역북동 365-66번지","category":"보건위생 - 미용원"}]},{"lat":"37.230522528","long":"127.19012944","items":[{"name":"아함흥냉면","tel":"031-335-7712","addr":"경기도 용인시 처인구 역북동 586-9번지","category":"일반휴게음식 - 일반한식"},{"name":"이향가든역북점","tel":"","addr":"경기도 용인시 처인구 역북동 586-9번지 1층","category":"일반휴게음식 - 일반한식"}]},{"lat":"37.236189056","long":"127.19074072","items":[{"name":"안성깍두기","tel":"031-338-5657","addr":"경기도 용인시 처인구 역북동 428-8번지 정화빌1층상가","category":"일반휴게음식 - 일반한식"}]},{"lat":"37.229356275","long":"127.1868813","items":[{"name":"알데스코(ALDESKO)","tel":"031-239-5691","addr":"경기도 용인시 처인구 역북동 768-6번지 1층101호1층상가","category":"일반휴게음식 - 서양음식"}]},{"lat":"37.24316001","long":"127.19818514","items":[{"name":"알마니(악세사리)","tel":"031-321-7642","addr":"경기도 용인시 처인구 역북동 264-2,109-401","category":"신변잡화 - 액세서리"}]},{"lat":"37.240303714","long":"127.18105884","items":[{"name":"애플하우스","tel":"031-322-1567","addr":"경기도 용인시 처인구 역북동 360-3번지 가동 1층","category":"일반휴게음식 - 일반한식"}]},{"lat":"37.237247519","long":"127.18803869","items":[{"name":"야미가","tel":"031-322-5056","addr":"경기도 용인시 처인구 역북동 419-1번지","category":"일반휴게음식 - 일반한식"}]},{"lat":"37.228246146","long":"127.18807302","items":[{"name":"야옹아 멍멍해봐","tel":"031-338-0079","addr":"경기도 용인시 처인구 역북동 601번지 1층","category":"문화.취미 - 애완동물"}]},{"lat":"37.230439773","long":"127.17332804","items":[{"name":"어니스트로이어","tel":"031-5440-7122","addr":"경기도 용인시 처인구 역북동 551-10번지 1,2층","category":"일반휴게음식 - 서양음식"}]},{"lat":"37.230023684","long":"127.18646599","items":[{"name":"어머스트스탑(a must stop)","tel":"031-1111-1111","addr":"경기도 용인시 처인구 역북동 794-2번지 1층 102호","category":"음료식품 - 제과점"},{"name":"엠앤엠커피","tel":"","addr":"경기도 용인시 처인구 역북동 794-2번지 1층 101호","category":"일반휴게음식 - 서양음식"}]},{"lat":"37.229579195","long":"127.18838052","items":[{"name":"어부가회","tel":"031-323-1424","addr":"경기도 용인시 처인구 역북동 598-7번지 1층","category":"일반휴게음식 - 일식·회집"},{"name":"전복어장","tel":"","addr":"경기도 용인시 처인구 역북동 598-7번지 1층 일부","category":"일반휴게음식 - 일반한식"},{"name":"착한해물가","tel":"031-333-0041","addr":"경기도 용인시 처인구 역북동 598-7번지","category":"일반휴게음식 - 일반한식"}]},{"lat":"37.236470406","long":"127.18945672","items":[{"name":"에이스광택","tel":"070-4680-7200","addr":"경기도 용인시 처인구 역북동 428-16번지","category":"자동차정비 유지 - 카인테리어"}]},{"lat":"37.236519256","long":"127.19273621","items":[{"name":"여우손톱","tel":"031-8017-3007","addr":"경기도 용인시 처인구 역북동 438-9번지 인상빌딩 1층","category":"보건위생 - 피부미용실"},{"name":"코리아 장의서비스","tel":"031-328-8915","addr":"경기도 용인시 처인구 역북동 438-9번지 인상빌딩 201호","category":"용역 서비스 - 가례서비스업"},{"name":"코리아 장의서비스","tel":"031-328-8915","addr":"경기도 용인시 처인구 역북동 438-9번지 인상빌딩 201호","category":"용역 서비스 - 가례서비스업"},{"name":"한그룻국수","tel":"031-335-8613","addr":"경기도 용인시 처인구 역북동 438-9번지 1층","category":"일반휴게음식 - 일반한식"}]},{"lat":"37.229796622","long":"127.18762608","items":[{"name":"역북골목길","tel":"","addr":"경기도 용인시 처인구 역북동 776-4번지","category":"일반휴게음식 - 주점"}]},{"lat":"37.230166044","long":"127.18762698","items":[{"name":"역북냉면","tel":"031-000-0000","addr":"경기도 용인시 처인구 역북동 776-1번지 1동 101호","category":"일반휴게음식 - 일반한식"}]},{"lat":"37.238410403","long":"127.19337205","items":[{"name":"역북떡방앗간","tel":"031-335-5593","addr":"경기도 용인시 처인구 역북동 434-75번지 1층","category":"음료식품 - 제과점"}]},{"lat":"37.239748048","long":"127.19079463","items":[{"name":"역북컴퓨터세탁소","tel":"031-335-1709","addr":"경기도 용인시 처인구 역북동 377-2번지","category":"수리서비스 - 세탁소"}]},{"lat":"37.237852562","long":"127.19287478","items":[{"name":"역북해법독서논술교습소","tel":"031-338-1929","addr":"경기도 용인시 처인구 역북동 412-6번지 3층","category":"학원 - 보습학원"},{"name":"용인골곱창","tel":"031-336-9683","addr":"경기도 용인시 처인구 역북동 412-6번지","category":"일반휴게음식 - 일반한식"}]},{"lat":"37.239438525","long":"127.19832205","items":[{"name":"연리지헤어샵","tel":"031-323-5068","addr":"경기도 용인시 처인구 역북동 470-30번지","category":"보건위생 - 미용원"}]},{"lat":"37.238688812","long":"127.1882676","items":[{"name":"연세건강약국","tel":"031-333-0275","addr":"경기도 용인시 처인구 역북동 406-2번지","category":"약국 - 약국"}]},{"lat":"37.237830995","long":"127.18943753","items":[{"name":"연세소망약국","tel":"031-333-9653","addr":"경기도 용인시 처인구 역북동 424-1번지","category":"약국 - 약국"},{"name":"주막집","tel":"031-339-7481","addr":"경기도 용인시 처인구 역북동 424-1번지","category":"일반휴게음식 - 일반한식"}]},{"lat":"37.239129981","long":"127.18848281","items":[{"name":"연세의대용인세브란스병원","tel":"031-331-8635","addr":"경기도 용인시 처인구 역북동 405번지","category":"병원 - 종합병원"}]},{"lat":"37.23219089","long":"127.18920953","items":[{"name":"연합광고기획","tel":"031-336-4213","addr":"경기도 용인시 처인구 역북동 504-29번지","category":"용역 서비스 - 종합용역"},{"name":"이엘종합상가","tel":"031-339-5989","addr":"경기도 용인시 처인구 역북동 504-29번지 (504-25,504-26,504-27,504-28번지포함)","category":"용역 서비스 - 부동산 중개·임대"},{"name":"차가네손두부","tel":"031-335-2070","addr":"경기도 용인시 처인구 역북동 504-29번지","category":"일반휴게음식 - 일반한식"},{"name":"현대소방","tel":"031-338-4119","addr":"경기도 용인시 처인구 역북동 504-29번지","category":"기타 - 기계공구"}]},{"lat":"37.237606877","long":"127.18287815","items":[{"name":"영동상사","tel":"031-338-7747","addr":"경기도 용인시 처인구 역북동 367-1번지","category":"건축자재 - 페인트"}]},{"lat":"37.237220224","long":"127.18820766","items":[{"name":"예가인","tel":"","addr":"경기도 용인시 처인구 역북동 419-11번지 1층","category":"전기제품 - 가전제품"},{"name":"청소하니","tel":"070-7018-5392","addr":"경기도 용인시 처인구 역북동 419-11번지 1층","category":"용역 서비스 - 종합용역"}]},{"lat":"37.233965581","long":"127.18942801","items":[{"name":"예스모","tel":"031-321-3253","addr":"경기도 용인시 처인구 역북동 724-1번지 1층","category":"보건위생 - 미용재료"}]},{"lat":"37.236800789","long":"127.19135078","items":[{"name":"오덕헤어샵","tel":"031-335-5035","addr":"경기도 용인시 처인구 역북동 426-6번지 103호","category":"보건위생 - 미용원"}]},{"lat":"37.237325098","long":"127.184489","items":[{"name":"오로라카센타","tel":"031-321-9723","addr":"경기도 용인시 처인구 역북동 376-5번지","category":"자동차정비 유지 - 자동차정비"}]},{"lat":"37.229526489","long":"127.18751274","items":[{"name":"오빠곱창","tel":"031-332-5225","addr":"경기도 용인시 처인구 역북동 777번지 1층","category":"일반휴게음식 - 일반한식"}]},{"lat":"37.2357693","long":"127.19404155","items":[{"name":"오영쪽갈비","tel":"031-338-8876","addr":"경기도 용인시 처인구 역북동 441-9번지","category":"일반휴게음식 - 일반한식"},{"name":"진오피스","tel":"031-339-0300","addr":"경기도 용인시 처인구 역북동 441-9번지 1층","category":"사무통신 - 사무용 OA기기"}]},{"lat":"37.23985635","long":"127.1906822","items":[{"name":"온누리 텔레콤","tel":"031-336-2660","addr":"경기도 용인시 처인구 역북동 377번지 1층","category":"사무통신 - 통신기기"}]},{"lat":"37.22877022","long":"127.18712777","items":[{"name":"온리플","tel":"","addr":"경기도 용인시 처인구 역북동 774-3번지","category":"의류 - 정장"}]},{"lat":"37.229629736","long":"127.17270646","items":[{"name":"용마편의점","tel":"031-223-5214","addr":"경기도 용인시 처인구 역북동 550-8번지 4,5호","category":"유통업 영리 - 편 의 점"},{"name":"한일시스템","tel":"031-282-1995","addr":"경기도 용인시 처인구 역북동 550-8번지","category":"사무통신 - 컴퓨터"}]},{"lat":"37.24024016","long":"127.19295966","items":[{"name":"용인고등학교매점","tel":"031-330-8382","addr":"경기도 용인시 처인구 역북동 444-1번지 용인고등학교","category":"음료식품 - 기타음료식품"}]},{"lat":"37.228469257","long":"127.17140802","items":[{"name":"용인대마트","tel":"031-321-6567","addr":"경기도 용인시 처인구 역북동 622-2번지 대원원룸 101호","category":"유통업 영리 - 슈퍼마켓"}]},{"lat":"37.236853214","long":"127.19237642","items":[{"name":"용인상사","tel":"031-335-4408","addr":"경기도 용인시 처인구 역북동 438-3번지","category":"기타 - 기타 전문점"},{"name":"용인상사","tel":"031-336-4408","addr":"경기도 용인시 처인구 역북동 438-3번지","category":"수리서비스 - 기타수리서비스"}]},{"lat":"37.235491451","long":"127.19312805","items":[{"name":"용인시청 로가디스","tel":"031-111-1111","addr":"경기도 용인시 처인구 역북동 446-15번지 1층","category":"레져용품 - 스포츠·레져용품"},{"name":"제일로드","tel":"031-285-2929","addr":"경기도 용인시 처인구 역북동 446-15번지","category":"레져용품 - 스포츠·레져용품"},{"name":"태광전기","tel":"031-335-0611","addr":"경기도 용인시 처인구 역북동 446-15번지","category":"전기제품 - 기타전기제품"}]},{"lat":"37.237297305","long":"127.18498479","items":[{"name":"용인연무골재","tel":"031-322-6514","addr":"경기도 용인시 처인구 역북동 376-12번지","category":"건축자재 - 기타건축자재"},{"name":"용인연무골재","tel":"031-322-7514","addr":"경기도 용인시 처인구 역북동 376-12","category":"건축자재 - 기타건축자재"}]},{"lat":"37.235436863","long":"127.19345472","items":[{"name":"용인종합알뜰매장","tel":"031-338-4980","addr":"경기도 용인시 처인구 역북동 446-13,301호~304호","category":"수리서비스 - 가정용품수리"}]},{"lat":"37.236880291","long":"127.18662912","items":[{"name":"용인종합앵글","tel":"031-339-1044","addr":"경기도 용인시 처인구 역북동 416-4번지","category":"건축자재 - 목재·석재·철물"},{"name":"효진모터스","tel":"031-332-2553","addr":"경기도 용인시 처인구 역북동 416-4번지","category":"자동차정비 유지 - 자동차부품"}]},{"lat":"37.237079929","long":"127.19146417","items":[{"name":"용인한국스포츠","tel":"031-337-1761","addr":"경기도 용인시 처인구 역북동 426-4번지 1층 101호","category":"신변잡화 - 기념품점"}]},{"lat":"37.239942467","long":"127.19870652","items":[{"name":"우리당구클럽","tel":"031-791-5859","addr":"경기도 용인시 처인구 역북동 465번지 외2필지","category":"레저업소 - 당 구 장"}]},{"lat":"37.227111024","long":"127.18795756","items":[{"name":"우리종합공사","tel":"031-337-1046","addr":"경기도 용인시 처인구 역북동 604-5번지","category":"직물 - 카페트,커튼,천막,지물"}]},{"lat":"37.244603423","long":"127.19153927","items":[{"name":"우미랑","tel":"031-322-3224","addr":"경기도 용인시 처인구 역북동 213-15번지","category":"일반휴게음식 - 일반한식"}]},{"lat":"37.236548859","long":"127.19112477","items":[{"name":"우성치과기공소","tel":"031-339-2811","addr":"경기도 용인시 처인구 역북동 427-4번지","category":"보건위생 - 의료용품"},{"name":"충북세탁소","tel":"031-335-0344","addr":"경기도 용인시 처인구 역북동 427-4번지","category":"수리서비스 - 세탁소"}]},{"lat":"37.233965971","long":"127.18918009","items":[{"name":"우슬초","tel":"031-338-0336","addr":"경기도 용인시 처인구 역북동 723-2번지","category":"일반휴게음식 - 일반한식"}]},{"lat":"37.236192656","long":"127.19412151","items":[{"name":"웰빙삼시세끼","tel":"031-336-4666","addr":"경기도 용인시 처인구 역북동 439-23번지 1층","category":"일반휴게음식 - 일반한식"},{"name":"장충동케이","tel":"031-321-2612","addr":"경기도 용인시 처인구 역북동 439-23번지 1층","category":"일반휴게음식 - 일반한식"}]},{"lat":"37.238609064","long":"127.19310207","items":[{"name":"윙윙치킨","tel":"031-336-0301","addr":"경기도 용인시 처인구 역북동 386-8,386-17","category":"일반휴게음식 - 주점"}]},{"lat":"37.238832269","long":"127.19437611","items":[{"name":"유경아아트샵","tel":"031-322-8052","addr":"경기도 용인시 처인구 역북동 434-8번지","category":"문화.취미 - 문화취미기타"}]},{"lat":"37.229411333","long":"127.18623914","items":[{"name":"유림퀼트","tel":"031-375-7556","addr":"경기도 용인시 처인구 역북동 767-5번지 수하우스 101호","category":"문화.취미 - 문화취미기타"}]},{"lat":"37.236330576","long":"127.18668413","items":[{"name":"유정상사","tel":"031-336-8151","addr":"경기도 용인시 처인구 역북동 528-12번지","category":"기타 - 기타 전문점"}]},{"lat":"37.239663781","long":"127.19832263","items":[{"name":"유플라워","tel":"031-321-0323","addr":"경기도 용인시 처인구 역북동 470-22번지 에바다 103호","category":"문화.취미 - 화원"}]},{"lat":"37.23507986","long":"127.19132396","items":[{"name":"윤선생우리집앞역북보성공부방","tel":"","addr":"경기도 용인시 처인구 역북동 721-3번지 역북마을보성아파트","category":"학원 - 보습학원"}]},{"lat":"37.232741173","long":"127.18879394","items":[{"name":"은하수종합상사","tel":"031-323-2478","addr":"경기도 용인시 처인구 역북동 585번지","category":"신변잡화 - 기타잡화"}]},{"lat":"37.237962416","long":"127.19179319","items":[{"name":"은현상사","tel":"031-335-7743","addr":"경기도 용인시 처인구 역북동 412-13번지 세웅하이빌타운","category":"자동차정비 유지 - 자동차부품"}]},{"lat":"37.229023802","long":"127.18629454","items":[{"name":"이레맘의수제스토리","tel":"","addr":"경기도 용인시 처인구 역북동 770-5번지 1층","category":"음료식품 - 기타음료식품"}]},{"lat":"37.236108981","long":"127.19009817","items":[{"name":"이리온동물메디컬센터","tel":"031-334-6125","addr":"경기도 용인시 처인구 역북동 428-12번지","category":"기타의료기관 - 동물병원"},{"name":"조의강아지미용실","tel":"","addr":"경기도 용인시 처인구 역북동 428-12번지 1층","category":"문화.취미 - 애완동물"}]},{"lat":"37.242439281","long":"127.19812693","items":[{"name":"이마트24 용인숲속마을점","tel":"","addr":"경기도 용인시 처인구 역북동 266-3번지 숲속마을 101동 B02호","category":"유통업 영리 - 편 의 점"}]},{"lat":"37.243357065","long":"127.19337322","items":[{"name":"이쁘제니","tel":"070-2699-0807","addr":"경기도 용인시 처인구 역북동 305-26번지 세웅빌리지 102동 201호","category":"의류 - 내의판매"}]},{"lat":"37.236272357","long":"127.18934354","items":[{"name":"이안한의원","tel":"031-338-1675","addr":"경기도 용인시 처인구 역북동 428-15번지 동천빌딩 3층","category":"의원 - 한의원"},{"name":"주식회사 에스피모바일 (본오지점)","tel":"031-335-8843","addr":"경기도 용인시 처인구 역북동 428-15번지","category":"사무통신 - 통신기기"},{"name":"팔푼이역북점","tel":"031-335-4844","addr":"경기도 용인시 처인구 역북동 428-15번지 2층","category":"일반휴게음식 - 일반한식"}]},{"lat":"37.236579424","long":"127.19453945","items":[{"name":"이포막국수","tel":"031-333-7143","addr":"경기도 용인시 처인구 역북동 439-8번지","category":"일반휴게음식 - 스넥"}]},{"lat":"37.238995828","long":"127.19904217","items":[{"name":"인치미터무역상사","tel":"031-338-7566","addr":"경기도 용인시 처인구 역북동 467-1번지 2호","category":"서적문구 - 완구점"}]},{"lat":"37.237852109","long":"127.19315652","items":[{"name":"일광식당","tel":"031-335-6567","addr":"경기도 용인시 처인구 역북동 434-50번지","category":"일반휴게음식 - 일반한식"},{"name":"일광정육점","tel":"031-335-6567","addr":"경기도 용인시 처인구 역북동 434-50번지","category":"음료식품 - 정육점"}]},{"lat":"37.239802073","long":"127.1908173","items":[{"name":"임기획","tel":"031-328-8889","addr":"경기도 용인시 처인구 역북동 377-1번지","category":"서적문구 - 출판 및 인쇄물"}]},{"lat":"37.235327533","long":"127.1885411","items":[{"name":"잉크스테이션용인점","tel":"031-337-0972","addr":"경기도 용인시 처인구 역북동 510-4번지","category":"사무통신 - 기타 사무용품"}]},{"lat":"37.238325208","long":"127.19029524","items":[{"name":"자연건강마을","tel":"031-336-8436","addr":"경기도 용인시 처인구 역북동 415-4번지 1층","category":"음료식품 - 기타음료식품"}]},{"lat":"37.242824363","long":"127.18254117","items":[{"name":"자연속으로","tel":"031-000-0000","addr":"경기도 용인시 처인구 역북동 338-7번지","category":"문화.취미 - 화원"}]},{"lat":"37.229797867","long":"127.18682603","items":[{"name":"장수면옥","tel":"031-339-9981","addr":"경기도 용인시 처인구 역북동 765-7번지 1층","category":"일반휴게음식 - 일반한식"}]},{"lat":"37.238522255","long":"127.19103952","items":[{"name":"장원교육 용인동백지점","tel":"031-335-5343","addr":"경기도 용인시 처인구 역북동 414-2, 2 1/1","category":"회원제형태 - 서적"}]},{"lat":"37.238629231","long":"127.19176104","items":[{"name":"정남골프","tel":"031-206-6882","addr":"경기도 용인시 처인구 역북동 385-13번지 101호","category":"레져용품 - 골프용품 전문점"}]},{"lat":"37.23805415","long":"127.19076789","items":[{"name":"정민규헤어샵","tel":"031-891-7772","addr":"경기도 용인시 처인구 역북동 414-23번지","category":"보건위생 - 미용원"}]},{"lat":"37.237770071","long":"127.18221363","items":[{"name":"제일차유리","tel":"031-332-2553","addr":"경기도 용인시 처인구 역북동 367-6번지","category":"자동차정비 유지 - 자동차부품"}]},{"lat":"37.235825897","long":"127.19246401","items":[{"name":"제일창호유리건설","tel":"031-335-6726","addr":"경기도 용인시 처인구 역북동 436-7번지 대한빌딩 3층","category":"건축자재 - 유리"}]},{"lat":"37.23066352","long":"127.18639993","items":[{"name":"제주둘레국수용인점","tel":"031-321-3222","addr":"경기도 용인시 처인구 역북동 791-1번지 1층 101호","category":"일반휴게음식 - 일반한식"}]},{"lat":"37.238934734","long":"127.19229148","items":[{"name":"조양제분소","tel":"031-333-0238","addr":"경기도 용인시 처인구 역북동 380-6번지","category":"음료식품 - 기타음료식품"}]},{"lat":"37.237630696","long":"127.19634522","items":[{"name":"주선생","tel":"031-336-9788","addr":"경기도 용인시 처인구 역북동 475-23번지","category":"일반휴게음식 - 일반한식"},{"name":"하니벨","tel":"031-332-1174","addr":"경기도 용인시 처인구 역북동 475-23번지","category":"주방용구 - 주방용구"}]},{"lat":"37.23352276","long":"127.19026081","items":[{"name":"주식회사 그린푸드영양시스템","tel":"031-338-3331","addr":"경기도 용인시 처인구 역북동 504-1번지 용인시립도서관 가동 지하1층","category":"일반휴게음식 - 일반한식"}]},{"lat":"37.243188756","long":"127.19156955","items":[{"name":"주식회사위시테크","tel":"031-321-5871","addr":"경기도 용인시 처인구 역북동 311-2번지 1층 102호","category":"건축자재 - 건축용 요업제품"}]},{"lat":"37.238438682","long":"127.19259451","items":[{"name":"주식회사인투팜","tel":"031-548-2053","addr":"경기도 용인시 처인구 역북동 386-18번지 1층,2층","category":"약국 - 제약회사"}]},{"lat":"37.22902207","long":"127.18741009","items":[{"name":"주식회사하늘여행사","tel":"031-336-8600","addr":"경기도 용인시 처인구 역북동 777-4번지 1층 102호","category":"여행 - 관광여행"}]},{"lat":"37.236771147","long":"127.19298476","items":[{"name":"즐겨찾기당구장","tel":"031-336-7909","addr":"경기도 용인시 처인구 역북동 438-7번지 2층","category":"레저업소 - 당 구 장"},{"name":"포유부대찌개","tel":"031-111-1111","addr":"경기도 용인시 처인구 역북동 438-7번지","category":"일반휴게음식 - 일반한식"}]},{"lat":"37.238285543","long":"127.19257159","items":[{"name":"찐꼬 케이크","tel":"","addr":"경기도 용인시 처인구 역북동 412-2번지 조양맨션 3동 401호","category":"문화.취미 - 문화취미기타"}]},{"lat":"37.238915196","long":"127.19323808","items":[{"name":"차칸곱창","tel":"031-323-5583","addr":"경기도 용인시 처인구 역북동 380-7번지 1층","category":"일반휴게음식 - 일반한식"},{"name":"히릿카페","tel":"070-8616-2223","addr":"경기도 용인시 처인구 역북동 380-7번지 1층","category":"일반휴게음식 - 서양음식"}]},{"lat":"37.229330536","long":"127.18604739","items":[{"name":"창","tel":"031-111-1111","addr":"경기도 용인시 처인구 역북동 770번지 1층","category":"일반휴게음식 - 주점"}]},{"lat":"37.244801649","long":"127.19153976","items":[{"name":"처인맛집 바다향왕코다리","tel":"031-332-5577","addr":"경기도 용인시 처인구 역북동 213-13번지","category":"일반휴게음식 - 일반한식"}]},{"lat":"37.23769244","long":"127.19715679","items":[{"name":"천하장사","tel":"031-339-7745","addr":"경기도 용인시 처인구 역북동 475-15","category":"일반휴게음식 - 일반한식"}]},{"lat":"37.238105608","long":"127.1924021","items":[{"name":"청명대리","tel":"031-5293-7228","addr":"경기도 용인시 처인구 역북동 412-2번지 조양맨션","category":"보건위생 - 기타대인서비스"}]},{"lat":"37.233353608","long":"127.18896448","items":[{"name":"청진동해장국","tel":"031-339-3848","addr":"경기도 용인시 처인구 역북동 582-24번지 1층","category":"일반휴게음식 - 일반한식"}]},{"lat":"37.237075265","long":"127.18871443","items":[{"name":"초이스터디영어수학학원","tel":"031-337-2015","addr":"경기도 용인시 처인구 역북동 419-4번지 101호","category":"학원 - 보습학원"}]},{"lat":"37.238134401","long":"127.19129775","items":[{"name":"친환경원목가구 더편백","tel":"03-111-1111","addr":"경기도 용인시 처인구 역북동 414-16번지 201호","category":"가구 - 일반가구"}]},{"lat":"37.236632756","long":"127.19499036","items":[{"name":"카파커피 역북소공원점","tel":"031-322-0447","addr":"경기도 용인시 처인구 역북동 482-1번지 1층","category":"일반휴게음식 - 서양음식"}]},{"lat":"37.236435587","long":"127.18867905","items":[{"name":"카페 삼성디지털프라자 용인시청점","tel":"031-324-9305","addr":"경기도 용인시 처인구 역북동 423-12번지 2층","category":"일반휴게음식 - 서양음식"}]},{"lat":"37.229608178","long":"127.18712981","items":[{"name":"카페글리(Caffe Glee)","tel":"031-203-1052","addr":"경기도 용인시 처인구 역북동 768-2번지 1층","category":"일반휴게음식 - 서양음식"}]},{"lat":"37.230023125","long":"127.18682658","items":[{"name":"카페더미라리","tel":"070-7728-9865","addr":"경기도 용인시 처인구 역북동 765번지 1층 101호","category":"일반휴게음식 - 서양음식"}]},{"lat":"37.229103092","long":"127.18745536","items":[{"name":"카페모노비(cafe monoB)","tel":"031-333-3434","addr":"경기도 용인시 처인구 역북동 777-3번지 1층 101호","category":"일반휴게음식 - 서양음식"}]},{"lat":"37.230553961","long":"127.18732368","items":[{"name":"카페보니또용인역북점","tel":"02-2232-6338","addr":"경기도 용인시 처인구 역북동 762-2번지 1층","category":"일반휴게음식 - 일반한식"}]},{"lat":"37.247794957","long":"127.1903525","items":[{"name":"카페씨엘빈(Cafe Ciel Bean)","tel":"","addr":"경기도 용인시 처인구 역북동 215-8번지 1층","category":"일반휴게음식 - 서양음식"}]},{"lat":"37.238244294","long":"127.19018234","items":[{"name":"칼라컬드헤어","tel":"031-332-3239","addr":"경기도 용인시 처인구 역북동 415-5번지","category":"보건위생 - 미용원"}]},{"lat":"37.230663083","long":"127.18668164","items":[{"name":"커피사미공","tel":"031-9947-8417","addr":"경기도 용인시 처인구 역북동 575-1번지","category":"일반휴게음식 - 서양음식"}]},{"lat":"37.236221374","long":"127.19307354","items":[{"name":"커피상회","tel":"031-322-8072","addr":"경기도 용인시 처인구 역북동 441번지","category":"일반휴게음식 - 서양음식"}]},{"lat":"37.239271128","long":"127.19039901","items":[{"name":"커피이든","tel":"031-321-8767","addr":"경기도 용인시 처인구 역북동 377-12번지 1층 101호","category":"일반휴게음식 - 서양음식"}]},{"lat":"37.242970255","long":"127.19851149","items":[{"name":"코콤(Kocom)화성센터","tel":"031-323-0222","addr":"경기도 용인시 처인구 역북동 264-8번지 숲속마을 105동 102호","category":"수리서비스 - 가정용품수리"}]},{"lat":"37.23863129","long":"127.19046504","items":[{"name":"콤파스","tel":"031-000-0000","addr":"경기도 용인시 처인구 역북동 415-2번지","category":"일반휴게음식 - 서양음식"}]},{"lat":"37.239049988","long":"127.19346381","items":[{"name":"쿱아이사랑","tel":"031-0000-0000","addr":"경기도 용인시 처인구 역북동 434-86번지 1층 일부층","category":"음료식품 - 기타음료식품"}]},{"lat":"37.236605505","long":"127.19512552","items":[{"name":"크리스탈","tel":"031-336-2059","addr":"경기도 용인시 처인구 역북동 482-2번지","category":"보건위생 - 미용원"}]},{"lat":"37.239104376","long":"127.19326109","items":[{"name":"크린토피아용인고교점","tel":"031-335-7420","addr":"경기도 용인시 처인구 역북동 379-4번지","category":"수리서비스 - 세탁소"}]},{"lat":"37.237380622","long":"127.18934627","items":[{"name":"큰가마솥","tel":"031-321-9797","addr":"경기도 용인시 처인구 역북동 424-3번지","category":"일반휴게음식 - 일반한식"}]},{"lat":"37.23665911","long":"127.19540739","items":[{"name":"큰고을","tel":"031-321-9298","addr":"경기도 용인시 처인구 역북동 482-4번지 1층","category":"일반휴게음식 - 일반한식"}]},{"lat":"37.237025572","long":"127.18590823","items":[{"name":"큰솔법무사 유상욱사무소","tel":"031-336-4001","addr":"경기도 용인시 처인구 역북동 416-1번지 서룡빌라 102호","category":"용역 서비스 - 법률회계서비스(개인)"}]},{"lat":"37.238304267","long":"127.19213213","items":[{"name":"키즈스타일러","tel":"031-8001-8378","addr":"경기도 용인시 처인구 역북동 412-1번지","category":"학원 - 기타 교육기관"}]},{"lat":"37.249798272","long":"127.18843007","items":[{"name":"타티엔느","tel":"031-000-0000","addr":"경기도 용인시 처인구 역북동 64-5번지","category":"직물 - 옷감·직물"}]},{"lat":"37.243519558","long":"127.19318204","items":[{"name":"태산유통","tel":"031-333-2117","addr":"경기도 용인시 처인구 역북동 305-18 해피파크 401 1/8","category":"음료식품 - 기타음료식품"}]},{"lat":"37.23640832","long":"127.19448267","items":[{"name":"태성식품유통","tel":"031-111-1111","addr":"경기도 용인시 처인구 역북동 439-10번지","category":"회원제형태 - 기타4"}]},{"lat":"37.237859741","long":"127.19401302","items":[{"name":"태후사랑","tel":"031-333-0310","addr":"경기도 용인시 처인구 역북동 434-26번지 1층","category":"보건위생 - 미용원"}]},{"lat":"37.229609053","long":"127.1865664","items":[{"name":"톨레랑스","tel":"031-335-9753","addr":"경기도 용인시 처인구 역북동 767-2번지 101호","category":"일반휴게음식 - 서양음식"}]},{"lat":"37.239603937","long":"127.19076046","items":[{"name":"트롤롤로(Trololol)","tel":"","addr":"경기도 용인시 처인구 역북동 377-4번지 1층","category":"일반휴게음식 - 일반한식"}]},{"lat":"37.239991504","long":"127.19068254","items":[{"name":"팔칠닭강정","tel":"031-321-8792","addr":"경기도 용인시 처인구 역북동 442-1번지 1층","category":"일반휴게음식 - 일반한식"}]},{"lat":"37.239021667","long":"127.19426389","items":[{"name":"풍경있는카페휴~","tel":"031-324-9305","addr":"경기도 용인시 처인구 역북동 453-1번지","category":"일반휴게음식 - 서양음식"}]},{"lat":"37.230437913","long":"127.18662475","items":[{"name":"프롬에이치헤어 (From H hair)","tel":"031-323-1232","addr":"경기도 용인시 처인구 역북동 568-1번지 1층 101호","category":"보건위생 - 미용원"}]},{"lat":"37.238413594","long":"127.19137734","items":[{"name":"피&씨코리아","tel":"070-4502-6785","addr":"경기도 용인시 처인구 역북동 414-31번지 1층 102호","category":"문화.취미 - 애완동물"}]},{"lat":"37.236803609","long":"127.18957023","items":[{"name":"피에스타","tel":"031-335-4107","addr":"경기도 용인시 처인구 역북동 428-19번지","category":"일반휴게음식 - 서양음식"}]},{"lat":"37.229024012","long":"127.18615933","items":[{"name":"피오르다","tel":"031-337-0777","addr":"경기도 용인시 처인구 역북동 770-6번지 1층 101호","category":"문화.취미 - 화원"}]},{"lat":"37.230853581","long":"127.17379098","items":[{"name":"학마루","tel":"031-321-1201","addr":"경기도 용인시 처인구 역북동 551-9번지 1층","category":"일반휴게음식 - 일반한식"}]},{"lat":"37.23616391","long":"127.19518074","items":[{"name":"학생통학 마을버스","tel":"031-336-2868","addr":"경기도 용인시 처인구 역북동 483-12번지","category":"용역 서비스 - 종합용역"}]},{"lat":"37.238270718","long":"127.19056557","items":[{"name":"한국유통(명지대역점)","tel":"031-338-2188","addr":"경기도 용인시 처인구 역북동 414-6번지 1층","category":"유통업 영리 - 슈퍼마켓"}]},{"lat":"37.246298197","long":"127.19101376","items":[{"name":"한길우드","tel":"031-323-6444","addr":"경기도 용인시 처인구 역북동 217-4번지","category":"건축자재 - 기타건축자재"}]},{"lat":"37.235404875","long":"127.19091908","items":[{"name":"한자신문","tel":"031-323-3371","addr":"경기도 용인시 처인구 역북동 721-3번지 역북마을보성아파트","category":"서적문구 - 정기간행물"},{"name":"휴양림이야기","tel":"070-2699-0807","addr":"경기도 용인시 처인구 역북동 721-3번지 역북마을보성아파트","category":"의류 - 내의판매"}]},{"lat":"37.22716607","long":"127.18732669","items":[{"name":"항아리보쌈 용인점/주식회사 명지푸드","tel":"031-333-5379","addr":"경기도 용인시 처인구 역북동 605-1번지","category":"일반휴게음식 - 일반한식"}]},{"lat":"37.23596572","long":"127.1951577","items":[{"name":"해피앤헤어","tel":"031-335-3832","addr":"경기도 용인시 처인구 역북동 483-10번지 1층","category":"보건위생 - 미용원"},{"name":"행운세탁소","tel":"031-332-9735","addr":"경기도 용인시 처인구 역북동 483-10번지 1층 102호","category":"수리서비스 - 세탁소"}]},{"lat":"37.23758162","long":"127.19326854","items":[{"name":"행복열기건강가족상담센터","tel":"031-334-7325","addr":"경기도 용인시 처인구 역북동 413-19 일선빌딩 4층","category":"보건위생 - 기타대인서비스"}]},{"lat":"37.229716038","long":"127.1872991","items":[{"name":"헤어그리며","tel":"031-334-0241","addr":"경기도 용인시 처인구 역북동 765-4번지 1층","category":"보건위생 - 미용원"}]},{"lat":"37.229663673","long":"127.18620595","items":[{"name":"헤어베라","tel":"031-339-1197","addr":"경기도 용인시 처인구 역북동 767번지","category":"보건위생 - 미용원"}]},{"lat":"37.243054091","long":"127.19684371","items":[{"name":"헤어부띠끄","tel":"031-339-4234","addr":"경기도 용인시 처인구 역북동 781번지 120동 106호","category":"보건위생 - 미용원"}]},{"lat":"37.239213386","long":"127.19270915","items":[{"name":"호호캔들","tel":"031-0000-0000","addr":"경기도 용인시 처인구 역북동 379-6번지 301호","category":"문화.취미 - 문화취미기타"}]},{"lat":"37.23569545","long":"127.18949988","items":[{"name":"혼다시저스","tel":"","addr":"경기도 용인시 처인구 역북동 721-1번지 역북마을신성아파트","category":"보건위생 - 미용재료"}]},{"lat":"37.235772826","long":"127.19184407","items":[{"name":"홍복해물","tel":"031-336-4729","addr":"경기도 용인시 처인구 역북동 436-12번지","category":"일반휴게음식 - 일반한식"}]},{"lat":"37.245192305","long":"127.18951203","items":[{"name":"홍성식당","tel":"031-322-4276","addr":"경기도 용인시 처인구 역북동 197-7번지 1층","category":"일반휴게음식 - 일반한식"}]},{"lat":"37.226578799","long":"127.18835064","items":[{"name":"화사랑숯불갈비용인점","tel":"031-339-5999","addr":"경기도 용인시 처인구 역북동 593-30번지 지하1층~지상1층","category":"일반휴게음식 - 일반한식"}]},{"lat":"37.237136421","long":"127.18993167","items":[{"name":"화이트크리닝세탁전문점","tel":"031-335-0280","addr":"경기도 용인시 처인구 역북동 425-4번지","category":"수리서비스 - 세탁소"}]},{"lat":"37.23719278","long":"127.18262923","items":[{"name":"환희쇼파","tel":"031-322-7030","addr":"경기도 용인시 처인구 역북동 375-5번지","category":"가구 - 일반가구"}]},{"lat":"37.238491984","long":"127.19306797","items":[{"name":"황금꿀꿀이","tel":"031-321-0284","addr":"경기도 용인시 처인구 역북동 386-17번지 외1필지","category":"일반휴게음식 - 일반한식"}]},{"lat":"37.238718884","long":"127.192043","items":[{"name":"희나슈퍼","tel":"031-332-5186","addr":"경기도 용인시 처인구 역북동 386-1번지","category":"유통업 영리 - 슈퍼마켓"}]}]