[{"lat":"37.613556737","long":"126.83315096","imageIndex":0,"items":[{"name":"(주)미래종합운수","tel":"031-965-9669","addr":"경기도 고양시 덕양구 행신동 708-2번지","indutype":"자동차정비 유지 - 견인서비스","category":"car"},{"name":"미래종합운수","tel":"031-965-9669","addr":"경기도 고양시 덕양구 행신동 708-2번지","indutype":"자동차정비 유지 - 견인서비스","category":"car"}]},{"lat":"37.613748517","long":"126.83495136","imageIndex":0,"items":[{"name":"1급행신자동차정비검사소","tel":"031-973-7233","addr":"경기도 고양시 덕양구 행신동 763-1번지","indutype":"자동차정비 유지 - 자동차정비","category":"car"},{"name":"현대보링","tel":"031-974-3886","addr":"경기도 고양시 덕양구 행신동 763-1번지","indutype":"자동차정비 유지 - 자동차부품","category":"car"}]},{"lat":"37.614610873","long":"126.83314857","imageIndex":0,"items":[{"name":"S.D 컴퍼니","tel":"031-972-5221","addr":"경기도 고양시 덕양구 행신동 713-1번지","indutype":"자동차정비 유지 - 자동차부품","category":"car"}]},{"lat":"37.616998024","long":"126.83284865","imageIndex":0,"items":[{"name":"대성자동차정비공업사","tel":"031-970-8020","addr":"경기도 고양시 덕양구 행신동 726-3번지","indutype":"자동차정비 유지 - 자동차정비","category":"car"}]},{"lat":"37.613197915","long":"126.84067218","imageIndex":0,"items":[{"name":"리얼덴트","tel":"","addr":"경기도 고양시 덕양구 행신동 787번지 소만마을6단지아파트","indutype":"자동차정비 유지 - 카인테리어","category":"car"}]},{"lat":"37.622937421","long":"126.83422839","imageIndex":0,"items":[{"name":"바로주차프라자","tel":"031-6315-2240","addr":"경기도 고양시 덕양구 행신동 997번지","indutype":"자동차정비 유지 - 주차장","category":"car"}]},{"lat":"37.623414514","long":"126.8339328","imageIndex":0,"items":[{"name":"블레스타운주차장","tel":"","addr":"경기도 고양시 덕양구 행신동 999-2번지","indutype":"자동차정비 유지 - 주차장","category":"car"}]},{"lat":"37.623854835","long":"126.83312755","imageIndex":0,"items":[{"name":"샘터카센타","tel":"031-972-4199","addr":"경기도 고양시 덕양구 행신동 637-38번지","indutype":"자동차정비 유지 - 자동차정비","category":"car"}]},{"lat":"37.621660955","long":"126.83001756","imageIndex":0,"items":[{"name":"섬말타이어","tel":"031-970-2924","addr":"경기도 고양시 덕양구 행신동 633-67번지 윤창아파트","indutype":"자동차정비 유지 - 자동차시트·타이어","category":"car"}]},{"lat":"37.625111464","long":"126.83612654","imageIndex":0,"items":[{"name":"세차하는사람들","tel":"031-970-0223","addr":"경기도 고양시 덕양구 행신동 941번지","indutype":"자동차정비 유지 - 세차장","category":"car"},{"name":"오토오아시스롯데마트고양점","tel":"031-974-7466","addr":"경기도 고양시 덕양구 행신동 941번지","indutype":"자동차정비 유지 - 자동차시트·타이어","category":"car"}]},{"lat":"37.612945909","long":"126.83443217","imageIndex":0,"items":[{"name":"센트럴빌딩관리단","tel":"031-971-0130","addr":"경기도 고양시 덕양구 행신동 762-5번지","indutype":"자동차정비 유지 - 주차장","category":"car"}]},{"lat":"37.613162143","long":"126.83443169","imageIndex":0,"items":[{"name":"센트럴빌딩관리단대표","tel":"031-971-0130","addr":"경기도 고양시 덕양구 행신동","indutype":"자동차정비 유지 - 주차장","category":"car"}]},{"lat":"37.623634096","long":"126.83628842","imageIndex":0,"items":[{"name":"신일주차장","tel":"031-972-9625","addr":"경기도 고양시 덕양구 행신동","indutype":"자동차정비 유지 - 주차장","category":"car"}]},{"lat":"37.620916025","long":"126.84492572","imageIndex":0,"items":[{"name":"신행카센타","tel":"031-974-7658","addr":"경기도 고양시 덕양구 행신동 233-3번지","indutype":"자동차정비 유지 - 자동차정비","category":"car"}]},{"lat":"37.613582999","long":"126.83261858","imageIndex":0,"items":[{"name":"쌍용세차장","tel":"","addr":"경기도 고양시 덕양구 행신동 709번지","indutype":"자동차정비 유지 - 세차장","category":"car"},{"name":"쌍용자동차행신서비스프라자","tel":"031-979-5581","addr":"경기도 고양시 덕양구 행신동 709번지","indutype":"자동차정비 유지 - 자동차정비","category":"car"}]},{"lat":"37.620529381","long":"126.83888924","imageIndex":0,"items":[{"name":"애니이슬","tel":"","addr":"경기도 고양시 덕양구 행신동 983번지 샘터마을2단지아파트","indutype":"자동차정비 유지 - 자동차정비","category":"car"}]},{"lat":"37.617632637","long":"126.83559956","imageIndex":0,"items":[{"name":"애니카랜드 행신점","tel":"031-938-1898","addr":"경기도 고양시 덕양구 행신동 743-13번지","indutype":"자동차정비 유지 - 자동차정비","category":"car"}]},{"lat":"37.612997204","long":"126.83250666","imageIndex":0,"items":[{"name":"영카","tel":"031-970-2845","addr":"경기도 고양시 덕양구 행신동 706번지 행신동센스빌1차","indutype":"자동차정비 유지 - 자동차정비","category":"car"},{"name":"영카세차장","tel":"031-111-1111","addr":"경기도 고양시 덕양구 행신동 706번지 행신동센스빌1차","indutype":"자동차정비 유지 - 세차장","category":"car"}]},{"lat":"37.623162679","long":"126.83423921","imageIndex":0,"items":[{"name":"오토박스","tel":"031-970-6355","addr":"경기도 고양시 덕양구 행신동 998-2번지","indutype":"자동차정비 유지 - 자동차정비","category":"car"}]},{"lat":"37.624912256","long":"126.83542467","imageIndex":0,"items":[{"name":"오토카크리닉","tel":"031-979-8426","addr":"경기도 고양시 덕양구 행신동 942번지","indutype":"자동차정비 유지 - 자동차정비","category":"car"}]},{"lat":"37.61441266","long":"126.83314902","imageIndex":0,"items":[{"name":"용정카센타","tel":"031-966-0272","addr":"경기도 고양시 덕양구 행신동 713-2번지","indutype":"자동차정비 유지 - 자동차정비","category":"car"}]},{"lat":"37.615938168","long":"126.83515031","imageIndex":0,"items":[{"name":"장미카센타","tel":"031-972-5485","addr":"경기도 고양시 덕양구 행신동 753-13번지","indutype":"자동차정비 유지 - 자동차정비","category":"car"}]},{"lat":"37.615136545","long":"126.835322","imageIndex":0,"items":[{"name":"주식회사 새벽산업관리","tel":"070-4739-4254","addr":"경기도 고양시 덕양구 행신동 757-1번지","indutype":"자동차정비 유지 - 주차장","category":"car"}]},{"lat":"37.617998869","long":"126.84642701","imageIndex":0,"items":[{"name":"진선개발","tel":"031-970-5595","addr":"경기도 고양시 덕양구 행신동 1083-2번지","indutype":"자동차정비 유지 - 주차장","category":"car"},{"name":"진선개발","tel":"031-970-5595","addr":"경기도 고양시 덕양구 행신동 1083-2번지","indutype":"자동차정비 유지 - 주차장","category":"car"}]},{"lat":"37.62016893","long":"126.84545967","imageIndex":0,"items":[{"name":"차 깔끔이","tel":"","addr":"경기도 고양시 덕양구 행신동 1074번지 서정마을1단지아파트","indutype":"자동차정비 유지 - 세차장","category":"car"}]},{"lat":"37.615040637","long":"126.83127877","imageIndex":0,"items":[{"name":"차가유","tel":"070-4137-8569","addr":"경기도 고양시 덕양구 행신동 700번지 무원마을8단지아파트","indutype":"자동차정비 유지 - 자동차부품","category":"car"}]},{"lat":"37.624792854","long":"126.84023919","imageIndex":0,"items":[{"name":"출장 세차","tel":"","addr":"경기도 고양시 덕양구 행신동 934번지 햇빛마을20단지아파트","indutype":"자동차정비 유지 - 세차장","category":"car"}]},{"lat":"37.618326337","long":"126.83556403","imageIndex":0,"items":[{"name":"캡틴카공업사","tel":"031-978-9448","addr":"경기도 고양시 덕양구 행신동 743-1번지","indutype":"자동차정비 유지 - 자동차정비","category":"car"}]},{"lat":"37.613001226","long":"126.83531547","imageIndex":0,"items":[{"name":"킴스기어","tel":"031-971-8295","addr":"경기도 고양시 덕양구 행신동 766-1번지","indutype":"자동차정비 유지 - 자동차부품","category":"car"}]},{"lat":"37.618270586","long":"126.82817916","imageIndex":0,"items":[{"name":"타이어마트","tel":"031-978-5678","addr":"경기도 고양시 덕양구 행신동 653-47번지","indutype":"자동차정비 유지 - 자동차시트·타이어","category":"car"}]},{"lat":"37.613941913","long":"126.83159842","imageIndex":0,"items":[{"name":"튜닝파크","tel":"031-777-7772","addr":"경기도 고양시 덕양구 행신동 702번지 무원마을6단지아파트","indutype":"자동차정비 유지 - 자동차부품","category":"car"}]},{"lat":"37.61241377","long":"126.83403697","imageIndex":0,"items":[{"name":"행신역주차장","tel":"031-978-5643","addr":"경기도 고양시 덕양구 행신동 812번지","indutype":"자동차정비 유지 - 주차장","category":"car"}]},{"lat":"37.619218494","long":"126.82945688","imageIndex":0,"items":[{"name":"행신일성자동차용품점","tel":"031-979-8210","addr":"경기도 고양시 덕양구 행신동 650-7번지","indutype":"자동차정비 유지 - 자동차부품","category":"car"}]},{"lat":"37.61724522","long":"126.83560043","imageIndex":0,"items":[{"name":"행신현대카센타","tel":"031-978-0119","addr":"경기도 고양시 덕양구 행신동 746-11번지","indutype":"자동차정비 유지 - 자동차정비","category":"car"}]},{"lat":"37.619969291","long":"126.84439536","imageIndex":0,"items":[{"name":"현대손세차","tel":"","addr":"경기도 고양시 덕양구 행신동 174-11번지","indutype":"자동차정비 유지 - 세차장","category":"car"}]},{"lat":"37.623715696","long":"126.84317536","imageIndex":0,"items":[{"name":"현대카서비스","tel":"031-938-0575","addr":"경기도 고양시 덕양구 행신동 920-13번지","indutype":"자동차정비 유지 - 자동차정비","category":"car"}]},{"lat":"37.617610798","long":"126.83292654","imageIndex":0,"items":[{"name":"효성물산","tel":"031-970-0028","addr":"경기도 고양시 덕양구 행신동 733-16번지","indutype":"자동차정비 유지 - 자동차시트·타이어","category":"car"}]}]