[{"lat":"38.121556037","long":"127.2706246","items":[{"name":"근홍교추어정","tel":"031-534-8585","addr":"경기도 포천시 영북면 자일리 1027-5번지","category":"일반휴게음식 - 일반한식"},{"name":"미성기획","tel":"031-536-6295","addr":"경기도 포천시 영북면 자일리 1027-5번지","category":"전기제품 - 기타전기제품"}]},{"lat":"38.115391486","long":"127.27945082","items":[{"name":"농업회사법인 초록농원 주식회사","tel":"","addr":"경기도 포천시 영북면 자일리 682-2번지","category":"음료식품 - 농·축·수산품"}]},{"lat":"38.112303114","long":"127.29000932","items":[{"name":"농업회사법인주식회사백운","tel":"","addr":"경기도 포천시 영북면 자일리 382-3번지","category":"농업 - 농기계"}]},{"lat":"38.105502267","long":"127.28214989","items":[{"name":"북일자동차공업사","tel":"031-536-5544","addr":"경기도 포천시 영북면 자일리 529-7번지","category":"자동차정비 유지 - 자동차정비"}]},{"lat":"38.122635786","long":"127.27512177","items":[{"name":"선창농원","tel":"031-536-2721","addr":"경기도 포천시 영북면 자일리 1022-5번지","category":"음료식품 - 농·축·수산품"}]},{"lat":"38.106163919","long":"127.27662265","items":[{"name":"수호씽크","tel":"031-534-9552","addr":"경기도 포천시 영북면 자일리 804-42번지","category":"주방용구 - 주방용구"}]},{"lat":"38.100172648","long":"127.28059052","items":[{"name":"씨유포천자일점","tel":"031-3173-1840","addr":"경기도 포천시 영북면 자일리 483-21번지","category":"유통업 영리 - 편 의 점"},{"name":"자일리막국수","tel":"031-531-5630","addr":"경기도 포천시 영북면 자일리 483-21번지","category":"일반휴게음식 - 일반한식"}]},{"lat":"38.100112059","long":"127.27954144","items":[{"name":"연신네 냉면","tel":"031-111-1111","addr":"경기도 포천시 영북면 자일리 860-7번지","category":"일반휴게음식 - 일반한식"}]},{"lat":"38.118779494","long":"127.27917851","items":[{"name":"오프밸리","tel":"031-966-8957","addr":"경기도 포천시 영북면 자일리 1002-3번지","category":"자동차판매 - 이륜차판매"}]},{"lat":"38.105415766","long":"127.30961565","items":[{"name":"자일랜드","tel":"070-7760-0393","addr":"경기도 포천시 영북면 자일리 7-1번지","category":"서비스 - 캠핑"}]},{"lat":"38.105749808","long":"127.30934341","items":[{"name":"자일랜드","tel":"070-7760-0390","addr":"경기도 포천시 영북면 자일리 7","category":"음료식품 - 기타음료식품"}]},{"lat":"38.113002622","long":"127.29131195","items":[{"name":"타이룽르앙","tel":"031-536-5681","addr":"경기도 포천시 영북면 자일리 400-2번지","category":"유통업 영리 - 슈퍼마켓"}]},{"lat":"38.111557269","long":"127.28923103","items":[{"name":"태국슈퍼","tel":"031-535-0825","addr":"경기도 포천시 영북면 자일리 379-3번지","category":"유통업 영리 - 슈퍼마켓"}]},{"lat":"38.105221608","long":"127.2827303","items":[{"name":"통일자동차공업사","tel":"031-536-5815","addr":"경기도 포천시 영북면 자일리 529-5번지 11","category":"자동차정비 유지 - 자동차정비"}]},{"lat":"38.119169178","long":"127.27039922","items":[{"name":"한탄강이야기 협동조합","tel":"02-000-0000","addr":"경기도 포천시 영북면 자일리 959-33번지 1층 103호","category":"용역 서비스 - 종합용역"},{"name":"한탄강이야기협동조합","tel":"","addr":"경기도 포천시 영북면 자일리 959-33번지 1층 103호","category":"서비스임대업 - 행사대행장비임대"},{"name":"화적연1","tel":"031-536-8599","addr":"경기도 포천시 영북면 자일리 959-33번지 가동","category":"숙박업 - 여관/기타숙박업"}]}]