[{"lat":"37.300549587","long":"127.62683709","items":[{"name":"(YH)모터스","tel":"031-000-0000","addr":"경기도 여주시 하동 129-1번지","category":"자동차정비 유지 - 자동차부품"}]},{"lat":"37.296408363","long":"127.63299454","items":[{"name":"(신)조선비료농약사","tel":"031-882-4631","addr":"경기도 여주시 하동 290-2번지","category":"농업 - 비료,사료,종자"},{"name":"(주)태양동물약품","tel":"031-884-8640","addr":"경기도 여주시 하동 290-2번지","category":"기타의료기관 - 동물병원"},{"name":"대동종합농기계","tel":"031-884-2870","addr":"경기도 여주시 하동 290-2번지","category":"농업 - 농기계"},{"name":"보물창고","tel":"031-884-3415","addr":"경기도 여주시 하동 290-2번지 1층","category":"의류 - 기타의류"},{"name":"좋은사람들","tel":"070-4103-3173","addr":"경기도 여주시 하동 290-2번지","category":"일반휴게음식 - 서양음식"}]},{"lat":"37.298490984","long":"127.63275251","items":[{"name":"(주) 청심","tel":"031-886-9111","addr":"경기도 여주시 하동 190-3번지","category":"용역 서비스 - 종합용역"},{"name":"남양유업여주가정대리점","tel":"031-884-3103","addr":"경기도 여주시 하동 190-3번지","category":"음료식품 - 기타음료식품"},{"name":"대신물류","tel":"031-886-6000","addr":"경기도 여주시 하동 190-3번지","category":"용역 서비스 - 종합용역"},{"name":"서울우유여주가정대리점","tel":"031-884-3103","addr":"경기도 여주시 하동 190-3번지","category":"음료식품 - 기타음료식품"}]},{"lat":"37.296686749","long":"127.63147432","items":[{"name":"(주)나은이엔지","tel":"031-885-7647","addr":"경기도 여주시 하동 310-1번지","category":"용역 서비스 - 종합용역"}]},{"lat":"37.298768964","long":"127.63300295","items":[{"name":"(주)실버메디칼플러스","tel":"031-1688-7367","addr":"경기도 여주시 하동 196-8번지 ,1-2층","category":"보건위생 - 의료용품"},{"name":"네일은","tel":"","addr":"경기도 여주시 하동 196-8번지 1동 201호","category":"보건위생 - 피부미용실"}]},{"lat":"37.300663465","long":"127.62402963","items":[{"name":"(주)중앙전기","tel":"031-883-3009","addr":"경기도 여주시 하동 416-12번지 1층","category":"용역 서비스 - 기타용역서비스"},{"name":"행복한밥상","tel":"031-881-3777","addr":"경기도 여주시 하동 416-12번지 1층 101호","category":"일반휴게음식 - 일반한식"}]},{"lat":"37.300110498","long":"127.62466796","items":[{"name":"(주)탑건축사사무소","tel":"031-881-4380","addr":"경기도 여주시 하동 420-8번지","category":"용역 서비스 - 사무서비스"}]},{"lat":"37.299047285","long":"127.62638482","items":[{"name":"BlueBlke (블루바이크)","tel":"031-886-5420","addr":"경기도 여주시 하동 76-1번지","category":"레져용품 - 스포츠·레져용품"}]},{"lat":"37.301213569","long":"127.6273614","items":[{"name":"Cafe' 숲","tel":"070-4111-8806","addr":"경기도 여주시 하동 120-7번지","category":"일반휴게음식 - 서양음식"}]},{"lat":"37.301607924","long":"127.62261626","items":[{"name":"CafeHary(카페하리)","tel":"031-111-1111","addr":"경기도 여주시 하동 431번지 1층","category":"일반휴게음식 - 서양음식"}]},{"lat":"37.30052281","long":"127.62507739","items":[{"name":"GS25여주하동점","tel":"","addr":"경기도 여주시 하동 420-2번지","category":"유통업 영리 - 편 의 점"},{"name":"GS25여주하동점","tel":"","addr":"경기도 여주시 하동 420-2번지","category":"유통업 영리 - 상품권전문판매"},{"name":"전설의 스테이크 갈비","tel":"031-882-3592","addr":"경기도 여주시 하동 420-2번지 1층","category":"일반휴게음식 - 일반한식"}]},{"lat":"37.297241098","long":"127.63397141","items":[{"name":"JCB.애플핑크.폴앤폴리","tel":"031-885-5389","addr":"경기도 여주시 하동 271-2번지","category":"레져용품 - 스포츠·레져용품"},{"name":"미래가보이는곳 사주카페","tel":"031-885-6781","addr":"경기도 여주시 하동 271-2번지","category":"일반휴게음식 - 스넥"},{"name":"오렌지돈가스 하우스","tel":"031-886-1744","addr":"경기도 여주시 하동 271-2번지","category":"일반휴게음식 - 서양음식"},{"name":"홍창희사진관","tel":"031-000-0000","addr":"경기도 여주시 하동 271-2번지","category":"광학제품 - 사진관"}]},{"lat":"37.297693506","long":"127.63361429","items":[{"name":"JS통신","tel":"031-881-6999","addr":"경기도 여주시 하동 259-1번지 1층","category":"사무통신 - 통신기기"},{"name":"빠담노래연습장","tel":"031-883-4500","addr":"경기도 여주시 하동 259-1번지","category":"레저업소 - 노 래 방"},{"name":"유신당","tel":"031-883-0022","addr":"경기도 여주시 하동 259-1번지","category":"신변잡화 - 귀금속"}]},{"lat":"37.300747087","long":"127.62697406","items":[{"name":"J진헤어","tel":"031-883-9400","addr":"경기도 여주시 하동 120-14번지","category":"보건위생 - 미용원"}]},{"lat":"37.298046554","long":"127.63499319","items":[{"name":"K 영어학원","tel":"031-8051-1836","addr":"경기도 여주시 하동 224-12번지 2층","category":"학원 - 보습학원"},{"name":"안면도 대구뽈찜","tel":"031-763-1388","addr":"경기도 여주시 하동 224-12번지","category":"일반휴게음식 - 일반한식"},{"name":"알곡학원","tel":"031-884-0330","addr":"경기도 여주시 하동 224-12번지","category":"학원 - 보습학원"},{"name":"정윤교MathMaster","tel":"031-884-1536","addr":"경기도 여주시 하동 224-12번지","category":"회원제형태 - 학원"}]},{"lat":"37.300802125","long":"127.62163968","items":[{"name":"KS부속자재총판","tel":"031-883-9123","addr":"경기도 여주시 하동 429-6번지","category":"건축자재 - 보일러·펌프·샷시"}]},{"lat":"37.300108608","long":"127.62844629","items":[{"name":"OK금고열쇠","tel":"031-886-1312","addr":"경기도 여주시 하동 128-19번지","category":"기타 - 기계공구"}]},{"lat":"37.299860517","long":"127.63275265","items":[{"name":"PLAT(플랫)","tel":"031-1111-1111","addr":"경기도 여주시 하동 199-6번지 2층","category":"일반휴게음식 - 서양음식"},{"name":"커피공간,","tel":"","addr":"경기도 여주시 하동 199-6번지","category":"일반휴게음식 - 서양음식"}]},{"lat":"37.300637178","long":"127.62216843","items":[{"name":"RCPLAS(알씨플라스)","tel":"031-885-3835","addr":"경기도 여주시 하동 429-9번지 중간사무실 1층","category":"서적문구 - 완구점"},{"name":"청해바지락칼국수","tel":"031-885-2398","addr":"경기도 여주시 하동 429-9번지","category":"일반휴게음식 - 일반한식"}]},{"lat":"37.299523034","long":"127.63013322","items":[{"name":"SM렌탈","tel":"031-881-3693","addr":"경기도 여주시 하동 124번지 1층","category":"신변잡화 - 기타잡화"},{"name":"국제라이온스협회354-B지구세종라이온스클","tel":"","addr":"경기도 여주시 하동 124번지","category":"기타 - 비영리/비대상"},{"name":"늘푸른당구클럽","tel":"031-885-2278","addr":"경기도 여주시 하동 124번지","category":"레저업소 - 당 구 장"},{"name":"에스엠화장품","tel":"031-881-3693","addr":"경기도 여주시 하동 124번지 1층 여주시산림조합","category":"보건위생 - 화장품"}]},{"lat":"37.297078202","long":"127.63410539","items":[{"name":"T.O.P독서실","tel":"031-883-7923","addr":"경기도 여주시 하동 272번지","category":"학원 - 독서실"},{"name":"경락한의원","tel":"031-881-0877","addr":"경기도 여주시 하동 272번지 1층 1호","category":"의원 - 한의원"},{"name":"미래탑클라스학원","tel":"031-884-3073","addr":"경기도 여주시 하동 272번지","category":"학원 - 보습학원"},{"name":"쏘엔옷가게","tel":"031-883-2717","addr":"경기도 여주시 하동 272번지","category":"의류 - 스포츠의류"}]},{"lat":"37.295130825","long":"127.63094259","items":[{"name":"TNT모터스","tel":"031-881-6616","addr":"경기도 여주시 하동 409-1번지","category":"자동차정비 유지 - 자동차정비"},{"name":"신여주셀프세차장","tel":"031-1111-1111","addr":"경기도 여주시 하동 409-1번지","category":"자동차정비 유지 - 세차장"},{"name":"하동본가","tel":"031-885-8226","addr":"경기도 여주시 하동 409-1번지 3동 102호","category":"사무통신 - 통신기기"}]},{"lat":"37.296777581","long":"127.63303146","items":[{"name":"oic오아이씨","tel":"031-886-0862","addr":"경기도 여주시 하동 291-3번지","category":"의류 - 정장"},{"name":"아름나라","tel":"031-882-0414","addr":"경기도 여주시 하동 291-3번지","category":"의류 - 정장"},{"name":"히앤미","tel":"","addr":"경기도 여주시 하동 291-3번지","category":"의류 - 정장"}]},{"lat":"37.296277058","long":"127.63227165","items":[{"name":"가고파노래방","tel":"031-886-0801","addr":"경기도 여주시 하동 306-2번지","category":"레저업소 - 노 래 방"},{"name":"고기가땡기는집","tel":"031-885-1511","addr":"경기도 여주시 하동 306-2번지","category":"일반휴게음식 - 일반한식"},{"name":"달호프","tel":"031-882-8060","addr":"경기도 여주시 하동 306-2번지","category":"일반휴게음식 - 주점"}]},{"lat":"37.2985200879","long":"127.6306662519","items":[{"name":"가남정육점","tel":"031-884-2437","addr":"경기도 여주시 하동 125-24번지","category":"음료식품 - 정육점"}]},{"lat":"37.298520088","long":"127.63066625","items":[{"name":"가남정육점식당","tel":"031-885-3880","addr":"경기도 여주시 하동 125-24번지","category":"일반휴게음식 - 일반한식"},{"name":"새로운 노래방","tel":"031-885-7454","addr":"경기도 여주시 하동 125-24번지","category":"레저업소 - 노 래 방"},{"name":"촌닭이 두마리","tel":"031-886-5211","addr":"경기도 여주시 하동 125-24번지","category":"일반휴게음식 - 스넥"}]},{"lat":"37.297797701","long":"127.62755872","items":[{"name":"가루영웅베이커리 여주점","tel":"","addr":"경기도 여주시 하동 366-2번지","category":"음료식품 - 제과점"}]},{"lat":"37.297742873","long":"127.6344944","items":[{"name":"강남수학교습소","tel":"","addr":"경기도 여주시 하동 231-3번지","category":"학원 - 보습학원"}]},{"lat":"37.300164574","long":"127.62808583","items":[{"name":"강남전기철물","tel":"031-883-1259","addr":"경기도 여주시 하동 128번지","category":"전기제품 - 기타전기제품"},{"name":"여주CCTV","tel":"031-886-1230","addr":"경기도 여주시 하동 128번지","category":"광학제품 - 기타광학제품"},{"name":"좋은시절","tel":"031-885-2550","addr":"경기도 여주시 하동 128번지","category":"일반휴게음식 - 일반한식"},{"name":"티엔엠(T&M)광고","tel":"031-882-1965","addr":"경기도 여주시 하동 128번지","category":"건축자재 - 인테리어전문"},{"name":"프로종합설비","tel":"031-884-0219","addr":"경기도 여주시 하동 128번지 103호","category":"용역 서비스 - 기타용역서비스"}]},{"lat":"37.296193571","long":"127.63272208","items":[{"name":"강원식당","tel":"031-885-4122","addr":"경기도 여주시 하동 297-1번지","category":"일반휴게음식 - 일반한식"},{"name":"동양공구철물","tel":"031-885-5556","addr":"경기도 여주시 하동 297-1번지","category":"건축자재 - 목재·석재·철물"}]},{"lat":"37.299047631","long":"127.62288849","items":[{"name":"강원정육점","tel":"031-884-4122","addr":"경기도 여주시 하동 297-1번지","category":"음료식품 - 정육점"}]},{"lat":"37.297554049","long":"127.62592136","items":[{"name":"강원정육점한우전문식당","tel":"031-883-6956","addr":"경기도 여주시 하동 107-3번지","category":"일반휴게음식 - 일반한식"},{"name":"비트로 여주점","tel":"031-886-0450","addr":"경기도 여주시 하동 107-3번지","category":"레져용품 - 스포츠·레져용품"},{"name":"한국인뼈해장국감자탕","tel":"031-885-8859","addr":"경기도 여주시 하동 107-3번지","category":"일반휴게음식 - 일반한식"}]},{"lat":"37.296829597","long":"127.63341535","items":[{"name":"강화루","tel":"031-886-5545","addr":"경기도 여주시 하동 280번지","category":"일반휴게음식 - 중국식"},{"name":"프러포즈네일아트","tel":"031-886-5002","addr":"경기도 여주시 하동 280번지 행복예식장내","category":"보건위생 - 피부미용실"}]},{"lat":"37.300608431","long":"127.62763836","items":[{"name":"거산광고","tel":"031-886-5253","addr":"경기도 여주시 하동 122-3번지","category":"용역 서비스 - 종합용역"},{"name":"조은지헤어샵","tel":"031-885-7472","addr":"경기도 여주시 하동 122-3번지","category":"보건위생 - 미용원"},{"name":"힐스템찜질테라피","tel":"031-884-9879","addr":"경기도 여주시 하동 122-3번지 1동","category":"보건위생 - 의료용품"}]},{"lat":"37.29691319","long":"127.63125064","items":[{"name":"거성씽크,가구인테리어","tel":"031-883-1568","addr":"경기도 여주시 하동 312-8번지","category":"건축자재 - 인테리어전문"}]},{"lat":"37.299742195","long":"127.62958239","items":[{"name":"건강약국","tel":"031-886-3545","addr":"경기도 여주시 하동 127-13번지","category":"약국 - 약국"},{"name":"문헤어샵","tel":"031-886-0670","addr":"경기도 여주시 하동 127-13번지","category":"보건위생 - 미용원"},{"name":"여주리빙텔","tel":"031-885-6100","addr":"경기도 여주시 하동 127-13번지","category":"학원 - 독서실"},{"name":"현대꽃화원","tel":"031-881-0190","addr":"경기도 여주시 하동 127-13번지","category":"문화.취미 - 화원"},{"name":"후다닭","tel":"031-883-3761","addr":"경기도 여주시 하동 127-13번지 1층 104호","category":"일반휴게음식 - 스넥"}]},{"lat":"37.298163499","long":"127.635028","items":[{"name":"건강한 미래교육센터","tel":"031-885-0333","addr":"경기도 여주시 하동 224-11번지 2층","category":"학원 - 기타 교육기관"},{"name":"샘(SAM)수학학원","tel":"03-111-1111","addr":"경기도 여주시 하동 224-11번지","category":"학원 - 보습학원"},{"name":"신농씨한의원","tel":"031-886-7500","addr":"경기도 여주시 하동 224-11번지 1층","category":"의원 - 한의원"}]},{"lat":"37.2980212822","long":"127.6295793885","items":[{"name":"건국우유여주보급소","tel":"031-884-9025","addr":"경기도 여주시 하동 136-8번지","category":"음료식품 - 기타음료식품"}]},{"lat":"37.298963986","long":"127.63191057","items":[{"name":"건우스포츠","tel":"031-885-4200","addr":"경기도 여주시 하동 187-6번지 102호","category":"의류 - 스포츠의류"},{"name":"댕기머리방","tel":"031-884-8645","addr":"경기도 여주시 하동 187-6번지","category":"보건위생 - 미용원"},{"name":"스타일샵","tel":"031-885-5396","addr":"경기도 여주시 하동 187-6번지","category":"의류 - 정장"},{"name":"홍해바다 참숯불 돼지갈비","tel":"031-882-6011","addr":"경기도 여주시 하동 187-6번지","category":"일반휴게음식 - 일반한식"}]},{"lat":"37.288496462","long":"127.63318793","items":[{"name":"경기공구","tel":"031-881-0985","addr":"경기도 여주시 하동 369-1번지","category":"건축자재 - 목재·석재·철물"}]},{"lat":"37.29972071","long":"127.6251159","items":[{"name":"경기공조덕트","tel":"031-885-1359","addr":"경기도 여주시 하동 419-12번지","category":"건축자재 - 보일러·펌프·샷시"}]},{"lat":"37.298858882","long":"127.62793969","items":[{"name":"경기보습학원","tel":"031-884-9530","addr":"경기도 여주시 하동 132-22번지","category":"학원 - 기타 교육기관"}]},{"lat":"37.29688234","long":"127.62686319","items":[{"name":"경기종합상사","tel":"031-886-1399","addr":"경기도 여주시 하동 369-1번지","category":"기타 - 기계공구"},{"name":"세종자동차용품샵","tel":"031-883-5130","addr":"경기도 여주시 하동 369-1번지","category":"자동차정비 유지 - 자동차부품"},{"name":"여주중앙자동차매매상사","tel":"031-886-4242","addr":"경기도 여주시 하동 369-1번지","category":"자동차판매 - 중고자동차판매"},{"name":"커피일잔?","tel":"031-885-0334","addr":"경기도 여주시 하동 369-1번지","category":"일반휴게음식 - 서양음식"}]},{"lat":"37.297022638","long":"127.62930043","items":[{"name":"경기종합상사","tel":"031-885-8842","addr":"경기도 여주시 하동 400-7번지","category":"건축자재 - 기타건축자재"}]},{"lat":"37.2985499681","long":"127.6267190630","items":[{"name":"경기지물장식","tel":"031-882-1546","addr":"경기도 여주시 하동 80-1","category":"직물 - 카페트,커튼,천막,지물"}]},{"lat":"37.297605044","long":"127.62991428","items":[{"name":"경희한의원","tel":"031-884-4193","addr":"경기도 여주시 하동 137-9번지","category":"의원 - 한의원"}]},{"lat":"37.296075545","long":"127.63289026","items":[{"name":"계동치킨(여주점)","tel":"031-885-5592","addr":"경기도 여주시 하동 300-2번지","category":"일반휴게음식 - 주점"},{"name":"류수인미용실","tel":"031-882-4781","addr":"경기도 여주시 하동 300-2번지","category":"보건위생 - 미용원"},{"name":"연희김밥여주점","tel":"031-883-7789","addr":"경기도 여주시 하동 300-2번지","category":"일반휴게음식 - 스넥"},{"name":"해피DVD비디오","tel":"031-885-0981","addr":"경기도 여주시 하동 300-2번지","category":"레져용품 - 음반/영상물"},{"name":"행복통신","tel":"031-882-5533","addr":"경기도 여주시 하동 300-2번지 1층","category":"사무통신 - 통신기기"},{"name":"현대앵글","tel":"031-883-8040","addr":"경기도 여주시 하동 300-2번지","category":"건축자재 - 기타건축자재"}]},{"lat":"37.298830279","long":"127.63163878","items":[{"name":"계명설렁탕","tel":"031-886-4745","addr":"경기도 여주시 하동 180-1번지","category":"일반휴게음식 - 일반한식"},{"name":"대신집","tel":"031-885-3344","addr":"경기도 여주시 하동 180-1번지","category":"일반휴게음식 - 일반한식"},{"name":"맛나분식","tel":"","addr":"경기도 여주시 하동 180-1번지","category":"일반휴게음식 - 일반한식"},{"name":"미정한식","tel":"031-881-0209","addr":"경기도 여주시 하동 180-1번지","category":"일반휴게음식 - 일반한식"},{"name":"뿌리식당","tel":"031-885-6205","addr":"경기도 여주시 하동 180-1번지","category":"일반휴게음식 - 일반한식"},{"name":"사루비아","tel":"031-884-7051","addr":"경기도 여주시 하동 180-1번지","category":"일반휴게음식 - 주점"},{"name":"성민식당","tel":"031-884-5728","addr":"경기도 여주시 하동 180-1번지","category":"일반휴게음식 - 일반한식"},{"name":"속초젓갈,손만두","tel":"031-885-8860","addr":"경기도 여주시 하동 180-1번지 A동 1층 나78호","category":"음료식품 - 기타음료식품"},{"name":"여주농산","tel":"031-883-6642","addr":"경기도 여주시 하동 180-1번지 하리시장 68호","category":"음료식품 - 농·축·수산품"},{"name":"여주약초","tel":"031-885-8337","addr":"경기도 여주시 하동 180-1번지","category":"약국 - 한약방"},{"name":"이서방양념치킨","tel":"031-883-9233","addr":"경기도 여주시 하동 180-1번지","category":"일반휴게음식 - 스넥"},{"name":"큰나무농원","tel":"031-886-5558","addr":"경기도 여주시 하동 180-1번지 하리시장 나동 1층","category":"일반휴게음식 - 일반한식"},{"name":"희승식당","tel":"031-885-2357","addr":"경기도 여주시 하동 180-1번지","category":"일반휴게음식 - 일반한식"},{"name":"희승식당","tel":"031-885-3359","addr":"경기도 여주시 하동 180-1번지","category":"일반휴게음식 - 일반한식"}]},{"lat":"37.299379645","long":"127.62486496","items":[{"name":"고감도디자인","tel":"031-885-8868","addr":"경기도 여주시 하동 424-3번지 1층","category":"용역 서비스 - 종합용역"},{"name":"광고스파","tel":"031-885-7183","addr":"경기도 여주시 하동 424-3번지 2층동 2층","category":"서적문구 - 출판 및 인쇄물"},{"name":"주식회사 리드","tel":"031-885-8868","addr":"경기도 여주시 하동 424-3번지","category":"용역 서비스 - 종합용역"}]},{"lat":"37.300636175","long":"127.62750324","items":[{"name":"고려휴게실매점","tel":"031-885-2241","addr":"경기도 여주시 하동 122-2번지 하리2지구","category":"음료식품 - 기타음료식품"},{"name":"이공일이컴퓨존","tel":"070-4135-2012","addr":"경기도 여주시 하동 122-2번지","category":"사무통신 - 컴퓨터"},{"name":"태양미용실","tel":"031-885-2955","addr":"경기도 여주시 하동 122-2번지","category":"보건위생 - 미용원"}]},{"lat":"37.298386111","long":"127.63383436","items":[{"name":"고명갈비","tel":"031-883-9922","addr":"경기도 여주시 하동 215-4번지","category":"일반휴게음식 - 일반한식"}]},{"lat":"37.298609886","long":"127.63072339","items":[{"name":"고향떡집","tel":"031-886-6379","addr":"경기도 여주시 하동 125-23번지","category":"음료식품 - 제과점"},{"name":"두부나라","tel":"031-886-6379","addr":"경기도 여주시 하동 125-23번지","category":"음료식품 - 기타음료식품"}]},{"lat":"37.29826985","long":"127.63028071","items":[{"name":"고향주부 행복모음카페","tel":"031-883-3086","addr":"경기도 여주시 하동 135-2번지","category":"일반휴게음식 - 서양음식"},{"name":"하리신발","tel":"031-885-4211","addr":"경기도 여주시 하동 135-2번지","category":"신변잡화 - 신발"}]},{"lat":"37.298331209","long":"127.63230004","items":[{"name":"골드노래연습장","tel":"031-885-4061","addr":"경기도 여주시 하동 189-11번지","category":"레저업소 - 노 래 방"}]},{"lat":"37.297078476","long":"127.63066555","items":[{"name":"공구축산나라","tel":"031-885-0944","addr":"경기도 여주시 하동 311-7번지","category":"기타 - 기계공구"}]},{"lat":"37.29916259","long":"127.62843845","items":[{"name":"광고생각","tel":"031-885-5754","addr":"경기도 여주시 하동 126-5번지","category":"용역 서비스 - 종합용역"},{"name":"두영기계공구","tel":"031-885-0425","addr":"경기도 여주시 하동 126-5번지","category":"농업 - 농기계"},{"name":"알라딘노래연습장","tel":"031-886-2673","addr":"경기도 여주시 하동 126-5번지 지하1층","category":"레저업소 - 노 래 방"},{"name":"황비 미용실","tel":"031-883-2146","addr":"경기도 여주시 하동 126-5번지","category":"보건위생 - 미용원"}]},{"lat":"37.296276158","long":"127.63244081","items":[{"name":"교육종합문구","tel":"031-885-5620","addr":"경기도 여주시 하동 306-6번지","category":"서적문구 - 문구용품"}]},{"lat":"37.295602769","long":"127.63199536","items":[{"name":"교촌치킨(여주1호점)","tel":"031-885-1655","addr":"경기도 여주시 하동 405-4번지","category":"일반휴게음식 - 스넥"}]},{"lat":"37.299328252","long":"127.624357","items":[{"name":"국민조명전기","tel":"031-886-6748","addr":"경기도 여주시 하동 424-10번지","category":"전기제품 - 기타전기제품"}]},{"lat":"37.299054922","long":"127.63175343","items":[{"name":"권근주 옷이야기","tel":"031-111-1111","addr":"경기도 여주시 하동 186-6번지","category":"의류 - 정장"}]},{"lat":"37.299024642","long":"127.6289674","items":[{"name":"그L사랑헤어","tel":"031-886-5214","addr":"경기도 여주시 하동 126-13번지","category":"보건위생 - 미용원"},{"name":"이층분식Cafe","tel":"031-882-5214","addr":"경기도 여주시 하동 126-13번지 2층","category":"일반휴게음식 - 일반한식"}]},{"lat":"37.296499641","long":"127.63107803","items":[{"name":"근해동태찜","tel":"031-886-1371","addr":"경기도 여주시 하동 402-6번지","category":"일반휴게음식 - 일반한식"},{"name":"웰빙","tel":"070-8129-9688","addr":"경기도 여주시 하동 402-6번지","category":"보건위생 - 화장품"}]},{"lat":"37.299192164","long":"127.63135983","items":[{"name":"금잔디","tel":"031-886-2344","addr":"경기도 여주시 하동 186-14번지","category":"일반휴게음식 - 일반한식"},{"name":"여주한우마을","tel":"031-885-2006","addr":"경기도 여주시 하동 186-14번지 1층","category":"일반휴게음식 - 일반한식"},{"name":"여주한우마을","tel":"031-885-2006","addr":"경기도 여주시 하동 186-14번지 1층","category":"음료식품 - 정육점"},{"name":"우현노래연습장","tel":"031-886-0931","addr":"경기도 여주시 하동 186-14번지","category":"레저업소 - 노 래 방"},{"name":"현금상회","tel":"031-884-4851","addr":"경기도 여주시 하동 186-14번지","category":"음료식품 - 농·축·수산품"}]},{"lat":"37.297464295","long":"127.63435674","items":[{"name":"김동호치과의원","tel":"031-886-2080","addr":"경기도 여주시 하동 269-2번지 2층","category":"의원 - 치과의원"},{"name":"김미지헤어크리닉","tel":"031-885-2907","addr":"경기도 여주시 하동 269-2번지","category":"보건위생 - 미용원"},{"name":"디어베이비","tel":"031-883-3558","addr":"경기도 여주시 하동 269-2번지 디어베이비","category":"의류 - 아동의류"},{"name":"디어베이비","tel":"031-883-3558","addr":"경기도 여주시 하동 269-2번지","category":"의류 - 정장"},{"name":"쌈지마켓","tel":"","addr":"경기도 여주시 하동 269-2번지","category":"신변잡화 - 기타잡화"},{"name":"쌈지스포츠","tel":"","addr":"경기도 여주시 하동 269-2번지 1층","category":"신변잡화 - 가방"},{"name":"윤하헤어샵","tel":"070-7219-1381","addr":"경기도 여주시 하동 269-2번지","category":"보건위생 - 미용원"},{"name":"평양옥","tel":"070-4686-9412","addr":"경기도 여주시 하동 269-2번지","category":"일반휴게음식 - 일반한식"}]},{"lat":"37.29776901","long":"127.6295773","items":[{"name":"김연옥","tel":"","addr":"경기도 여주시 하동 137-3번지 2층","category":"학원 - 기타 교육기관"},{"name":"여주녹즙지사","tel":"031-881-0062","addr":"경기도 여주시 하동 137-3번지","category":"건강식품 - 기타건강식품"}]},{"lat":"37.2962996318","long":"127.6314147070","items":[{"name":"꽁당보리밥","tel":"031-885-7074","addr":"경기도 여주시 하동 405-14번지","category":"일반휴게음식 - 일반한식"}]},{"lat":"37.297858684","long":"127.63305175","items":[{"name":"꽈배기서울","tel":"031-111-1111","addr":"경기도 여주시 하동 252-6번지","category":"일반휴게음식 - 일반한식"},{"name":"대성축산","tel":"031-886-8325","addr":"경기도 여주시 하동 252-6번지","category":"음료식품 - 정육점"},{"name":"좋은옷가게","tel":"","addr":"경기도 여주시 하동 252-6번지","category":"의류 - 정장"}]},{"lat":"37.298749157","long":"127.62994634","items":[{"name":"꾸며가기","tel":"031-1111-1111","addr":"경기도 여주시 하동 125-7번지","category":"가구 - 기타가구"},{"name":"치어스","tel":"031-886-7139","addr":"경기도 여주시 하동 125-7번지","category":"일반휴게음식 - 서양음식"}]},{"lat":"37.299604815","long":"127.62316375","items":[{"name":"나라테크","tel":"031-884-1894","addr":"경기도 여주시 하동 423-14번지","category":"건축자재 - 기타건축자재"}]},{"lat":"37.301078241","long":"127.62225099","items":[{"name":"나무동물병원","tel":"031-885-7475","addr":"경기도 여주시 하동 430-5번지","category":"기타의료기관 - 동물병원"}]},{"lat":"37.297555116","long":"127.63253042","items":[{"name":"나이스뇌잠","tel":"","addr":"경기도 여주시 하동 250-10번지","category":"직물 - 침구·수예점"}]},{"lat":"37.298385415","long":"127.62716884","items":[{"name":"나이스퍼니쳐","tel":"031-886-0635","addr":"경기도 여주시 하동 80-6번지","category":"가구 - 일반가구"}]},{"lat":"37.298275573","long":"127.627495","items":[{"name":"네일도 맑음","tel":"031-886-0123","addr":"경기도 여주시 하동 333번지 2층","category":"보건위생 - 피부미용실"},{"name":"엘지스마트전자","tel":"031-883-1020","addr":"경기도 여주시 하동 333번지","category":"전기제품 - 가전제품"}]},{"lat":"37.298963512","long":"127.63369256","items":[{"name":"농우농약종묘사","tel":"031-885-2036","addr":"경기도 여주시 하동 200-2번지","category":"농업 - 비료,사료,종자"},{"name":"여주바다회센터","tel":"031-886-9688","addr":"경기도 여주시 하동 200-2번지","category":"일반휴게음식 - 일반한식"},{"name":"한울측량개발주식회사","tel":"031-881-4800","addr":"경기도 여주시 하동 200-2번지","category":"건축자재 - 부동산 분양"},{"name":"허수사","tel":"031-884-5622","addr":"경기도 여주시 하동 200-2번지","category":"일반휴게음식 - 일식·회집"}]},{"lat":"37.297221755","long":"127.63421937","items":[{"name":"다시. 봄","tel":"031-111-1111","addr":"경기도 여주시 하동 270-2번지","category":"의류 - 정장"},{"name":"문스네일(Moon's Nail)","tel":"031-884-4182","addr":"경기도 여주시 하동 270-2번지","category":"보건위생 - 피부미용실"},{"name":"비와이씨여주중앙점","tel":"031-885-2443","addr":"경기도 여주시 하동 270-2번지","category":"의류 - 정장"},{"name":"초코파이","tel":"031-881-4679","addr":"경기도 여주시 하동 270-2번지","category":"의류 - 정장"},{"name":"태양네일센타 여주점","tel":"070-4829-4333","addr":"경기도 여주시 하동 270-2번지","category":"보건위생 - 미용재료"}]},{"lat":"37.297469466","long":"127.63338685","items":[{"name":"다이소여주점","tel":"031-885-5240","addr":"경기도 여주시 하동 258-1번지","category":"신변잡화 - 기타잡화"},{"name":"브레드칸","tel":"031-886-9349","addr":"경기도 여주시 하동 258-1번지","category":"음료식품 - 제과점"},{"name":"센스","tel":"031-881-4261","addr":"경기도 여주시 하동 258-1번지","category":"의류 - 정장"},{"name":"종필정육점","tel":"031-885-2522","addr":"경기도 여주시 하동 258-1번지","category":"음료식품 - 정육점"}]},{"lat":"37.297137248","long":"127.63316979","items":[{"name":"달꼼세","tel":"031-8051-5158","addr":"경기도 여주시 하동 257-7번지","category":"신변잡화 - 액세서리"},{"name":"대복침장","tel":"031-886-2729","addr":"경기도 여주시 하동 257-7번지","category":"직물 - 침구·수예점"}]},{"lat":"37.297746538","long":"127.63211472","items":[{"name":"달대리","tel":"","addr":"경기도 여주시 하동 316-2번지 401호","category":"보건위생 - 기타대인서비스"},{"name":"여흥목욕탕","tel":"031-881-2220","addr":"경기도 여주시 하동 316-2번지","category":"보건위생 - 사우나"}]},{"lat":"37.300411489","long":"127.62397116","items":[{"name":"대광상사","tel":"031-886-2887","addr":"경기도 여주시 하동 421-4번지 1층","category":"자동차정비 유지 - 자동차부품"}]},{"lat":"37.300825936","long":"127.62397457","items":[{"name":"대광오토","tel":"070-4763-5091","addr":"경기도 여주시 하동 416-5번지","category":"자동차정비 유지 - 자동차정비"}]},{"lat":"37.299134782","long":"127.62516746","items":[{"name":"대동스텐","tel":"031-884-4677","addr":"경기도 여주시 하동 424-6번지","category":"건축자재 - 인테리어전문"}]},{"lat":"37.299356973","long":"127.63086494","items":[{"name":"대림마트","tel":"031-883-8288","addr":"경기도 여주시 하동 124-12번지","category":"유통업 영리 - 슈퍼마켓"},{"name":"대림수산유통","tel":"031-881-3308","addr":"경기도 여주시 하동 124-12번지","category":"음료식품 - 기타음료식품"},{"name":"행운김밥","tel":"031-882-2612","addr":"경기도 여주시 하동 124-12번지","category":"일반휴게음식 - 일반한식"}]},{"lat":"37.295746445","long":"127.63208678","items":[{"name":"대림오토바이 여주대리점","tel":"031-885-3400","addr":"경기도 여주시 하동 405-3번지","category":"자동차판매 - 이륜차판매"}]},{"lat":"37.29710301","long":"127.63283116","items":[{"name":"대림한의원","tel":"031-885-2308","addr":"경기도 여주시 하동 293-1번지","category":"의원 - 한의원"}]},{"lat":"37.300215614","long":"127.63205634","items":[{"name":"대성상회","tel":"031-885-4091","addr":"경기도 여주시 하동 180-1번지","category":"유통업 영리 - 슈퍼마켓"}]},{"lat":"37.295577443","long":"127.62827343","items":[{"name":"대성에너지","tel":"031-881-1404","addr":"경기도 여주시 하동 374번지","category":"건축자재 - 보일러·펌프·샷시"},{"name":"신성도장","tel":"031-884-6068","addr":"경기도 여주시 하동 374번지","category":"건축자재 - 페인트"}]},{"lat":"37.29827294","long":"127.6347808","items":[{"name":"대성연탄","tel":"031-885-3792","addr":"경기도 여주시 하동 222-2번지","category":"연료판매점 - 기타연료"}]},{"lat":"37.2988302790","long":"127.6316387750","items":[{"name":"대성전기","tel":"031-885-3132","addr":"경기도 여주시 하동 180-1번지","category":"건축자재 - 기타건축자재"},{"name":"대흥신발백화점","tel":"031-884-4030","addr":"경기도 여주시 하동 180-1번지","category":"신변잡화 - 신발"},{"name":"어이네","tel":"031-883-7898","addr":"경기도 여주시 하동 180-1번지","category":"일반휴게음식 - 일반한식"}]},{"lat":"37.298497639","long":"127.63150067","items":[{"name":"대성정육점","tel":"031-885-4887","addr":"경기도 여주시 하동 180-1번지","category":"음료식품 - 정육점"},{"name":"신흥철물","tel":"031-884-1232","addr":"경기도 여주시 하동 180-1번지","category":"건축자재 - 목재·석재·철물"},{"name":"유기상회","tel":"031-885-2714","addr":"경기도 여주시 하동 180-1번지","category":"주방용구 - 주방용식기"},{"name":"이화","tel":"031-886-1714","addr":"경기도 여주시 하동 180-1번지","category":"일반휴게음식 - 일반한식"}]},{"lat":"37.298075082","long":"127.63132797","items":[{"name":"대성청과","tel":"031-883-6451","addr":"경기도 여주시 하동 322-5번지","category":"음료식품 - 농·축·수산품"}]},{"lat":"37.298046867","long":"127.63324505","items":[{"name":"대신지물","tel":"031-884-9892","addr":"경기도 여주시 하동 247-8번지","category":"직물 - 카페트,커튼,천막,지물"},{"name":"머리나라미장","tel":"031-886-7075","addr":"경기도 여주시 하동 247-8번지","category":"보건위생 - 미용원"},{"name":"위닉스정수기","tel":"031-885-5116","addr":"경기도 여주시 하동 247-8번지","category":"주방용구 - 정수기"}]},{"lat":"37.300046245","long":"127.62489301","items":[{"name":"대왕한우축산물판매장","tel":"031-886-8695","addr":"경기도 여주시 하동 420-7번지","category":"음료식품 - 정육점"}]},{"lat":"37.298221525","long":"127.62919759","items":[{"name":"대일떡집","tel":"031-882-1769","addr":"경기도 여주시 하동 133-16번지 101호","category":"음료식품 - 제과점"}]},{"lat":"37.29822205","long":"127.63079912","items":[{"name":"대일방앗간","tel":"031-884-2272","addr":"경기도 여주시 하동 324-13번지","category":"음료식품 - 기타음료식품"}]},{"lat":"37.29954916","long":"127.62346782","items":[{"name":"대흥건철(꽃뜨리에)","tel":"031-881-1751","addr":"경기도 여주시 하동 423-11번지","category":"건축자재 - 기타건축자재"},{"name":"이은숙꽃차연구소꽃뜨리에","tel":"031-884-1751","addr":"경기도 여주시 하동 423-11번지","category":"음료식품 - 기타음료식품"}]},{"lat":"37.297470054","long":"127.63158234","items":[{"name":"더본푸드","tel":"031-886-7692","addr":"경기도 여주시 하동 320-13번지","category":"음료식품 - 기타음료식품"}]},{"lat":"37.298521136","long":"127.63385804","items":[{"name":"더족발","tel":"031-885-3030","addr":"경기도 여주시 하동 215-1번지 1층 1호","category":"일반휴게음식 - 일반한식"},{"name":"한성","tel":"031-883-7165","addr":"경기도 여주시 하동 215-1번지","category":"신변잡화 - 기타잡화"}]},{"lat":"37.299802696","long":"127.6283648","items":[{"name":"더함기획","tel":"031-885-0406","addr":"경기도 여주시 하동 128-30번지","category":"용역 서비스 - 종합용역"}]},{"lat":"37.297577871","long":"127.63163963","items":[{"name":"더헤븐","tel":"031-882-3863","addr":"경기도 여주시 하동 320-12번지","category":"일반휴게음식 - 주점"}]},{"lat":"37.297633562","long":"127.63302732","items":[{"name":"덕산한의원","tel":"031-886-1075","addr":"경기도 여주시 하동 252-8번지","category":"의원 - 한의원"}]},{"lat":"37.30118775","long":"127.62542123","items":[{"name":"데이앤데이 세종병원점","tel":"031-938-8686","addr":"경기도 여주시 하동 435-3번지","category":"유통업 영리 - 편 의 점"},{"name":"미래매점","tel":"031-880-7700","addr":"경기도 여주시 하동 435-3번지 1층 8호","category":"음료식품 - 기타음료식품"},{"name":"여주메디칼약국","tel":"031-886-8805","addr":"경기도 여주시 하동 435-3번지","category":"약국 - 약국"},{"name":"여주세종고려치과의원","tel":"031-881-2870","addr":"경기도 여주시 하동 435-3번지 근린상가 2층","category":"의원 - 치과의원"}]},{"lat":"37.299052267","long":"127.62885484","items":[{"name":"데코브라더스","tel":"070-8225-3899","addr":"경기도 여주시 하동 126-12번지 1층","category":"가구 - 기타가구"},{"name":"로맨스바스켓","tel":"","addr":"경기도 여주시 하동 126-12번지","category":"사무통신 - 통신기기"}]},{"lat":"37.297574637","long":"127.63394036","items":[{"name":"데페이스샵여주점","tel":"031-886-2938","addr":"경기도 여주시 하동 265-1번지","category":"보건위생 - 화장품"},{"name":"송엘림치킨","tel":"031-881-5575","addr":"경기도 여주시 하동 265-1번지","category":"일반휴게음식 - 일반한식"}]},{"lat":"37.298301053","long":"127.63457802","items":[{"name":"도영기획인쇄","tel":"031-843-5550","addr":"경기도 여주시 하동 221-9번지","category":"서적문구 - 출판 및 인쇄물"}]},{"lat":"37.297332698","long":"127.63369022","items":[{"name":"독일지멘스보청기","tel":"031-884-6763","addr":"경기도 여주시 하동 264-2번지","category":"보건위생 - 의료용품"}]},{"lat":"37.2956027693","long":"127.6319953626","items":[{"name":"동방식당","tel":"031-881-2646","addr":"경기도 여주시 하동 405-4번지","category":"일반휴게음식 - 일반한식"},{"name":"동양유리","tel":"031-883-7464","addr":"경기도 여주시 하동 405-4번지","category":"건축자재 - 유리"}]},{"lat":"37.297745493","long":"127.6306147","items":[{"name":"동부농자재마트","tel":"031-885-9551","addr":"경기도 여주시 하동 137-12번지","category":"농업 - 비료,사료,종자"}]},{"lat":"37.295414704","long":"127.63177952","items":[{"name":"동양건재","tel":"031-885-3181","addr":"경기도 여주시 하동 407-5번지","category":"건축자재 - 기타건축자재"},{"name":"애견나라","tel":"031-881-0035","addr":"경기도 여주시 하동 407-5번지 애견나라","category":"문화.취미 - 애완동물"}]},{"lat":"37.298410192","long":"127.62930066","items":[{"name":"동일종합건축설비","tel":"031-884-6701","addr":"경기도 여주시 하동 134-12번지","category":"기타 - 기계공구"}]},{"lat":"37.299077993","long":"127.63418977","items":[{"name":"동향숯불구이전문점","tel":"031-884-4870","addr":"경기도 여주시 하동 210-4번지","category":"일반휴게음식 - 일반한식"},{"name":"만우정육점","tel":"031-882-9631","addr":"경기도 여주시 하동 210-4번지","category":"음료식품 - 정육점"},{"name":"여주나루","tel":"031-881-2210","addr":"경기도 여주시 하동 210-4번지 1층","category":"일반휴게음식 - 일반한식"}]},{"lat":"37.2980774379","long":"127.6325798875","items":[{"name":"두리미용실","tel":"031-883-8169","addr":"경기도 여주시 하동 249-8번지","category":"보건위생 - 미용원"}]},{"lat":"37.297968842","long":"127.63266921","items":[{"name":"두부만드는사람들","tel":"031-882-6693","addr":"경기도 여주시 하동 249-15번지","category":"일반휴게음식 - 일반한식"},{"name":"두부만드는사람들","tel":"031-882-6693","addr":"경기도 여주시 하동 249-15번지","category":"음료식품 - 기타음료식품"},{"name":"알뜰매장","tel":"031-885-3112","addr":"경기도 여주시 하동 249-15번지","category":"의류 - 정장"}]},{"lat":"37.299943512","long":"127.62899757","items":[{"name":"들레 뼈해장국","tel":"031-882-8632","addr":"경기도 여주시 하동 127-8번지","category":"일반휴게음식 - 일반한식"}]},{"lat":"37.298575043","long":"127.63049753","items":[{"name":"등산복멀티샵","tel":"031-884-7112","addr":"경기도 여주시 하동 125-11번지","category":"의류 - 스포츠의류"},{"name":"현희헤어","tel":"031-881-0030","addr":"경기도 여주시 하동 125-11번지","category":"보건위생 - 미용원"}]},{"lat":"37.296799474","long":"127.63060684","items":[{"name":"디딤돌","tel":"031-885-8982","addr":"경기도 여주시 하동 340번지","category":"일반휴게음식 - 일반한식"}]},{"lat":"37.299107856","long":"127.62685901","items":[{"name":"디자인이레","tel":"031-886-8532","addr":"경기도 여주시 하동 131-12번지","category":"용역 서비스 - 종합용역"}]},{"lat":"37.297664952","long":"127.62880951","items":[{"name":"디테일링 스팀세차","tel":"02-1111-1111","addr":"경기도 여주시 하동 336-1번지","category":"자동차정비 유지 - 세차장"},{"name":"여흥천막공업사","tel":"031-885-7261","addr":"경기도 여주시 하동 415-2번지","category":"직물 - 카페트,커튼,천막,지물"}]},{"lat":"37.300803487","long":"127.62994083","items":[{"name":"뜨락레스토랑","tel":"031-86-2544","addr":"경기도 여주시 하동 123-2번지","category":"일반휴게음식 - 서양음식"}]},{"lat":"37.298853087","long":"127.6273306","items":[{"name":"띵크아이","tel":"","addr":"경기도 여주시 하동 132-16번지","category":"용역 서비스 - 종합용역"}]},{"lat":"37.300693877","long":"127.63022189","items":[{"name":"라이브레스토랑 아네스","tel":"031-884-3210","addr":"경기도 여주시 하동 123-4번지 2층","category":"일반휴게음식 - 서양음식"},{"name":"왕터민물매운탕","tel":"031-885-0223","addr":"경기도 여주시 하동 123-4번지","category":"일반휴게음식 - 일반한식"}]},{"lat":"37.297831175","long":"127.63314175","items":[{"name":"라헬미용실","tel":"031-883-0356","addr":"경기도 여주시 하동 252-1번지","category":"보건위생 - 미용원"}]},{"lat":"37.297187908","long":"127.63041834","items":[{"name":"류진헤어","tel":"031-885-2944","addr":"경기도 여주시 하동 328-1번지","category":"보건위생 - 미용원"}]},{"lat":"37.2993296624","long":"127.6343046591","items":[{"name":"리드업영어어학원","tel":"031-883-1478","addr":"경기도 여주시 하동 203-2번지","category":"회원제형태 - 학원"}]},{"lat":"37.300136146","long":"127.63175115","items":[{"name":"리버52 (River52)","tel":"031-881-3800","addr":"경기도 여주시 하동 171-2번지 1층","category":"일반휴게음식 - 서양음식"}]},{"lat":"37.296605556","long":"127.63318791","items":[{"name":"마당집추어탕","tel":"031-882-5017","addr":"경기도 여주시 하동 289번지","category":"일반휴게음식 - 일반한식"}]},{"lat":"37.29729738","long":"127.63355459","items":[{"name":"마리끌리오","tel":"031-883-7063","addr":"경기도 여주시 하동 262번지","category":"의류 - 정장"},{"name":"뻥튀기공작소","tel":"","addr":"경기도 여주시 하동 262번지 1층","category":"음료식품 - 기타음료식품"},{"name":"젓갈나라건어물세상","tel":"031-633-7859","addr":"경기도 여주시 하동 262번지","category":"음료식품 - 농·축·수산품"},{"name":"조양디엠 여주지점","tel":"031-886-8922","addr":"경기도 여주시 하동 262번지","category":"보건위생 - 의료용품"},{"name":"캐디세상","tel":"031-886-1918","addr":"경기도 여주시 하동 262번지","category":"의류 - 정장"}]},{"lat":"37.29705411","long":"127.63186083","items":[{"name":"만남식당","tel":"031-885-9727","addr":"경기도 여주시 하동 309-9번지","category":"일반휴게음식 - 일반한식"}]},{"lat":"37.299024055","long":"127.63416676","items":[{"name":"만우정육점","tel":"031-882-9631","addr":"경기도 여주시 하동 210-4번지","category":"음료식품 - 정육점"}]},{"lat":"37.297775485","long":"127.63175406","items":[{"name":"맛있는집","tel":"031-885-3114","addr":"경기도 여주시 하동 319-4번지","category":"일반휴게음식 - 일반한식"}]},{"lat":"37.2964083632","long":"127.6329945414","items":[{"name":"머리자랑미용실","tel":"031-884-6807","addr":"경기도 여주시 하동 290-2번지","category":"보건위생 - 미용원"}]},{"lat":"37.299998763","long":"127.62877246","items":[{"name":"멍멍야옹","tel":"031-883-4006","addr":"경기도 여주시 하동 127번지","category":"문화.취미 - 애완동물"}]},{"lat":"37.297607552","long":"127.62944062","items":[{"name":"멕시카나 여주하동점","tel":"031-883-7999","addr":"경기도 여주시 하동 137-1번지","category":"일반휴게음식 - 스넥"}]},{"lat":"37.298296609","long":"127.63202908","items":[{"name":"명가네식당","tel":"031-883-5412","addr":"경기도 여주시 하동 184-3번지","category":"일반휴게음식 - 일반한식"},{"name":"유성여인숙","tel":"031-884-6007","addr":"경기도 여주시 하동 184-3번지","category":"숙박업 - 여관/기타숙박업"},{"name":"하리애견 HaRi Grooming","tel":"031-886-8274","addr":"경기도 여주시 하동 184-3번지","category":"문화.취미 - 애완동물"}]},{"lat":"37.295854142","long":"127.63216663","items":[{"name":"명륜진사갈비 여주점","tel":"031-886-7588","addr":"경기도 여주시 하동 304-4번지","category":"일반휴게음식 - 일반한식"}]},{"lat":"37.295970968","long":"127.63222399","items":[{"name":"명보당","tel":"031-886-3505","addr":"경기도 여주시 하동 304-1번지","category":"신변잡화 - 시계"},{"name":"묻지마 대리운전","tel":"031-885-1313","addr":"경기도 여주시 하동 304-1번지","category":"보건위생 - 기타대인서비스"},{"name":"씨유여주로터리점","tel":"031-883-1021","addr":"경기도 여주시 하동 304-1번지","category":"유통업 영리 - 편 의 점"}]},{"lat":"37.2959709680","long":"127.6322239889","items":[{"name":"명보당","tel":"031-86-3505","addr":"경기도 여주시 하동 304-1번지","category":"신변잡화 - 시계"}]},{"lat":"37.298658926","long":"127.63336294","items":[{"name":"명품스팀세차광택","tel":"031-886-4740","addr":"경기도 여주시 하동 193-3번지","category":"자동차정비 유지 - 세차장"}]},{"lat":"37.295632576","long":"127.62977385","items":[{"name":"명호회관","tel":"031-886-7733","addr":"경기도 여주시 하동 411-8번지","category":"일반휴게음식 - 일반한식"},{"name":"여주세종로타리클럽","tel":"031-886-7744","addr":"경기도 여주시 하동 411-8번지","category":"기타 - 비영리/비대상"}]},{"lat":"37.29908303","long":"127.63155065","items":[{"name":"모아다방","tel":"031-886-7731","addr":"경기도 여주시 하동 186-15번지 106,107호","category":"일반휴게음식 - 서양음식"},{"name":"미미 미용타운","tel":"031-886-6636","addr":"경기도 여주시 하동 186-15번지 여주하리우편취급소 104호","category":"보건위생 - 미용원"},{"name":"여주하리우편취급소","tel":"031-885-0001","addr":"경기도 여주시 하동 186-15번지","category":"용역 서비스 - 공공요금대행서비스/소"}]},{"lat":"37.297665936","long":"127.63371556","items":[{"name":"못된고양이","tel":"070-8857-1399","addr":"경기도 여주시 하동 260-1번지","category":"신변잡화 - 기타잡화"}]},{"lat":"37.297133132","long":"127.63055322","items":[{"name":"무문정","tel":"031-886-2774","addr":"경기도 여주시 하동 311-5번지","category":"일반휴게음식 - 일반한식"}]},{"lat":"37.300352563","long":"127.62660989","items":[{"name":"문화미용실","tel":"070-8957-2758","addr":"경기도 여주시 하동 129-4번지","category":"보건위생 - 미용원"}]},{"lat":"37.29682443","long":"127.6326935","items":[{"name":"뮤직토탈인테리어","tel":"031-885-7246","addr":"경기도 여주시 하동 296-3번지","category":"전기제품 - 기타전기제품"},{"name":"행복노래연습장","tel":"031-886-2252","addr":"경기도 여주시 하동 296-3번지 2층","category":"레저업소 - 노 래 방"},{"name":"행복한 양꼬치","tel":"031-882-6662","addr":"경기도 여주시 하동 296-3번지 1층","category":"일반휴게음식 - 중국식"}]},{"lat":"37.298662464","long":"127.63438931","items":[{"name":"미지트가구","tel":"031-884-1197","addr":"경기도 여주시 하동 214-18번지","category":"가구 - 일반가구"},{"name":"태화전기","tel":"031-885-3715","addr":"경기도 여주시 하동 214-18번지","category":"수리서비스 - 기타수리서비스"}]},{"lat":"37.298745089","long":"127.62730715","items":[{"name":"미카수학교습소","tel":"","addr":"경기도 여주시 하동 132-17번지 1층","category":"학원 - 보습학원"},{"name":"소문난왕족발","tel":"031-885-5465","addr":"경기도 여주시 하동 132-17번지","category":"일반휴게음식 - 일반한식"}]},{"lat":"37.292995467","long":"127.62753029","items":[{"name":"민디자인건설","tel":"031-884-1005","addr":"경기도 여주시 하동 392-4번지","category":"용역 서비스 - 기타용역서비스"}]},{"lat":"37.297908593","long":"127.63213863","items":[{"name":"민속복떡집","tel":"032-886-1287","addr":"경기도 여주시 하동 317-3번지","category":"음료식품 - 제과점"}]},{"lat":"37.298523059","long":"127.63349715","items":[{"name":"밀레올레포차","tel":"031-886-9339","addr":"경기도 여주시 하동 193-8번지","category":"일반휴게음식 - 일반한식"}]},{"lat":"37.299999477","long":"127.6252197","items":[{"name":"바나나퀵","tel":"","addr":"경기도 여주시 하동 419-8번지","category":"보건위생 - 기타대인서비스"}]},{"lat":"37.2991921643","long":"127.6313598251","items":[{"name":"백두산건강원","tel":"031-886-5771","addr":"경기도 여주시 하동 186-14번지","category":"건강식품 - 기타건강식품"},{"name":"장수건강원","tel":"031-883-1150","addr":"경기도 여주시 하동 186-14번지","category":"건강식품 - 기타건강식품"}]},{"lat":"37.299497895","long":"127.63147515","items":[{"name":"백산동물병원","tel":"031-884-3030","addr":"경기도 여주시 하동 394-8번지","category":"기타의료기관 - 동물병원"}]},{"lat":"37.298158204","long":"127.6309452","items":[{"name":"백세약초","tel":"031-886-0977","addr":"경기도 여주시 하동 182-7번지","category":"건강식품 - 기타건강식품"},{"name":"여주학동건강원","tel":"031-886-0977","addr":"경기도 여주시 하동 182-7번지","category":"건강식품 - 기타건강식품"},{"name":"현대유통정육마트","tel":"031-886-7719","addr":"경기도 여주시 하동 182-7번지","category":"음료식품 - 정육점"}]},{"lat":"37.2966022511","long":"127.6338081817","items":[{"name":"백합어린이집[아이행복]","tel":"031-885-0691","addr":"경기도 여주시 하동 284번지","category":"학원 - 유아원"}]},{"lat":"37.298358759","long":"127.62880398","items":[{"name":"법무사안병훈사무소","tel":"031-886-3317","addr":"경기도 여주시 하동 133-12번지","category":"용역 서비스 - 법률회계서비스(개인)"}]},{"lat":"37.297771648","long":"127.63247583","items":[{"name":"베스트키드","tel":"031-885-5808","addr":"경기도 여주시 하동 250-11번지","category":"의류 - 아동의류"},{"name":"현대사","tel":"031-883-2966","addr":"경기도 여주시 하동 250-11번지","category":"보건위생 - 미용재료"}]},{"lat":"37.298407803","long":"127.62975177","items":[{"name":"별포차","tel":"031-884-3896","addr":"경기도 여주시 하동 135번지","category":"일반휴게음식 - 주점"},{"name":"신용슈퍼","tel":"031-884-0811","addr":"경기도 여주시 하동 135번지","category":"유통업 영리 - 슈퍼마켓"},{"name":"짱이야보신탕","tel":"031-885-2356","addr":"경기도 여주시 하동 135번지","category":"일반휴게음식 - 일반한식"},{"name":"채움건강원","tel":"031-884-7093","addr":"경기도 여주시 하동 135번지","category":"건강식품 - 기타건강식품"}]},{"lat":"37.2982966093","long":"127.6320290753","items":[{"name":"보고감자탕","tel":"031-885-1005","addr":"경기도 여주시 하동 184-3번지","category":"일반휴게음식 - 일반한식"}]},{"lat":"37.2979118416","long":"127.6332213699","items":[{"name":"보르네오여주대리점","tel":"031-2-2551","addr":"경기도 여주시 하동 252-1번지","category":"가구 - 일반가구"},{"name":"이불나라","tel":"031-886-3257","addr":"경기도 여주시 하동 252-1번지","category":"직물 - 침구·수예점"}]},{"lat":"37.29927684","long":"127.62727771","items":[{"name":"부흥한우방","tel":"031-881-3806","addr":"경기도 여주시 하동 131-3번지","category":"일반휴게음식 - 일반한식"},{"name":"제이앤에스미트","tel":"031-881-3089","addr":"경기도 여주시 하동 131-3번지","category":"음료식품 - 정육점"}]},{"lat":"37.29965976","long":"127.62299503","items":[{"name":"불타는 숯불 닭갈비","tel":"031-886-1778","addr":"경기도 여주시 하동 423-13번지","category":"일반휴게음식 - 일반한식"}]},{"lat":"37.298629998","long":"127.63032881","items":[{"name":"빨간여우","tel":"","addr":"경기도 여주시 하동 125-10번지","category":"의류 - 정장"}]},{"lat":"37.297194245","long":"127.63430937","items":[{"name":"사랑한의원","tel":"031-881-1775","addr":"경기도 여주시 하동 270-2번지","category":"의원 - 한의원"}]},{"lat":"37.29710697","long":"127.63208684","items":[{"name":"산채골","tel":"031-884-2727","addr":"경기도 여주시 하동 295-3번지","category":"일반휴게음식 - 일반한식"}]},{"lat":"37.301300549","long":"127.62453113","items":[{"name":"살롱드몽","tel":"031-885-2288","addr":"경기도 여주시 하동 434-4번지 2층","category":"보건위생 - 미용원"},{"name":"살롱드몽네일","tel":"031-882-2112","addr":"경기도 여주시 하동 434-4번지 2층","category":"보건위생 - 피부미용실"},{"name":"세종대학약국","tel":"031-885-1647","addr":"경기도 여주시 하동 434-4번지 1층","category":"약국 - 약국"}]},{"lat":"37.2969098030","long":"127.6301904658","items":[{"name":"삼성유통정육점","tel":"031-884-5632","addr":"경기도 여주시 하동 402번지","category":"음료식품 - 정육점"}]},{"lat":"37.29754662","long":"127.62733108","items":[{"name":"삼성휴대폰 여주점","tel":"031-885-3050","addr":"경기도 여주시 하동 364-1번지","category":"사무통신 - 통신기기"}]},{"lat":"37.298631175","long":"127.63349805","items":[{"name":"삼천리자전거","tel":"031-885-2686","addr":"경기도 여주시 하동 193-6번지 외1필지","category":"레져용품 - 스포츠·레져용품"}]},{"lat":"37.298663824","long":"127.6307464","items":[{"name":"삼한정육점식당","tel":"031-885-6687","addr":"경기도 여주시 하동 125-22번지","category":"일반휴게음식 - 일반한식"},{"name":"삼한정육점식당","tel":"031-885-6687","addr":"경기도 여주시 하동 125-22번지","category":"음료식품 - 정육점"},{"name":"짱이야식당","tel":"031-886-0991","addr":"경기도 여주시 하동 125-22번지","category":"일반휴게음식 - 일반한식"}]},{"lat":"37.297856161","long":"127.63352542","items":[{"name":"상일가구갤러리","tel":"031-884-2230","addr":"경기도 여주시 하동 246-3번지","category":"가구 - 일반가구"},{"name":"오정환갤러리","tel":"031-886-0073","addr":"경기도 여주시 하동 246-3번지","category":"가구 - 일반가구"}]},{"lat":"37.296186361","long":"127.63238368","items":[{"name":"상일조명전기","tel":"031-883-8877","addr":"경기도 여주시 하동 306-8번지","category":"건축자재 - 조명기구"}]},{"lat":"37.300664353","long":"127.62386045","items":[{"name":"새중앙공업사","tel":"031-884-5886","addr":"경기도 여주시 하동 416-4번지","category":"자동차정비 유지 - 자동차정비"},{"name":"첨단자동차","tel":"031-881-0789","addr":"경기도 여주시 하동 416-4번지","category":"자동차정비 유지 - 자동차부품"}]},{"lat":"37.298552421","long":"127.6347493","items":[{"name":"샘물불교사","tel":"031-886-4733","addr":"경기도 여주시 하동 126-4번지","category":"신변잡화 - 기념품점"}]},{"lat":"37.299853342","long":"127.62730504","items":[{"name":"샛별어린이집[아이행복]","tel":"031-885-3007","addr":"경기도 여주시 하동 130-7번지","category":"학원 - 유아원"}]},{"lat":"37.297799157","long":"127.63238584","items":[{"name":"서울종묘농약","tel":"031-885-2460","addr":"경기도 여주시 하동 250-12번지","category":"농업 - 비료,사료,종자"}]},{"lat":"37.2958315063","long":"127.6296401686","items":[{"name":"서희경무용학원","tel":"031-886-3157","addr":"경기도 여주시 하동 411-2번지","category":"학원 - 예·체능계학원"}]},{"lat":"37.2992183763","long":"127.6281118377","items":[{"name":"선경광고","tel":"031-885-2998","addr":"경기도 여주시 하동 128-42번지","category":"용역 서비스 - 사무서비스"}]},{"lat":"37.299440572","long":"127.63039194","items":[{"name":"성미용실","tel":"031-885-3634","addr":"경기도 여주시 하동 124-9번지","category":"보건위생 - 미용원"}]},{"lat":"37.2990830297","long":"127.6315506511","items":[{"name":"세계위성통신동부대리점","tel":"031-885-7777","addr":"경기도 여주시 하동 186-15번지","category":"사무통신 - 통신기기"}]},{"lat":"37.299743687","long":"127.62930044","items":[{"name":"세계유통","tel":"031-886-2809","addr":"경기도 여주시 하동 127-12번지","category":"음료식품 - 정육점"},{"name":"여주하림유통","tel":"031-886-6688","addr":"경기도 여주시 하동 127-12번지","category":"음료식품 - 정육점"}]},{"lat":"37.299352567","long":"127.62999646","items":[{"name":"세광닭집","tel":"031-881-2444","addr":"경기도 여주시 하동 124-2번지","category":"음료식품 - 정육점"}]},{"lat":"37.300273011","long":"127.62288727","items":[{"name":"세무사이병철사무소","tel":"031-883-4652","addr":"경기도 여주시 하동 415-4번지 2층","category":"용역 서비스 - 법률회계서비스(개인)"},{"name":"양듬뿍원조양평해장국","tel":"031-886-2085","addr":"경기도 여주시 하동 415-4번지","category":"일반휴게음식 - 일반한식"}]},{"lat":"37.300859823","long":"127.62266652","items":[{"name":"세우디자인","tel":"031-886-5541","addr":"경기도 여주시 하동 433번지","category":"가구 - 일반가구"}]},{"lat":"37.29827206","long":"127.6281604","items":[{"name":"세종나염","tel":"031-885-9930","addr":"경기도 여주시 하동 133-4번지","category":"용역 서비스 - 종합용역"}]},{"lat":"37.29891372","long":"127.62949657","items":[{"name":"세종떡방아타운","tel":"031-881-3430","addr":"경기도 여주시 하동 126-19번지","category":"음료식품 - 기타음료식품"}]},{"lat":"37.300909856","long":"127.62686262","items":[{"name":"세종분식","tel":"031-111-1111","addr":"경기도 여주시 하동 120-4번지","category":"일반휴게음식 - 스넥"}]},{"lat":"37.298883706","long":"127.62835719","items":[{"name":"세종스크린골프","tel":"031-886-2577","addr":"경기도 여주시 하동 134번지","category":"레저업소 - 스크린골프"}]},{"lat":"37.301352178","long":"127.62499399","items":[{"name":"세종식당","tel":"031-880-7700","addr":"경기도 여주시 하동 435번지 지하층","category":"일반휴게음식 - 일반한식"},{"name":"세종여주병원장례식장","tel":"031-886-4496","addr":"경기도 여주시 하동 435번지","category":"용역 서비스 - 가례서비스업"}]},{"lat":"37.300937375","long":"127.62505825","items":[{"name":"세종정문약국","tel":"031-882-8271","addr":"경기도 여주시 하동 417-2번지 B동 101호","category":"약국 - 약국"},{"name":"해와달심리발달센터","tel":"031-881-3739","addr":"경기도 여주시 하동 417-2번지","category":"학원 - 기타 교육기관"}]},{"lat":"37.299047609","long":"127.62803148","items":[{"name":"세종정보통신","tel":"031-886-5415","addr":"경기도 여주시 하동 132-10번지","category":"사무통신 - 통신기기"},{"name":"여주군농민영농조합법인","tel":"031-885-5288","addr":"경기도 여주시 하동 132-10번지","category":"농업 - 기타농업관련"}]},{"lat":"37.2993871572","long":"127.6268613193","items":[{"name":"세종철강","tel":"031-883-4287","addr":"경기도 여주시 하동 131-1번지","category":"건축자재 - 건축용 요업제품"}]},{"lat":"37.297911842","long":"127.63322137","items":[{"name":"세종치과의원","tel":"031-883-8633","addr":"경기도 여주시 하동 252-1번지","category":"의원 - 치과의원"}]},{"lat":"37.296854848","long":"127.63035918","items":[{"name":"소풍","tel":"031-884-9212","addr":"경기도 여주시 하동 402-1번지","category":"일반휴게음식 - 일반한식"}]},{"lat":"37.300049949","long":"127.62761118","items":[{"name":"손가락세상","tel":"031-885-1130","addr":"경기도 여주시 하동 129-35번지","category":"문화.취미 - 문화취미기타"}]},{"lat":"37.2963814376","long":"127.6312800508","items":[{"name":"송강한우방","tel":"031-883-5102","addr":"경기도 여주시 하동 405번지","category":"일반휴게음식 - 갈비전문점"}]},{"lat":"37.295467955","long":"127.62853192","items":[{"name":"송풍설비","tel":"031-885-2893","addr":"경기도 여주시 하동 375번지","category":"건축자재 - 보일러·펌프·샷시"}]},{"lat":"37.298055445","long":"127.63163233","items":[{"name":"수은축산","tel":"031-886-5415","addr":"경기도 여주시 하동 183-5번지","category":"음료식품 - 정육점"}]},{"lat":"37.297217915","long":"127.63324941","items":[{"name":"숙명 바이올린교습소","tel":"031-885-1823","addr":"경기도 여주시 하동 257-8번지","category":"학원 - 예·체능계학원"}]},{"lat":"37.30032925","long":"127.62761349","items":[{"name":"스마트 솔루션","tel":"031-885-6110","addr":"경기도 여주시 하동 129-31번지 1층","category":"용역 서비스 - 기타용역서비스"},{"name":"파라존컴퓨터","tel":"031-884-3836","addr":"경기도 여주시 하동 129-31번지","category":"사무통신 - 컴퓨터"}]},{"lat":"37.297635178","long":"127.63441456","items":[{"name":"스시하루","tel":"031-886-3482","addr":"경기도 여주시 하동 232번지","category":"일반휴게음식 - 일식·회집"},{"name":"아울렛생활용품D.C마트","tel":"031-886-4945","addr":"경기도 여주시 하동 232번지","category":"유통업 영리 - 슈퍼마켓"}]},{"lat":"37.300887998","long":"127.62416682","items":[{"name":"스포츠스토어","tel":"031-881-0066","addr":"경기도 여주시 하동 416-6번지","category":"레져용품 - 스포츠·레져용품"}]},{"lat":"37.298325447","long":"127.63338272","items":[{"name":"시골집","tel":"031-881-2817","addr":"경기도 여주시 하동 247-2번지","category":"일반휴게음식 - 일반한식"},{"name":"여흥건강원","tel":"031-884-4826","addr":"경기도 여주시 하동 247-2번지","category":"건강식품 - 기타건강식품"}]},{"lat":"37.2965833105","long":"127.6288907734","items":[{"name":"신영자원","tel":"031-881-3570","addr":"경기도 여주시 하동 413-7번지","category":"기타 - 기타 전문점"}]},{"lat":"37.297358825","long":"127.63385961","items":[{"name":"신용상회","tel":"031-885-3302","addr":"경기도 여주시 하동 264-2번지","category":"의류 - 내의판매"},{"name":"지후네","tel":"031-000-0000","addr":"경기도 여주시 하동 264-2번지","category":"의류 - 내의판매"}]},{"lat":"37.296747095","long":"127.62858762","items":[{"name":"신태양동물약품","tel":"031-884-8650","addr":"경기도 여주시 하동 413-9번지","category":"기타의료기관 - 동물병원"}]},{"lat":"37.299577195","long":"127.62327631","items":[{"name":"쌍용간판","tel":"031-885-0886","addr":"경기도 여주시 하동 423-12번지","category":"건축자재 - 인테리어전문"}]},{"lat":"37.298214503","long":"127.63222012","items":[{"name":"쎄븐미용실","tel":"031-883-3684","addr":"경기도 여주시 하동 249-13번지","category":"보건위생 - 미용원"}]},{"lat":"37.297552775","long":"127.63297025","items":[{"name":"씨유여주명동점","tel":"031-886-1898","addr":"경기도 여주시 하동 250-3번지 CU여주명동점 1층","category":"유통업 영리 - 편 의 점"},{"name":"커피이야기","tel":"031-883-3344","addr":"경기도 여주시 하동 250-3번지","category":"일반휴게음식 - 서양음식"},{"name":"폰스토리","tel":"031-884-4959","addr":"경기도 여주시 하동 250-3번지","category":"사무통신 - 통신기기"}]},{"lat":"37.300578901","long":"127.62811182","items":[{"name":"씨유여주하리점","tel":"031-886-8098","addr":"경기도 여주시 하동 122-8번지","category":"유통업 영리 - 편 의 점"}]},{"lat":"37.300526034","long":"127.62788581","items":[{"name":"아구좋아","tel":"031-884-8481","addr":"경기도 여주시 하동 122-4번지 신화빌딩","category":"일반휴게음식 - 일반한식"},{"name":"탑오토파츠","tel":"031-884-7684","addr":"경기도 여주시 하동 122-4번지 신화빌딩","category":"자동차정비 유지 - 자동차부품"}]},{"lat":"37.296771572","long":"127.6324675","items":[{"name":"아싸노래연습장","tel":"031-886-6999","addr":"경기도 여주시 하동 296-4번지 지하1층","category":"레저업소 - 노 래 방"},{"name":"언니네미용실","tel":"031-882-6915","addr":"경기도 여주시 하동 296-4번지","category":"보건위생 - 미용원"}]},{"lat":"37.298741394","long":"127.63310423","items":[{"name":"아이비 이벤트","tel":"031-882-9309","addr":"경기도 여주시 하동 196-9번지","category":"용역 서비스 - 사무서비스"}]},{"lat":"37.297607553","long":"127.63283537","items":[{"name":"알파꽃 식물원 2호점","tel":"031-881-6410","addr":"경기도 여주시 하동 250-2번지","category":"문화.취미 - 화원"}]},{"lat":"37.301324688","long":"127.62164396","items":[{"name":"알파꽃식물원","tel":"031-886-6410","addr":"경기도 여주시 하동 41-1번지","category":"문화.취미 - 화원"}]},{"lat":"37.298693529","long":"127.62683303","items":[{"name":"애니카랜드여주점","tel":"031-883-5336","addr":"경기도 여주시 하동 113-1번지","category":"자동차정비 유지 - 자동차정비"},{"name":"현대자동차-하리점","tel":"031-886-7941","addr":"경기도 여주시 하동 113-1번지","category":"자동차정비 유지 - 자동차정비"}]},{"lat":"37.29830358","long":"127.6324126","items":[{"name":"애당","tel":"031-884-4569","addr":"경기도 여주시 하동 189-9번지","category":"일반휴게음식 - 주점"}]},{"lat":"37.29668633","long":"127.63155326","items":[{"name":"애드파워광고스포츠","tel":"031-885-3606","addr":"경기도 여주시 하동 394-88번지","category":"유통업 영리 - 기타유통업"}]},{"lat":"37.298077438","long":"127.63257989","items":[{"name":"약재마루","tel":"031-884-1053","addr":"경기도 여주시 하동 249-8번지","category":"약국 - 한약방"}]},{"lat":"37.300581191","long":"127.62596889","items":[{"name":"양복대여","tel":"","addr":"경기도 여주시 하동 436-7번지 401호","category":"의류 - 기타의류"}]},{"lat":"37.2983312091","long":"127.6323000440","items":[{"name":"양평칼국수","tel":"031-886-8226","addr":"경기도 여주시 하동 189-11번지","category":"일반휴게음식 - 일반한식"}]},{"lat":"37.296438033","long":"127.63249855","items":[{"name":"에디엠 헤어샵","tel":"031-886-0612","addr":"경기도 여주시 하동 296-6번지","category":"보건위생 - 미용원"}]},{"lat":"37.299441295","long":"127.62855355","items":[{"name":"여광세차장","tel":"031-881-4931","addr":"경기도 여주시 하동 126번지","category":"자동차정비 유지 - 세차장"}]},{"lat":"37.298636932","long":"127.6238889","items":[{"name":"여주가스충전소","tel":"031-885-1100","addr":"경기도 여주시 하동 99-2번지","category":"연료판매점 - SK가스충전소"}]},{"lat":"37.301490756","long":"127.62605534","items":[{"name":"여주고려병원","tel":"031-880-7700","addr":"경기도 여주시 하동 435번지","category":"의원 - 의원"}]},{"lat":"37.299439582","long":"127.63227544","items":[{"name":"여주군장애인복지관","tel":"031-883-2100","addr":"경기도 여주시 하동 199-4번지","category":"문화.취미 - 문화취미기타"}]},{"lat":"37.29880429","long":"127.62974378","items":[{"name":"여주떡방앗간","tel":"031-885-2938","addr":"경기도 여주시 하동 125-6번지","category":"음료식품 - 제과점"},{"name":"영미용실","tel":"031-886-6503","addr":"경기도 여주시 하동 125-6번지","category":"보건위생 - 미용원"}]},{"lat":"37.296799322","long":"127.63402411","items":[{"name":"여주메리케이","tel":"","addr":"경기도 여주시 하동 274-2번지","category":"주방용구 - 주방용식기"}]},{"lat":"37.299080813","long":"127.63196794","items":[{"name":"여주명성로타리클럽","tel":"031-885-3602","addr":"경기도 여주시 하동 187-5번지","category":"기타 - 비영리/대상"},{"name":"여주통닭","tel":"031-881-0902","addr":"경기도 여주시 하동 187-5번지 1층 3호","category":"일반휴게음식 - 스넥"},{"name":"주식회사 씨에스이엔지","tel":"070-8793-7244","addr":"경기도 여주시 하동 187-5번지 향군빌딩 202호","category":"전기제품 - 기타전기제품"},{"name":"하리뜨개방","tel":"031-883-2084","addr":"경기도 여주시 하동 187-5번지 106동 1호","category":"직물 - 침구·수예점"}]},{"lat":"37.295354152","long":"127.63130534","items":[{"name":"여주볼트","tel":"031-883-4066","addr":"경기도 여주시 하동 407-7번지","category":"기타 - 기계공구"}]},{"lat":"37.2975480049","long":"127.6287747070","items":[{"name":"여주스쿼시","tel":"031-886-0108","addr":"경기도 여주시 하동 335-1번지","category":"레저업소 - 기타레져업소"}]},{"lat":"37.300575408","long":"127.62191979","items":[{"name":"여주시 노인복지관(흙토랑 여주도예공방)","tel":"070-4488-1130","addr":"경기도 여주시 하동 429-8번지","category":"문화.취미 - 문화취미기타"}]},{"lat":"37.298609539","long":"127.62908802","items":[{"name":"여주시청(지역경제과)","tel":"031-887-2296","addr":"경기도 여주시 하동 134-11번지 차량등록사업소","category":"용역 서비스 - 사무서비스"},{"name":"중앙동행정복지센터","tel":"031-887-3438","addr":"경기도 여주시 하동 134-11번지 1층","category":"용역 서비스 - 사무서비스"}]},{"lat":"37.299467755","long":"127.63375317","items":[{"name":"여주시청직장어린이집[아이행복]","tel":"031-882-1788","addr":"경기도 여주시 하동 202-3번지","category":"학원 - 유아원"}]},{"lat":"37.298772806","long":"127.63397293","items":[{"name":"여주얼음","tel":"031-885-4838","addr":"경기도 여주시 하동 214-11번지","category":"회원제형태 - 기타4"},{"name":"왕초갈비","tel":"031-885-3769","addr":"경기도 여주시 하동 214-11번지","category":"일반휴게음식 - 일반한식"}]},{"lat":"37.2954152679","long":"127.6299750531","items":[{"name":"여주유치원[아이행복]","tel":"031-883-7773","addr":"경기도 여주시 하동 411-7번지","category":"학원 - 유치원"}]},{"lat":"37.29735276","long":"127.63330693","items":[{"name":"여주의원21세기","tel":"031-881-6868","addr":"경기도 여주시 하동 257-1번지","category":"의원 - 의원"}]},{"lat":"37.300050331","long":"127.62582916","items":[{"name":"여주자동차유리","tel":"031-885-9228","addr":"경기도 여주시 하동 418-4번지","category":"자동차정비 유지 - 자동차부품"}]},{"lat":"37.297659644","long":"127.63658019","items":[{"name":"여주정진체육관","tel":"031-883-2709","addr":"경기도 여주시 하동 126-5번지","category":"회원제형태 - 레져업소"}]},{"lat":"37.299855618","long":"127.62516212","items":[{"name":"여주종합생수(미네랄워터)","tel":"031-881-0371","addr":"경기도 여주시 하동 419-9번지 2호","category":"유통업 영리 - 기타유통업"}]},{"lat":"37.299273745","long":"127.62786417","items":[{"name":"여주중앙냉동","tel":"031-885-6739","addr":"경기도 여주시 하동 128-37번지","category":"전기제품 - 냉열기기"}]},{"lat":"37.298380346","long":"127.63322528","items":[{"name":"여주축협G한우연구회","tel":"031-884-8682","addr":"경기도 여주시 하동 247-4번지 2층","category":"음료식품 - 정육점"}]},{"lat":"37.29740892","long":"127.63291266","items":[{"name":"여주태평양약국","tel":"031-886-6003","addr":"경기도 여주시 하동 250-4번지","category":"약국 - 약국"},{"name":"하이젠수학학원","tel":"031-883-9998","addr":"경기도 여주시 하동 250-4번지","category":"학원 - 보습학원"}]},{"lat":"37.300415215","long":"127.62668935","items":[{"name":"여주풍기인견","tel":"031-884-2250","addr":"경기도 여주시 하동 129-3번지","category":"의류 - 정장"}]},{"lat":"37.300554202","long":"127.62252866","items":[{"name":"여흥가축약품","tel":"031-885-7761","addr":"경기도 여주시 하동 429-11번지","category":"기타의료기관 - 동물병원"}]},{"lat":"37.2971372480","long":"127.6331697938","items":[{"name":"여흥사진관","tel":"031-882-1152","addr":"경기도 여주시 하동 257-7번지","category":"광학제품 - 사진관"}]},{"lat":"37.300441595","long":"127.62338492","items":[{"name":"연합농자재","tel":"031-885-7708","addr":"경기도 여주시 하동 416-13번지","category":"농업 - 농기계"}]},{"lat":"37.2966925","long":"127.62868867","items":[{"name":"영광해장국순대국","tel":"031-884-9123","addr":"경기도 여주시 하동 413-8번지","category":"일반휴게음식 - 일반한식"}]},{"lat":"37.299158939","long":"127.63082946","items":[{"name":"영림잡화","tel":"031-111-1111","addr":"경기도 여주시 하동 124-14번지","category":"신변잡화 - 기타잡화"}]},{"lat":"37.3005495873","long":"127.6268370859","items":[{"name":"영진식당","tel":"031-884-8537","addr":"경기도 여주시 하동 129-1번지","category":"일반휴게음식 - 일반한식"}]},{"lat":"37.299689468","long":"127.62591642","items":[{"name":"예담","tel":"","addr":"경기도 여주시 하동 418-7번지 1층","category":"일반휴게음식 - 일반한식"},{"name":"피움","tel":"031-881-1003","addr":"경기도 여주시 하동 418-7번지 씨에스빌딩 1층","category":"서적문구 - 출판 및 인쇄물"}]},{"lat":"37.298744454","long":"127.63422082","items":[{"name":"예림장여관","tel":"031-882-1972","addr":"경기도 여주시 하동 214-20번지","category":"숙박업 - 여관/기타숙박업"}]},{"lat":"37.296581768","long":"127.6325787","items":[{"name":"예심전기조명","tel":"031-885-0978","addr":"경기도 여주시 하동 296-5번지","category":"건축자재 - 조명기구"}]},{"lat":"37.2964659617","long":"127.6323296152","items":[{"name":"옛날집","tel":"031-884-1057","addr":"경기도 여주시 하동 307-1번지","category":"일반휴게음식 - 일반한식"},{"name":"올갱이해장국","tel":"031-885-2030","addr":"경기도 여주시 하동 307-1번지","category":"일반휴게음식 - 일반한식"}]},{"lat":"37.298161943","long":"127.63193773","items":[{"name":"오뚜기와팽귄","tel":"031-886-8306","addr":"경기도 여주시 하동 183-9번지","category":"일반휴게음식 - 일반한식"}]},{"lat":"37.297246865","long":"127.63288875","items":[{"name":"오리종합상사","tel":"031-886-3651","addr":"경기도 여주시 하동 293-1번지","category":"건축자재 - 건축용 요업제품"}]},{"lat":"37.299608227","long":"127.63105877","items":[{"name":"오션디자인","tel":"031-882-3889","addr":"경기도 여주시 하동 123-7번지","category":"용역 서비스 - 종합용역"},{"name":"우리종합사료","tel":"031-886-9982","addr":"경기도 여주시 하동 123-7번지","category":"농업 - 비료,사료,종자"}]},{"lat":"37.299380134","long":"127.62819213","items":[{"name":"오카이","tel":"031-885-5269","addr":"경기도 여주시 하동 128-40번지","category":"일반휴게음식 - 칵테일바"}]},{"lat":"37.2968274671","long":"127.6287236246","items":[{"name":"옥돌감자탕","tel":"031-885-8100","addr":"경기도 여주시 하동 413-1번지","category":"일반휴게음식 - 일반한식"}]},{"lat":"37.297519797","long":"127.63408652","items":[{"name":"올포유여주점","tel":"031-883-9038","addr":"경기도 여주시 하동 267-1번지","category":"레져용품 - 스포츠·레져용품"},{"name":"춘우통상","tel":"031-886-8956","addr":"경기도 여주시 하동 267-1번지 1호","category":"의류 - 정장"}]},{"lat":"37.2998026960","long":"127.6283648030","items":[{"name":"용호지물장식","tel":"031-885-6459","addr":"경기도 여주시 하동 128-30번지","category":"직물 - 카페트,커튼,천막,지물"}]},{"lat":"37.29913559","long":"127.63183305","items":[{"name":"우주간판","tel":"031-883-2828","addr":"경기도 여주시 하동 186-3번지","category":"건축자재 - 인테리어전문"}]},{"lat":"37.300549853","long":"127.62163761","items":[{"name":"워시존여주","tel":"031-884-8236","addr":"경기도 여주시 하동 429-7번지 1층","category":"자동차정비 유지 - 세차장"},{"name":"주식회사 여주신문","tel":"031-886-4200","addr":"경기도 여주시 하동 429-7번지 1층","category":"서적문구 - 정기간행물"}]},{"lat":"37.297854415","long":"127.63216073","items":[{"name":"원앙상회","tel":"031-885-3909","addr":"경기도 여주시 하동 317-9번지","category":"의류 - 정장"}]},{"lat":"37.2971619269","long":"127.6319181215","items":[{"name":"유리헤어샵","tel":"031-885-5833","addr":"경기도 여주시 하동 309-3번지","category":"보건위생 - 미용원"}]},{"lat":"37.297305188","long":"127.63378022","items":[{"name":"유앤아이학원","tel":"031-883-3652","addr":"경기도 여주시 하동 263-4번지 3층","category":"학원 - 보습학원"}]},{"lat":"37.29863608","long":"127.62747543","items":[{"name":"유진 ENG","tel":"031-885-8577","addr":"경기도 여주시 하동 132-20번지","category":"건축자재 - 보일러·펌프·샷시"}]},{"lat":"37.297442989","long":"127.62989038","items":[{"name":"은실이네","tel":"031-885-2302","addr":"경기도 여주시 하동 137-8번지","category":"일반휴게음식 - 일반한식"}]},{"lat":"37.300242317","long":"127.6235863","items":[{"name":"이모네","tel":"031-884-2952","addr":"경기도 여주시 하동 421-2번지","category":"일반휴게음식 - 일반한식"}]},{"lat":"37.297660891","long":"127.63297115","items":[{"name":"이브자리","tel":"031-885-9212","addr":"경기도 여주시 하동 252-6번지","category":"직물 - 침구·수예점"}]},{"lat":"37.300743188","long":"127.62600406","items":[{"name":"이엔아이지 해독센터","tel":"031-886-0234","addr":"경기도 여주시 하동 436-2번지 1동 201호","category":"보건위생 - 의료용품"},{"name":"제이에스(JS) 갤러리","tel":"","addr":"경기도 여주시 하동 436-2번지 1층","category":"가구 - 일반가구"}]},{"lat":"37.29657746","long":"127.62999598","items":[{"name":"이카페","tel":"031-222-2295","addr":"경기도 여주시 하동 402-2번지 1층","category":"일반휴게음식 - 서양음식"}]},{"lat":"37.299996898","long":"127.62227596","items":[{"name":"인디자인광고기획","tel":"031-885-3908","addr":"경기도 여주시 하동 415-2번지","category":"용역 서비스 - 종합용역"}]},{"lat":"37.298884003","long":"127.63000385","items":[{"name":"일미식당","tel":"031-886-8842","addr":"경기도 여주시 하동 125-4번지","category":"일반휴게음식 - 일반한식"}]},{"lat":"37.2973876488","long":"127.6318297753","items":[{"name":"일흥방앗간","tel":"031-885-3571","addr":"경기도 여주시 하동 314-7번지","category":"음료식품 - 기타음료식품"}]},{"lat":"37.297020366","long":"127.62802598","items":[{"name":"자연석돌구이","tel":"031-883-2555","addr":"경기도 여주시 하동 362-1번지","category":"일반휴게음식 - 일반한식"}]},{"lat":"37.299910574","long":"127.62841081","items":[{"name":"장난감마을","tel":"031-886-3331","addr":"경기도 여주시 하동 128-29번지","category":"서적문구 - 완구점"}]},{"lat":"37.297826042","long":"127.63071688","items":[{"name":"장보기","tel":"031-885-8800","addr":"경기도 여주시 하동 325-9번지 1층","category":"음료식품 - 기타음료식품"}]},{"lat":"37.2958855","long":"127.62794892","items":[{"name":"장수옥","tel":"031-885-2354","addr":"경기도 여주시 하동 373-9번지","category":"일반휴게음식 - 일반한식"}]},{"lat":"37.299497057","long":"127.62652387","items":[{"name":"장원공업","tel":"031-884-9071","addr":"경기도 여주시 하동 131번지","category":"용역 서비스 - 종합용역"}]},{"lat":"37.2974923468","long":"127.6341652409","items":[{"name":"장원포목","tel":"031-885-3681","addr":"경기도 여주시 하동 268-1번지","category":"직물 - 옷감·직물"}]},{"lat":"37.300940042","long":"127.62455073","items":[{"name":"정동진바다횟집","tel":"031-885-0046","addr":"경기도 여주시 하동 416-8번지","category":"일반휴게음식 - 일반한식"}]},{"lat":"37.298633218","long":"127.63311461","items":[{"name":"정원뚝배기","tel":"031-883-2878","addr":"경기도 여주시 하동 196-10번지","category":"일반휴게음식 - 일반한식"}]},{"lat":"37.30124809","long":"127.62422618","items":[{"name":"조선막국수","tel":"031-882-2279","addr":"경기도 여주시 하동 434-6번지 1층","category":"일반휴게음식 - 일반한식"}]},{"lat":"37.300465106","long":"127.63088543","items":[{"name":"조퓨처(JOFUTURE)","tel":"031-882-2400","addr":"경기도 여주시 하동 123-8번지","category":"보건위생 - 미용원"}]},{"lat":"37.2979688415","long":"127.6326692087","items":[{"name":"종로상회","tel":"031-885-1773","addr":"경기도 여주시 하동 249-15번지","category":"주방용구 - 주방용식기"},{"name":"태창철물","tel":"031-885-3415","addr":"경기도 여주시 하동 249-15번지","category":"건축자재 - 목재·석재·철물"}]},{"lat":"37.3009957","long":"127.62424666","items":[{"name":"종로주단","tel":"031-884-6382","addr":"경기도 여주시 하동 249-14번지","category":"직물 - 옷감·직물"}]},{"lat":"37.300024468","long":"127.63072387","items":[{"name":"주식회사한잠","tel":"031-883-9559","addr":"경기도 여주시 하동 123-6번지 A","category":"농업 - 농기계"}]},{"lat":"37.300304999","long":"127.62194013","items":[{"name":"주원산오리 로이씨앤디(로이C&D)","tel":"031-000-0000","addr":"경기도 여주시 하동 429-14번지","category":"음료식품 - 정육점"}]},{"lat":"37.300990646","long":"127.62691968","items":[{"name":"죽이야기 여주고려병원점","tel":"031-881-6060","addr":"경기도 여주시 하동 120-3번지 1층","category":"일반휴게음식 - 일반한식"}]},{"lat":"37.301636902","long":"127.6222443","items":[{"name":"중앙냉동","tel":"031-885-8484","addr":"경기도 여주시 하동 430-1번지","category":"전기제품 - 냉열기기"}]},{"lat":"37.298944168","long":"127.63224876","items":[{"name":"진이포차카페","tel":"031-882-6813","addr":"경기도 여주시 하동 187-12번지","category":"일반휴게음식 - 주점"}]},{"lat":"37.298412238","long":"127.63400375","items":[{"name":"차광세차장","tel":"031-884-4552","addr":"경기도 여주시 하동 218번지","category":"자동차정비 유지 - 세차장"}]},{"lat":"37.299025855","long":"127.63213666","items":[{"name":"철제건강원","tel":"031-883-1109","addr":"경기도 여주시 하동 187-2번지","category":"건강식품 - 기타건강식품"}]},{"lat":"37.299915656","long":"127.6325501","items":[{"name":"청심정","tel":"031-886-2580","addr":"경기도 여주시 하동 168-2번지","category":"일반휴게음식 - 일반한식"}]},{"lat":"37.300439746","long":"127.62716326","items":[{"name":"청천유통","tel":"031-882-8022","addr":"경기도 여주시 하동 129-14번지","category":"음료식품 - 농·축·수산품"}]},{"lat":"37.298800533","long":"127.62875125","items":[{"name":"크린업24셀프빨래방 여주중앙점","tel":"031-1234-5678","addr":"경기도 여주시 하동 134-10번지 1층 101호","category":"수리서비스 - 세탁소"}]},{"lat":"37.299580639","long":"127.62605086","items":[{"name":"크린크린빨래방","tel":"031-885-5925","addr":"경기도 여주시 하동 274-1번지","category":"수리서비스 - 세탁소"}]},{"lat":"37.297136107","long":"127.63338407","items":[{"name":"큰샘학원","tel":"031-883-5155","addr":"경기도 여주시 하동 278-1번지","category":"학원 - 보습학원"}]},{"lat":"37.297576401","long":"127.63021856","items":[{"name":"태능오리유통","tel":"031-884-5251","addr":"경기도 여주시 하동 137-10번지","category":"음료식품 - 정육점"}]},{"lat":"37.2989635124","long":"127.6336925621","items":[{"name":"태성진동물병원","tel":"031-882-6615","addr":"경기도 여주시 하동 200-2번지","category":"기타의료기관 - 동물병원"}]},{"lat":"37.299686855","long":"127.62641265","items":[{"name":"태성휀스","tel":"031-882-7086","addr":"경기도 여주시 하동 130-19번지","category":"건축자재 - 기타건축자재"}]},{"lat":"37.298909029","long":"127.63207929","items":[{"name":"태평양 대구뽈찜.아구찜","tel":"031-882-5177","addr":"경기도 여주시 하동 187-11번지","category":"일반휴게음식 - 일반한식"}]},{"lat":"37.299026545","long":"127.63030955","items":[{"name":"태후사랑","tel":"031-884-3292","addr":"경기도 여주시 하동 125-18번지","category":"보건위생 - 화장품"}]},{"lat":"37.297303132","long":"127.62907719","items":[{"name":"트랜폴린파크","tel":"031-881-5770","addr":"경기도 여주시 하동 400-1번지","category":"레저업소 - 기타레져업소"}]},{"lat":"37.298471944","long":"127.63294408","items":[{"name":"튼튼스마트에듀","tel":"031-714-3981","addr":"경기도 여주시 하동 191-5번지 1층 2호","category":"서적문구 - 일반서적"}]},{"lat":"37.300274477","long":"127.62774838","items":[{"name":"팔선","tel":"031-885-8686","addr":"경기도 여주시 하동 129-33번지","category":"일반휴게음식 - 중국식"}]},{"lat":"37.2985801730","long":"127.6346141892","items":[{"name":"퍼펙트씽크","tel":"031-886-2403","addr":"경기도 여주시 하동 214-2번지","category":"주방용구 - 주방용구"}]},{"lat":"37.297464897","long":"127.63424396","items":[{"name":"페르챠","tel":"031-0000-0000","addr":"경기도 여주시 하동 268-4번지","category":"의류 - 정장"},{"name":"한글빵카페","tel":"031-8051-3800","addr":"경기도 여주시 하동 268-4번지","category":"일반휴게음식 - 서양음식"}]},{"lat":"37.300134326","long":"127.6252772","items":[{"name":"포세이돈","tel":"031-885-3001","addr":"경기도 여주시 하동 419-5번지 1층","category":"주방용구 - 주방용구"}]},{"lat":"37.290583409","long":"127.63719747","items":[{"name":"피아노마을음악학원","tel":"031-884-7576","addr":"경기도 여주시 하동 232번지","category":"학원 - 예·체능계학원"}]},{"lat":"37.299826505","long":"127.62897404","items":[{"name":"하나TDS","tel":"031-884-9923","addr":"경기도 여주시 하동 127-7번지 하나TDS","category":"신변잡화 - 기타잡화"}]},{"lat":"37.296381438","long":"127.63128005","items":[{"name":"하동모바일통신","tel":"","addr":"경기도 여주시 하동 405번지","category":"사무통신 - 통신기기"}]},{"lat":"37.297275792","long":"127.63083636","items":[{"name":"하동웰빙","tel":"","addr":"경기도 여주시 하동 312-3번지","category":"가구 - 기타가구"}]},{"lat":"37.297801196","long":"127.63200239","items":[{"name":"하리두부전골올갱이해장국","tel":"","addr":"경기도 여주시 하동 315-7번지 1층","category":"일반휴게음식 - 일반한식"}]},{"lat":"37.297770443","long":"127.62930663","items":[{"name":"하리모터스","tel":"031-885-6060","addr":"경기도 여주시 하동 137번지","category":"자동차정비 유지 - 자동차정비"}]},{"lat":"37.298103727","long":"127.6310237","items":[{"name":"하리식당","tel":"031-885-2016","addr":"경기도 여주시 하동 323-4번지","category":"일반휴게음식 - 일반한식"}]},{"lat":"37.297991598","long":"127.63177841","items":[{"name":"하리신발슈퍼열쇠","tel":"031-885-2809","addr":"경기도 여주시 하동 183-6번지","category":"유통업 영리 - 슈퍼마켓"}]},{"lat":"37.29955345","long":"127.63119365","items":[{"name":"하리플란트치과의원","tel":"031-883-2824","addr":"경기도 여주시 하동 123-21번지","category":"의원 - 치과의원"}]},{"lat":"37.299576851","long":"127.62505832","items":[{"name":"하이퍼씽크","tel":"031-885-7283","addr":"경기도 여주시 하동 419-13번지","category":"주방용구 - 주방용구"}]},{"lat":"37.296998437","long":"127.6338566","items":[{"name":"한나피아노교습소","tel":"031-881-6577","addr":"경기도 여주시 하동 277-5번지","category":"학원 - 예·체능계학원"}]},{"lat":"37.299524947","long":"127.62977232","items":[{"name":"한사랑2","tel":"","addr":"경기도 여주시 하동 127-19번지 1층","category":"건강식품 - 기타건강식품"},{"name":"한사랑의원","tel":"031-886-0075","addr":"경기도 여주시 하동 127-19번지","category":"의원 - 의원"}]},{"lat":"37.2985211357","long":"127.6338580437","items":[{"name":"한성","tel":"031-883-7165","addr":"경기도 여주시 하동 215-1번지","category":"건축자재 - 건축용 요업제품"}]},{"lat":"37.299218376","long":"127.62811184","items":[{"name":"한우농가마을","tel":"031-884-8876","addr":"경기도 여주시 하동 128-42번지","category":"일반휴게음식 - 일반한식"}]},{"lat":"37.295472296","long":"127.6311146","items":[{"name":"한일수도설비","tel":"031-886-0388","addr":"경기도 여주시 하동 407-8번지","category":"건축자재 - 보일러·펌프·샷시"}]},{"lat":"37.2981627764","long":"127.6351633367","items":[{"name":"한일철물설비","tel":"031-885-2646","addr":"경기도 여주시 하동 224-2번지","category":"기타 - 기계공구"}]},{"lat":"37.299329662","long":"127.63430466","items":[{"name":"향미장","tel":"031-884-2781","addr":"경기도 여주시 하동 203-2번지","category":"일반휴게음식 - 일반한식"}]},{"lat":"37.296575517","long":"127.63205985","items":[{"name":"현대공업사","tel":"031-885-0167","addr":"경기도 여주시 하동 307-3번지","category":"건축자재 - 기타건축자재"}]},{"lat":"37.300079081","long":"127.62550232","items":[{"name":"현대종합주방","tel":"031-885-3001","addr":"경기도 여주시 하동 419-6번지","category":"전기제품 - 기타전기제품"}]},{"lat":"37.298133835","long":"127.6321405","items":[{"name":"홍어&족발","tel":"031-384-4789","addr":"경기도 여주시 하동 317-7번지 1층","category":"일반휴게음식 - 일반한식"}]},{"lat":"37.29796415","long":"127.63185713","items":[{"name":"황금룡","tel":"031-883-9222","addr":"경기도 여주시 하동 318-4번지","category":"일반휴게음식 - 중국식"}]},{"lat":"37.30004889","long":"127.62267114","items":[{"name":"황금코다리","tel":"031-885-8799","addr":"경기도 여주시 하동 415-3번지","category":"일반휴게음식 - 일반한식"}]},{"lat":"37.2984078035","long":"127.6297517708","items":[{"name":"흙지농약","tel":"031-884-2601","addr":"경기도 여주시 하동 135번지","category":"농업 - 비료,사료,종자"}]},{"lat":"37.296993273","long":"127.63313476","items":[{"name":"흥농영농조합법인","tel":"031-883-5957","addr":"경기도 여주시 하동 291-1번지","category":"음료식품 - 농·축·수산품"},{"name":"흥농종묘농약사","tel":"031-885-2638","addr":"경기도 여주시 하동 291-1번지","category":"농업 - 비료,사료,종자"}]},{"lat":"37.298549968","long":"127.62671906","items":[{"name":"희망식당","tel":"031-885-4023","addr":"경기도 여주시 하동 180-1번지 하리시장","category":"일반휴게음식 - 일반한식"}]},{"lat":"37.299773938","long":"127.62869164","items":[{"name":"희망자동차병원","tel":"031-882-1144","addr":"경기도 여주시 하동 127-2번지","category":"자동차정비 유지 - 자동차정비"}]}]