[{"lat":"37.080009107","long":"127.06358854","items":[{"name":"\"묘한카페  (마이비 인터내셔널)\"","tel":"031-666-6654","addr":"경기도 평택시 지산동 1125번지 102호","category":"소매업 - 카페"},{"name":"김가네떡사랑","tel":"031-663-3329","addr":"경기도 평택시 지산동 1125번지","category":"음료식품 - 제과점"},{"name":"뇌벨업학원","tel":"031-616-0580","addr":"경기도 평택시 지산동 1125번지 3층 일부","category":"학원 - 보습학원"},{"name":"등촌샤브칼국수","tel":"031-665-8821","addr":"경기도 평택시 지산동 1125번지 지층","category":"일반휴게음식 - 일반한식"},{"name":"리디안 음악학원","tel":"070-8967-2730","addr":"경기도 평택시 지산동 1125번지 3층","category":"학원 - 예·체능계학원"},{"name":"리디안음악학원","tel":"031-664-7272","addr":"경기도 평택시 지산동 1125번지 3층","category":"서비스업 - 교육"},{"name":"베라텔레콤","tel":"031-667-8010","addr":"경기도 평택시 지산동 1125번지","category":"사무통신 - 통신기기"},{"name":"클라라","tel":"031-666-1862","addr":"경기도 평택시 지산동 1125번지 일부 1층","category":"의류 - 정장"},{"name":"평택공인중개사사무소","tel":"031-611-0996","addr":"경기도 평택시 지산동 1125번지 1층","category":"서비스업 - 부동산"},{"name":"포테이토데이","tel":"031-664-5032","addr":"경기도 평택시 지산동 1125번지","category":"일반휴게음식 - 일반한식"},{"name":"하노버","tel":"031-611-0747","addr":"경기도 평택시 지산동 1125번지 2층","category":"일반휴게음식 - 주점"}]},{"lat":"37.080427179","long":"127.05612141","items":[{"name":"(구)시골집","tel":"031-663-5760","addr":"경기도 평택시 지산동 764-6번지","category":"일반휴게음식 - 일반한식"},{"name":"구)시골집","tel":"031-662-4805","addr":"경기도 평택시 지산동 764-6번지","category":"음식점 - 한식"}]},{"lat":"37.070956662","long":"127.07406147","items":[{"name":"(재)평택시청소년재단","tel":"031-610-4508","addr":"경기도 평택시 지산동 519-24번지","category":"레저업소 - 기타레져업소"}]},{"lat":"37.080595812","long":"127.0615647","items":[{"name":"(주)경기이피에스","tel":"031-666-1250","addr":"경기도 평택시 지산동 1056번지 102호","category":"용역 서비스 - 종합용역"},{"name":"경기건설이피에스 주식회사","tel":"070-4282-2506","addr":"경기도 평택시 지산동 1056번지 1층","category":"용역 서비스 - 기타용역서비스"}]},{"lat":"37.080370207","long":"127.06225054","items":[{"name":"(주)스피드광고기획","tel":"031-667-2862","addr":"경기도 평택시 지산동 1066번지 정원빌딩 지하","category":"서적문구 - 정기간행물"},{"name":"GMA해동검도&합기도","tel":"031-665-2587","addr":"경기도 평택시 지산동 1066번지 정원빌딩 2층","category":"학원 - 예·체능계학원"},{"name":"사단법인 장애인 권익지원 협회","tel":"031-663-5840","addr":"경기도 평택시 지산동 1066번지 1층","category":"제조업 - 현수막"},{"name":"예지음악학원","tel":"","addr":"경기도 평택시 지산동 1066번지 정원빌딩 4층","category":"학원 - 예·체능계학원"},{"name":"주식회사디엔써컴퍼니","tel":"070-5022-4846","addr":"경기도 평택시 지산동 1066번지 정원빌딩 B1호","category":"용역 서비스 - 종합용역"}]},{"lat":"37.082065455","long":"127.05967643","items":[{"name":"(주)신영씨엔에스","tel":"031-666-3358","addr":"경기도 평택시 지산동 1007번지","category":"용역 서비스 - 종합용역"},{"name":"두꺼비섬","tel":"031-611-8381","addr":"경기도 평택시 지산동 1007번지","category":"일반휴게음식 - 일반한식"},{"name":"힐스템건강","tel":"031-656-8125","addr":"경기도 평택시 지산동 1007번지 2층","category":"보건위생 - 피부미용실"}]},{"lat":"37.082291702","long":"127.05758476","items":[{"name":"(주)신우이앤지","tel":"031-611-6473","addr":"경기도 평택시 지산동 744-3번지 화신노블레스1 상가 1층 106호","category":"용역 서비스 - 종합용역"},{"name":"깨숙이포차","tel":"031-663-3267","addr":"경기도 평택시 지산동 744-3번지","category":"일반휴게음식 - 주점"},{"name":"깨숙이포차","tel":"031-665-4944","addr":"경기도 평택시 지산동 744-3번지 화신노블레스1 1층","category":"음식점 - 일반"},{"name":"맘짜글이","tel":"031-667-1442","addr":"경기도 평택시 지산동 744-3번지 화신노블레스1차 1층 107호","category":"일반휴게음식 - 일반한식"},{"name":"씨유송탄노블레스점","tel":"02-1577-8007","addr":"경기도 평택시 지산동 744-3번지 화신노블레스1 105호","category":"유통업 영리 - 편 의 점"},{"name":"얼큰이찌개마을 송탄점","tel":"031-663-1217","addr":"경기도 평택시 지산동 744-3번지","category":"음식점 - 한식"},{"name":"얼큰이찌개마을 송탄점","tel":"031-666-2508","addr":"경기도 평택시 지산동 744-3번지 화신노블레스1 104호","category":"일반휴게음식 - 일반한식"},{"name":"옵틱프레임1","tel":"","addr":"경기도 평택시 지산동 744-3번지 화신노블레스1 205호","category":"보건위생 - 안경"},{"name":"화신노블레스호프","tel":"","addr":"경기도 평택시 지산동 744-3번지 화신노블레스1 106호","category":"일반휴게음식 - 주점"}]},{"lat":"37.077542922","long":"127.05803118","items":[{"name":"(주)신화퍼크린","tel":"031-664-0618","addr":"경기도 평택시 지산동 782-6번지","category":"용역 서비스 - 종합용역"},{"name":"페이스독","tel":"","addr":"경기도 평택시 지산동 782-6번지","category":"서비스업 - 애견샵"},{"name":"휴에이치","tel":"070-4001-7347","addr":"경기도 평택시 지산동 782-6번지","category":"보건위생 - 미용원"},{"name":"휴에이치","tel":"031-611-5082","addr":"경기도 평택시 지산동 782-6번지","category":"서비스업 - 이미용"}]},{"lat":"37.078341499","long":"127.08019737","items":[{"name":"(주)씨에스가스산업","tel":"031-666-9865","addr":"경기도 평택시 지산동 311-9번지","category":"용역 서비스 - 기타용역서비스"}]},{"lat":"37.079372262","long":"127.0576164","items":[{"name":"(주)에스.벤","tel":"031-668-3211","addr":"경기도 평택시 지산동 773-7번지","category":"여행 - 관광여행"},{"name":"노리터PC","tel":"031-663-1616","addr":"경기도 평택시 지산동 773-7번지","category":"레저업소 - 기타레져업소"},{"name":"판다아울렛DC백화점","tel":"031-611-6906","addr":"경기도 평택시 지산동 773-7번지","category":"소매업 - 백화점"}]},{"lat":"37.081370672","long":"127.07767002","items":[{"name":"(주)준연테크","tel":"031-611-0069","addr":"경기도 평택시 지산동 414번지 101호","category":"용역 서비스 - 기타용역서비스"},{"name":"경기유통","tel":"031-665-2098","addr":"경기도 평택시 지산동 414번지 302호","category":"유통업 영리 - 기타유통업"}]},{"lat":"37.079930724","long":"127.05803291","items":[{"name":"(주)지현","tel":"031-665-4989","addr":"경기도 평택시 지산동 770-2번지","category":"레져용품 - 악기점"},{"name":"샤넬헤어","tel":"031-611-4129","addr":"경기도 평택시 지산동 770-2번지","category":"보건위생 - 미용원"},{"name":"주식회사화청","tel":"031-662-1875","addr":"경기도 평택시 지산동 770-2번지","category":"신변잡화 - 기타잡화"},{"name":"커피볶는집여섯번째이야기","tel":"031-666-2149","addr":"경기도 평택시 지산동 770-2번지 외1필지 2층","category":"일반휴게음식 - 서양음식"},{"name":"필립동물병원","tel":"031-611-1766","addr":"경기도 평택시 지산동 770-2번지","category":"기타의료기관 - 동물병원"}]},{"lat":"37.080094174","long":"127.05525523","items":[{"name":"123언어심리연구소","tel":"031-8094-1455","addr":"경기도 평택시 지산동 766-2번지 2층","category":"보건위생 - 기타대인서비스"},{"name":"송탄약품(의료기)","tel":"031-666-3932","addr":"경기도 평택시 지산동 766-2번지","category":"도소매업 - 의료기기"},{"name":"송탄의료기","tel":"031-668-2622","addr":"경기도 평택시 지산동 766-2번지","category":"기타의료기관 - 기타의료기관 및 기타"},{"name":"평택에이비에이언어행동연구소","tel":"031-8094-1455","addr":"경기도 평택시 지산동 766-2번지 2층","category":"학원 - 기타 교육기관"}]},{"lat":"37.081733099","long":"127.05747189","items":[{"name":"123한의원","tel":"031-667-1075","addr":"경기도 평택시 지산동 753-11번지 2층","category":"의원 - 한의원"},{"name":"123한의원","tel":"031-662-8828","addr":"경기도 평택시 지산동 753-11번지","category":"서비스업 - 병원"},{"name":"D.C프라자","tel":"031-665-9112","addr":"경기도 평택시 지산동 753-11번지","category":"유통업 영리 - 기타유통업"},{"name":"DC프라자","tel":"070-8967-2730","addr":"경기도 평택시 지산동 753-11번지","category":"소매업 - 잡화"}]},{"lat":"37.080180968","long":"127.06228413","items":[{"name":"1719고등학원","tel":"031-662-1719","addr":"경기도 평택시 지산동 1067번지 2층 전부","category":"학원 - 보습학원"},{"name":"대양종합장식","tel":"031-667-8708","addr":"경기도 평택시 지산동 1067번지","category":"직물 - 카페트,커튼,천막,지물"},{"name":"라온헤어","tel":"031-622-3985","addr":"경기도 평택시 지산동 1067번지","category":"보건위생 - 미용원"},{"name":"코리아당구클럽","tel":"070-8942-6130","addr":"경기도 평택시 지산동 1067 3층,4층","category":"레저업소 - 당 구 장"}]},{"lat":"37.076627533","long":"127.08314198","items":[{"name":"1급세경자동차공업사","tel":"031-665-8226","addr":"경기도 평택시 지산동 339번지","category":"자동차정비 유지 - 자동차정비"}]},{"lat":"37.082570669","long":"127.05836097","items":[{"name":"21세기자동차공업사","tel":"031-663-7200","addr":"경기도 평택시 지산동 746-3번지","category":"자동차정비 유지 - 자동차정비"},{"name":"CB통신","tel":"031-667-8347","addr":"경기도 평택시 지산동 746-3번지","category":"사무통신 - 통신기기"}]},{"lat":"37.076786857","long":"127.05623133","items":[{"name":"88슈퍼","tel":"031-662-0406","addr":"경기도 평택시 지산동 824-13번지","category":"유통업 영리 - 슈퍼마켓"},{"name":"세븐일레븐평택송탄중앙점","tel":"","addr":"경기도 평택시 지산동 824-13번지","category":"유통업 영리 - 편 의 점"}]},{"lat":"37.079035722","long":"127.0640601","items":[{"name":"BHC송탄지산점","tel":"031-662-0265","addr":"경기도 평택시 지산동 1134번지 미주2차아파트","category":"음식점 - 치킨"},{"name":"김영임헤어클럽","tel":"031-665-5840","addr":"경기도 평택시 지산동 1134번지 미주2차 상가 207호","category":"서비스업 - 미용"},{"name":"명주공인중개사사무소","tel":"031-611-2799","addr":"경기도 평택시 지산동 1134번지 미주2차아파트 110호","category":"서비스업 - 부동산"},{"name":"미주정육점","tel":"031-665-7720","addr":"경기도 평택시 지산동 1134번지 미주2차 상가 111호","category":"소매업 - 정육"},{"name":"미주할인마트","tel":"031-662-6694","addr":"경기도 평택시 지산동 1134번지 지하상가","category":"소매업 - 슈퍼"},{"name":"유진유치원[아이행복]","tel":"031-664-3577","addr":"경기도 평택시 지산동 1134","category":"학원 - 유치원"},{"name":"토닥토닥","tel":"031-664-0896","addr":"경기도 평택시 지산동 1134번지 미주2차 상가 206호","category":"소매업 - 화장품"}]},{"lat":"37.081706113","long":"127.05737066","items":[{"name":"BYC 혜린유통","tel":"031-667-1243","addr":"경기도 평택시 지산동 753-23번지","category":"소매업 - 의류"},{"name":"혜린유통","tel":"031-668-9222","addr":"경기도 평택시 지산동 753-23번지","category":"의류 - 내의판매"}]},{"lat":"37.078904042","long":"127.05689632","items":[{"name":"CU송탄터미널","tel":"031-667-1591","addr":"경기도 평택시 지산동 807-15번지","category":"소매업 - 편의점"},{"name":"씨유송탄터미널점","tel":"031-663-0515","addr":"경기도 평택시 지산동 807-15번지 1층","category":"유통업 영리 - 편 의 점"}]},{"lat":"37.076876575","long":"127.05708606","items":[{"name":"GS25 지산중앙점","tel":"031-662-7400","addr":"경기도 평택시 지산동 800-4번지","category":"소매업 - 편의점"},{"name":"GS25지산중앙점","tel":"","addr":"경기도 평택시 지산동 800-4번지","category":"유통업 영리 - 편 의 점"},{"name":"늘푸른약국","tel":"031-665-0805","addr":"경기도 평택시 지산동 800-4번지","category":"약국 - 약국"},{"name":"지산수입코너","tel":"031-666-5090","addr":"경기도 평택시 지산동 800-4번지","category":"음료식품 - 기타음료식품"}]},{"lat":"37.080263083","long":"127.07653307","items":[{"name":"GS25송탄동안점","tel":"","addr":"경기도 평택시 지산동 1238-1번지 1동 1층 일부","category":"유통업 영리 - 편 의 점"}]},{"lat":"37.077759524","long":"127.05727787","items":[{"name":"GS25송탄렉스빌점","tel":"","addr":"경기도 평택시 지산동 781-9번지 115호","category":"유통업 영리 - 편 의 점"},{"name":"렉스빌주택관리","tel":"031-667-8892","addr":"경기도 평택시 지산동 781-9번지 렉스빌 113호","category":"서비스업 - 주택관리, 부동산컨설팅"},{"name":"버스폰","tel":"031-663-6693","addr":"경기도 평택시 지산동 781-9번지 렉스빌플러스 117호","category":"사무통신 - 통신기기"},{"name":"봉이치킨","tel":"031-667-0180","addr":"경기도 평택시 지산동 781-9번지 101호","category":"음식점 - 치킨"},{"name":"봉이치킨(지산점)","tel":"031-666-9957","addr":"경기도 평택시 지산동 781-9번지 101호","category":"일반휴게음식 - 스넥"},{"name":"지e오헤어","tel":"031-664-2411","addr":"경기도 평택시 지산동 781-9번지 이한렉스빌플러스 104호","category":"보건위생 - 미용원"},{"name":"지e오헤어","tel":"031-664-8499","addr":"경기도 평택시 지산동 781-9번지 이한렉스빌 104호","category":"서비스업 - 미용"},{"name":"차블리뷰티","tel":"031-0000-0000","addr":"경기도 평택시 지산동 781-9번지 108호","category":"보건위생 - 피부미용실"},{"name":"차블리뷰티","tel":"031-662-0086","addr":"경기도 평택시 지산동 781-9번지","category":"서비스업 - 이미용"},{"name":"크린토피아 송탄터미널점","tel":"031-666-1900","addr":"경기도 평택시 지산동 781-9번지 103호","category":"수리서비스 - 세탁소"},{"name":"투썸플레이스 (송탄렉스빌점)","tel":"031-662-7400","addr":"경기도 평택시 지산동 781-9번지 109,110,111,112호","category":"일반휴게음식 - 서양음식"},{"name":"투썸플레이스 송탄렉스빌점","tel":"031-668-0706","addr":"경기도 평택시 지산동 781-9번지","category":"음식점 - 휴게음식"}]},{"lat":"37.073794259","long":"127.05859072","items":[{"name":"GS25평택송탄로점","tel":"080-555-2525","addr":"경기도 평택시 지산동 864-10번지","category":"유통업 영리 - 편 의 점"}]},{"lat":"37.081930042","long":"127.06020491","items":[{"name":"HERB-WORLD","tel":"031-668-2942","addr":"경기도 평택시 지산동 998번지","category":"보건위생 - 화장품"},{"name":"가래골묵은지","tel":"031-666-1071","addr":"경기도 평택시 지산동 998번지","category":"음식점 - 한식"},{"name":"가래골묵은지","tel":"031-662-4536","addr":"경기도 평택시 지산동 998번지","category":"일반휴게음식 - 일반한식"},{"name":"현주네포차","tel":"031-668-8911","addr":"경기도 평택시 지산동 998번지","category":"일반휴게음식 - 일반한식"}]},{"lat":"37.079289266","long":"127.07761175","items":[{"name":"HYUNDAI MnSOFT","tel":"031-665-4907","addr":"경기도 평택시 지산동 432-4번지","category":"자동차정비 유지 - 자동차부품"},{"name":"현대소프트","tel":"031-666-6415","addr":"경기도 평택시 지산동 432-4번지","category":"도소매업 - 네비게이션, 블랙박스"}]},{"lat":"37.079514516","long":"127.06162009","items":[{"name":"JS 댄스스쿨","tel":"031-663-4776","addr":"경기도 평택시 지산동 1075번지","category":"회원제형태 - 레져업소"},{"name":"새시장약국","tel":"031-662-6004","addr":"경기도 평택시 지산동 1075번지 1층","category":"소매업 - 약국"},{"name":"새시장약국","tel":"031-665-3921","addr":"경기도 평택시 지산동 1075번지 1층","category":"약국 - 약국"},{"name":"한일경희태권도","tel":"031-667-3419","addr":"경기도 평택시 지산동 1075번지","category":"학원 - 예·체능계학원"}]},{"lat":"37.08131914","long":"127.05631323","items":[{"name":"JUN농장","tel":"031-667-5159","addr":"경기도 평택시 지산동 756-4번지","category":"도소매업 - 식자재"}]},{"lat":"37.080787113","long":"127.0572013","items":[{"name":"JUN농장","tel":"031-664-4547","addr":"경기도 평택시 지산동 757-44번지 1층","category":"음료식품 - 기타음료식품"}]},{"lat":"37.076903374","long":"127.05759213","items":[{"name":"KS정보통신","tel":"031-665-4029","addr":"경기도 평택시 지산동 798-14번지 2층","category":"사무통신 - 통신기기"},{"name":"루나헤어","tel":"031-684-6002","addr":"경기도 평택시 지산동 798-14번지","category":"서비스업 - 이미용"},{"name":"루나헤어","tel":"031-667-0180","addr":"경기도 평택시 지산동 798-14번지 102호","category":"보건위생 - 미용원"},{"name":"뷰티레이디클럽","tel":"031-665-8883","addr":"경기도 평택시 지산동 798-14번지","category":"보건위생 - 화장품"},{"name":"에이제이이앤씨","tel":"031-653-0242","addr":"경기도 평택시 지산동 798-14번지 4층","category":"용역 서비스 - 기타용역서비스"}]},{"lat":"37.079370569","long":"127.06117014","items":[{"name":"MAX PC ZONE","tel":"031-000-0000","addr":"경기도 평택시 지산동 1073번지 정우빌딩 4층","category":"레저업소 - 기타레져업소"},{"name":"고려대태권도","tel":"031-667-3111","addr":"경기도 평택시 지산동 1073번지 축협 4층","category":"학원 - 예·체능계학원"},{"name":"세븐일레븐 평택지산제일점","tel":"031-666-0010","addr":"경기도 평택시 지산동 1073번지","category":"소매업 - 편의점"},{"name":"세븐일레븐평택지산제일점","tel":"031-663-0049","addr":"경기도 평택시 지산동 1073번지 1층","category":"유통업 영리 - 편 의 점"},{"name":"송탄참조은치과","tel":"031-667-2881","addr":"경기도 평택시 지산동 1073번지","category":"의원 - 치과의원"},{"name":"송탄한의원","tel":"031-667-2745","addr":"경기도 평택시 지산동 1073번지","category":"의원 - 한의원"},{"name":"송탄한의원","tel":"","addr":"경기도 평택시 지산동 1073번지","category":"서비스업 - 병원"},{"name":"썬당구장","tel":"070-8267-1292","addr":"경기도 평택시 지산동 1073번지","category":"레저업소 - 당 구 장"},{"name":"예당떡","tel":"031-667-2745","addr":"경기도 평택시 지산동 1073번지","category":"제조업 - 떡"},{"name":"코미니 꼬마김밥 지산점","tel":"031-663-0049","addr":"경기도 평택시 지산동 1073번지","category":"음식점 - 분식"},{"name":"코미니지산점","tel":"031-611-5814","addr":"경기도 평택시 지산동 1073번지","category":"일반휴게음식 - 스넥"},{"name":"파리바케뜨지산점","tel":"031-611-0020","addr":"경기도 평택시 지산동 1073번지","category":"음료식품 - 제과점"},{"name":"한마음노래연습장","tel":"031-667-5522","addr":"경기도 평택시 지산동 1073번지","category":"레저업소 - 노 래 방"},{"name":"한양의원","tel":"031-663-0909","addr":"경기도 평택시 지산동 1073번지","category":"서비스업 - 병원"},{"name":"한양의원","tel":"031-665-0682","addr":"경기도 평택시 지산동 1073번지","category":"의원 - 의원"},{"name":"한촌설렁탕","tel":"031-663-4294","addr":"경기도 평택시 지산동 1073번지 1층","category":"일반휴게음식 - 일반한식"},{"name":"한촌설렁탕 평택지산점","tel":"031-664-8705","addr":"경기도 평택시 지산동 1073번지 1층","category":"음식점 - 한식"}]},{"lat":"37.078873807","long":"127.07914079","items":[{"name":"NEW우리모터스","tel":"031-665-9939","addr":"경기도 평택시 지산동 448번지","category":"자동차정비 유지 - 자동차정비"}]},{"lat":"37.074208443","long":"127.05923201","items":[{"name":"O.K카센터","tel":"031-611-3367","addr":"경기도 평택시 지산동 862-9번지","category":"자동차정비 유지 - 세차장"}]},{"lat":"37.078038488","long":"127.05806527","items":[{"name":"OK텔레콤","tel":"","addr":"경기도 평택시 지산동 782-11, 1층","category":"소매업 - 전자기기"},{"name":"헬로타이","tel":"031-664-6466","addr":"경기도 평택시 지산동 782-11, 3층","category":"서비스업 - 마사지"}]},{"lat":"37.077759176","long":"127.05803133","items":[{"name":"PRO&에플커뮤니케이션","tel":"031-663-6020","addr":"경기도 평택시 지산동 782-4번지","category":"전기제품 - 가전제품"},{"name":"대성기획","tel":"031-611-5286","addr":"경기도 평택시 지산동 782-4번지","category":"용역 서비스 - 종합용역"},{"name":"아싸족발","tel":"031-616-3310","addr":"경기도 평택시 지산동 782-4번지","category":"일반휴게음식 - 일반한식"}]},{"lat":"37.082093835","long":"127.05678612","items":[{"name":"SBS노래연습장","tel":"031-662-7573","addr":"경기도 평택시 지산동 742-4번지","category":"레저업소 - 노 래 방"},{"name":"대광헬스크럽","tel":"031-663-7600","addr":"경기도 평택시 지산동 742-4번지","category":"레저업소 - 헬스클럽"},{"name":"은성미용실","tel":"031-666-8275","addr":"경기도 평택시 지산동 742-4번지","category":"서비스업 - 미용"},{"name":"한우마을","tel":"031-668-3939","addr":"경기도 평택시 지산동 742-4번지 한우마을","category":"일반휴게음식 - 일반한식"},{"name":"한우마을","tel":"031-668-3579","addr":"경기도 평택시 지산동 742-4번지","category":"음식점 - 한식"}]},{"lat":"37.075372567","long":"127.05539817","items":[{"name":"SERAPH COFFEE","tel":"031-664-5688","addr":"경기도 평택시 지산동 830-10번지 1층","category":"일반휴게음식 - 서양음식"},{"name":"새하얀미용실","tel":"031-663-3690","addr":"경기도 평택시 지산동 830-10번지","category":"보건위생 - 미용원"},{"name":"세라프카페","tel":"031-662-3675","addr":"경기도 평택시 지산동 830-10번지","category":"음식점 - 카페"}]},{"lat":"37.079649316","long":"127.06233994","items":[{"name":"SJ 매점","tel":"","addr":"경기도 평택시 지산동 1078번지 서울프라자 1층","category":"소매업 - 카페"},{"name":"SJ매점","tel":"031-662-5641","addr":"경기도 평택시 지산동 1078번지 서울프라자 1층","category":"음료식품 - 기타음료식품"},{"name":"광명당인업사","tel":"062-225-3449","addr":"경기도 평택시 지산동 1078번지","category":"서적문구 - 문구용품"},{"name":"김치과의원","tel":"031-664-3379","addr":"경기도 평택시 지산동 1078번지","category":"서비스업 - 병원"},{"name":"김치과의원","tel":"031-662-8388","addr":"경기도 평택시 지산동 1078번지 부천프라자 304호","category":"의원 - 치과의원"},{"name":"로얄헬스클럽","tel":"031-611-2823","addr":"경기도 평택시 지산동 1078번지 부천프라자 5층 502호","category":"회원제형태 - 레져업소"},{"name":"서울제일병원","tel":"031-666-3369","addr":"경기도 평택시 지산동 1078번지","category":"서비스업 - 병원"},{"name":"서울프라자","tel":"031-615-7626","addr":"경기도 평택시 지산동 1078번지","category":"자동차정비 유지 - 주차장"},{"name":"키드맵","tel":"031-611-3170","addr":"경기도 평택시 지산동 1078번지","category":"의류 - 아동의류"}]},{"lat":"37.077318782","long":"127.05555696","items":[{"name":"ST LED DIY SHOP","tel":"031-663-3190","addr":"경기도 평택시 지산동 818-5번지 에어타운","category":"건축자재 - 조명기구"}]},{"lat":"37.079848101","long":"127.06122674","items":[{"name":"TOP CLASS PC","tel":"","addr":"경기도 평택시 지산동 714-11번지 중앙빌딩 3층","category":"레저업소 - 기타레져업소"},{"name":"죽마을 지산점","tel":"031-667-1509","addr":"경기도 평택시 지산동 714-11번지","category":"음식점 - 한식"},{"name":"죽마을지산점","tel":"031-667-7791","addr":"경기도 평택시 지산동 714-11번지 외1필지중앙빌딩 101호","category":"일반휴게음식 - 일반한식"},{"name":"중앙당구장","tel":"031-665-1693","addr":"경기도 평택시 지산동 714-11번지 중앙빌딩 2층","category":"레저업소 - 당 구 장"}]},{"lat":"37.080146836","long":"127.05833671","items":[{"name":"TOP시스템","tel":"031-667-7111","addr":"경기도 평택시 지산동 761-27번지","category":"사무통신 - 컴퓨터"}]},{"lat":"37.076786044","long":"127.05800814","items":[{"name":"right as rain(라잇애즈레인)","tel":"031-665-6252","addr":"경기도 평택시 지산동 796-1번지 1층","category":"음식점 - 커피"},{"name":"대한광고","tel":"031-665-1123","addr":"경기도 평택시 지산동 796-1번지","category":"용역 서비스 - 종합용역"},{"name":"라잇애즈레인(right as rain)","tel":"031-8094-0326","addr":"경기도 평택시 지산동 796-1번지 1층","category":"일반휴게음식 - 서양음식"},{"name":"문리버스튜디오","tel":"070-4119-7882","addr":"경기도 평택시 지산동 796-1번지","category":"광학제품 - 사진관"},{"name":"앤틱빈티지스토리","tel":"","addr":"경기도 평택시 지산동 796-1번지 1층 반지하","category":"가구 - 기타가구"}]},{"lat":"37.081787043","long":"127.0577306","items":[{"name":"㈜신화퍼크린","tel":"031-668-1119","addr":"경기도 평택시 지산동 752-1번지 1층, 2층","category":"제조업 - 인쇄"},{"name":"송탄수족관","tel":"031-663-1478","addr":"경기도 평택시 지산동 752-1번지 1층","category":"문화.취미 - 수족관"},{"name":"송탄수족관","tel":"","addr":"경기도 평택시 지산동 752-1번지","category":"소매업 - 수족관"},{"name":"신세계종합장식","tel":"031-664-2288","addr":"경기도 평택시 지산동 752-1번지","category":"직물 - 카페트,커튼,천막,지물"}]},{"lat":"37.076819699","long":"127.07866641","items":[{"name":"㈜클릭건설","tel":"","addr":"경기도 평택시 지산동 496-7번지","category":"건설업 - 광고물자재, 금속구조물창호"},{"name":"주식회사클릭건설","tel":"031-611-4074","addr":"경기도 평택시 지산동 496-7번지","category":"용역 서비스 - 종합용역"}]},{"lat":"37.080009975","long":"127.06186789","items":[{"name":"가고파","tel":"031-662-1414","addr":"경기도 평택시 지산동 714-15.2","category":"기타 - 기계공구"},{"name":"노란꼬마김밥","tel":"031-666-5245","addr":"경기도 평택시 지산동 714-15번지","category":"음식점 - 분식"},{"name":"노란꼬마김밥","tel":"031-664-7368","addr":"경기도 평택시 지산동 714-15번지 B동 1층","category":"일반휴게음식 - 스넥"},{"name":"쥬노헤어컬리지","tel":"031-668-2323","addr":"경기도 평택시 지산동 714-15번지","category":"서비스업 - 이미용"},{"name":"쥬노헤어컬리지","tel":"031-662-7833","addr":"경기도 평택시 지산동 714-15번지","category":"보건위생 - 미용원"},{"name":"캠퍼스꽃백화점","tel":"031-667-3313","addr":"경기도 평택시 지산동 714-15번지","category":"문화.취미 - 화원"}]},{"lat":"37.077398464","long":"127.05864959","items":[{"name":"가나안유통","tel":"031-668-9394","addr":"경기도 평택시 지산동 784-3번지 1층","category":"신변잡화 - 기타잡화"}]},{"lat":"37.082598072","long":"127.05756248","items":[{"name":"가보자횟집","tel":"031-663-2340","addr":"경기도 평택시 지산동 735-36번지","category":"음식점 - 일식"},{"name":"가보자횟집","tel":"031-668-7821","addr":"경기도 평택시 지산동 735-36번지","category":"일반휴게음식 - 일식·회집"},{"name":"의형","tel":"031-666-3210","addr":"경기도 평택시 지산동 735-36번지 상가 C동","category":"일반휴게음식 - 중국식"},{"name":"조은식당","tel":"031-667-9487","addr":"경기도 평택시 지산동 735-36번지","category":"일반휴게음식 - 일반한식"}]},{"lat":"37.074511273","long":"127.09392399","items":[{"name":"가온누리어린이집[아이행복]","tel":"031-667-0995","addr":"경기도 평택시 지산동 84번지","category":"학원 - 유아원"}]},{"lat":"37.081038767","long":"127.05858478","items":[{"name":"가위클럽","tel":"031-668-0332","addr":"경기도 평택시 지산동 759-34번지","category":"보건위생 - 미용원"},{"name":"백세건강원","tel":"","addr":"경기도 평택시 지산동 759-34번지","category":"건강식품 - 기타건강식품"},{"name":"본전식당","tel":"031-666-6294","addr":"경기도 평택시 지산동 759-34번지","category":"일반휴게음식 - 일반한식"}]},{"lat":"37.079678428","long":"127.05803272","items":[{"name":"가자주류송탄점","tel":"031-611-1030","addr":"경기도 평택시 지산동 773-8번지","category":"음료식품 - 기타음료식품"},{"name":"둥지노래연습장","tel":"031-664-8540","addr":"경기도 평택시 지산동 773-8번지 지하 A호","category":"레저업소 - 노 래 방"},{"name":"제이케이텔레콤","tel":"031-656-1228","addr":"경기도 평택시 지산동 773-8번지 1층 C호","category":"사무통신 - 통신기기"},{"name":"주모리","tel":"031-665-7340","addr":"경기도 평택시 지산동 773-8번지 2층","category":"일반휴게음식 - 주점"}]},{"lat":"37.077037951","long":"127.0588405","items":[{"name":"감나무집","tel":"031-663-0909","addr":"경기도 평택시 지산동 788번지","category":"일반휴게음식 - 일반한식"},{"name":"감나무집","tel":"031-663-5760","addr":"경기도 평택시 지산동 788번지","category":"음식점 - 한식"}]},{"lat":"37.074677976","long":"127.08784047","items":[{"name":"강산영양탕","tel":"031-664-5414","addr":"경기도 평택시 지산동 228-1번지","category":"일반휴게음식 - 일반한식"},{"name":"강산영양탕","tel":"031-664-2468","addr":"경기도 평택시 지산동 228-1번지","category":"음식점 - 한식"}]},{"lat":"37.080706347","long":"127.07366571","items":[{"name":"개똥이네 평택점","tel":"031-654-2989","addr":"경기도 평택시 지산동 594-1번지","category":"서적문구 - 일반서적"},{"name":"행복침구","tel":"031-664-1962","addr":"경기도 평택시 지산동 594-1,1층","category":"직물 - 침구·수예점"}]},{"lat":"37.081264699","long":"127.05714541","items":[{"name":"개미분식","tel":"031-667-1331","addr":"경기도 평택시 지산동 756-52번지","category":"음식점 - 분식"},{"name":"나나상회","tel":"031-668-2241","addr":"경기도 평택시 지산동 756-52번지","category":"제조업 - 떡집"},{"name":"보령식당","tel":"","addr":"경기도 평택시 지산동 756-52번지","category":"음식점 - 한식"},{"name":"보령식당","tel":"031-611-9905","addr":"경기도 평택시 지산동 756-52번지","category":"일반휴게음식 - 일반한식"}]},{"lat":"37.076203983","long":"127.08322025","items":[{"name":"개성손만두","tel":"031-665-4907","addr":"경기도 평택시 지산동 276번지","category":"음식점 - 분식"},{"name":"개성손만두","tel":"031-665-2227","addr":"경기도 평택시 지산동 276번지 1층","category":"일반휴게음식 - 스넥"},{"name":"물텀벙","tel":"031-611-7114","addr":"경기도 평택시 지산동 276번지 2층","category":"일반휴게음식 - 일반한식"}]},{"lat":"37.081562186","long":"127.05684197","items":[{"name":"건강드림내과","tel":"031-663-3399","addr":"경기도 평택시 지산동 753-6번지","category":"서비스업 - 병원"},{"name":"건강드림내과 (건강기능식품)","tel":"031-666-8275","addr":"경기도 평택시 지산동 753-6번지 2층","category":"건강식품 - 기타건강식품"},{"name":"시장상회","tel":"031-665-5949","addr":"경기도 평택시 지산동 753-6번지","category":"음료식품 - 농·축·수산품"},{"name":"시장상회","tel":"031-667-1424","addr":"경기도 평택시 지산동 753-6번지","category":"소매업 - 과일"},{"name":"아침약국","tel":"031-666-5449","addr":"경기도 평택시 지산동 753-6번지","category":"소매업 - 약국"}]},{"lat":"37.07990202","long":"127.07755612","items":[{"name":"건강마당","tel":"031-662-1472","addr":"경기도 평택시 지산동 1238-6번지","category":"건강식품 - 기타건강식품"},{"name":"미림어린이집[아이행복]","tel":"031-662-7703","addr":"경기도 평택시 지산동 1238-6번지","category":"학원 - 유아원"}]},{"lat":"37.080958793","long":"127.05614428","items":[{"name":"경기계란","tel":"","addr":"경기도 평택시 지산동 757-4번지","category":"도소매업 - 계란"},{"name":"경기계란유통","tel":"031-668-3892","addr":"경기도 평택시 지산동 757-4번지","category":"음료식품 - 농·축·수산품"},{"name":"원조성환장터국밥","tel":"031-662-1794","addr":"경기도 평택시 지산동 757-4번지","category":"음식점 - 한식"},{"name":"원조성환장터국밥","tel":"031-668-5555","addr":"경기도 평택시 지산동 757-4번지","category":"일반휴게음식 - 일반한식"}]},{"lat":"37.081570248","long":"127.05888882","items":[{"name":"경란상회","tel":"031-663-1096","addr":"경기도 평택시 지산동 729-11번지","category":"음료식품 - 농·축·수산품"}]},{"lat":"37.080985433","long":"127.05701026","items":[{"name":"경성상회","tel":"031-667-1424","addr":"경기도 평택시 지산동 756-56번지","category":"음료식품 - 농·축·수산품"},{"name":"경성상회","tel":"031-667-2092","addr":"경기도 평택시 지산동 756-56번지","category":"소매업 - 건어물"}]},{"lat":"37.081426672","long":"127.05761787","items":[{"name":"경일사","tel":"031-663-2301","addr":"경기도 평택시 지산동 753-15번지","category":"신변잡화 - 시계"},{"name":"땅스부대찌개(송북시장점)","tel":"","addr":"경기도 평택시 지산동 753-15번지","category":"음료식품 - 기타음료식품"},{"name":"땅스부대찌개(송북시장점)","tel":"031-665-9112","addr":"경기도 평택시 지산동 753-15번지 1층","category":"음식점 - 일반"}]},{"lat":"37.075343045","long":"127.06075098","items":[{"name":"경희어린이집[아이행복]","tel":"031-666-0379","addr":"경기도 평택시 지산동 684-10번지","category":"학원 - 유아원"}]},{"lat":"37.080063014","long":"127.06389223","items":[{"name":"경희한의원","tel":"","addr":"경기도 평택시 지산동 1127번지","category":"서비스업 - 병원"},{"name":"경희한의원","tel":"031-667-3396","addr":"경기도 평택시 지산동 1127번지","category":"의원 - 한의원"},{"name":"골드터치","tel":"031-658-3013","addr":"경기도 평택시 지산동 1127번지","category":"보건위생 - 미용원"},{"name":"꽃나라","tel":"031-666-9568","addr":"경기도 평택시 지산동 1127번지","category":"문화.취미 - 화원"},{"name":"돈벼락우리가쏠께","tel":"031-664-8811","addr":"경기도 평택시 지산동 1127번지 B동","category":"일반휴게음식 - 일반한식"},{"name":"앤호프","tel":"031-666-7922","addr":"경기도 평택시 지산동 1127번지 1층 10호 (1130)","category":"일반휴게음식 - 주점"},{"name":"오레시피","tel":"070-8286-3650","addr":"경기도 평택시 지산동 1127번지","category":"소매업 - 반찬가게"},{"name":"오레시피(평택지산점)","tel":"031-666-6198","addr":"경기도 평택시 지산동 1127번지 1층","category":"음료식품 - 기타음료식품"},{"name":"투다리 송북점","tel":"031-665-0107","addr":"경기도 평택시 지산동 1127번지 외 1필지","category":"일반휴게음식 - 주점"},{"name":"페리카나 지산점","tel":"031-664-7272","addr":"경기도 평택시 지산동 1127번지 1층","category":"일반휴게음식 - 스넥"},{"name":"페리카나 지산점","tel":"031-668-7821","addr":"경기도 평택시 지산동 1127번지 1층","category":"음식점 - 치킨"}]},{"lat":"37.082173759","long":"127.05930538","items":[{"name":"고기구이 야식","tel":"031-664-8119","addr":"경기도 평택시 지산동 749-2번지","category":"일반휴게음식 - 일반한식"}]},{"lat":"37.075235585","long":"127.05936771","items":[{"name":"고기파는사람들","tel":"031-000-0000","addr":"경기도 평택시 지산동 855-1번지","category":"음료식품 - 정육점"},{"name":"지산점기아오토큐","tel":"031-611-7400","addr":"경기도 평택시 지산동 855-1번지","category":"자동차정비 유지 - 자동차정비"}]},{"lat":"37.076426795","long":"127.05542139","items":[{"name":"고덕연탄구이","tel":"031-662-8407","addr":"경기도 평택시 지산동 828-9번지 1층","category":"일반휴게음식 - 일반한식"}]},{"lat":"37.081426801","long":"127.05733672","items":[{"name":"고려 건강원","tel":"031-667-1331","addr":"경기도 평택시 지산동 754-32번지","category":"건강식품 - 기타건강식품"},{"name":"고려건강원","tel":"","addr":"경기도 평택시 지산동 754-32번지","category":"소매업 - 건강기능식품"}]},{"lat":"37.08098384","long":"127.06039538","items":[{"name":"고순네","tel":"031-668-9113","addr":"경기도 평택시 지산동 1015번지","category":"일반휴게음식 - 일반한식"},{"name":"고순네","tel":"031-663-7619","addr":"경기도 평택시 지산동 1015번지 1층","category":"음식점 - 한식"},{"name":"송탄토종한우직판장","tel":"031-665-0016","addr":"경기도 평택시 지산동 1015번지","category":"소매업 - 정육"}]},{"lat":"37.080985268","long":"127.05737014","items":[{"name":"고창수산","tel":"031-733-9589","addr":"경기도 평택시 지산동 756-75번지","category":"음료식품 - 농·축·수산품"},{"name":"소문난상회","tel":"","addr":"경기도 평택시 지산동 756-75번지","category":"소매업 - 슈퍼"},{"name":"예산반찬","tel":"031-662-3796","addr":"경기도 평택시 지산동 756-75번지","category":"소매업 - 반찬"}]},{"lat":"37.078290993","long":"127.05761562","items":[{"name":"골드프라자","tel":"031-668-2718","addr":"경기도 평택시 지산동 779-21번지","category":"신변잡화 - 기타잡화"}]},{"lat":"37.081317247","long":"127.0603619","items":[{"name":"골뺑이","tel":"031-611-6766","addr":"경기도 평택시 지산동 1012번지 우측상가","category":"일반휴게음식 - 주점"},{"name":"하나맘스","tel":"031-664-1990","addr":"경기도 평택시 지산동 1012번지","category":"일반휴게음식 - 일반한식"},{"name":"하나맘스","tel":"031-666-6198","addr":"경기도 평택시 지산동 1012번지","category":"음식점 - 양식"}]},{"lat":"37.081091966","long":"127.06039546","items":[{"name":"공간기획","tel":"031-666-0040","addr":"경기도 평택시 지산동 1014번지","category":"용역 서비스 - 종합용역"},{"name":"헤어매니저","tel":"031-664-1990","addr":"경기도 평택시 지산동 1014번지","category":"서비스업 - 미용"},{"name":"헤어매니저","tel":"031-666-8765","addr":"경기도 평택시 지산동 1014번지 1층","category":"보건위생 - 미용원"}]},{"lat":"37.079201406","long":"127.05686279","items":[{"name":"공인회계사,세무사조용현","tel":"031-663-5679","addr":"경기도 평택시 지산동 807-5번지","category":"용역 서비스 - 법률회계서비스(개인)"},{"name":"선유아구탕","tel":"031-662-9996","addr":"경기도 평택시 지산동 807-5번지 205호","category":"일반휴게음식 - 일반한식"},{"name":"편백소리아","tel":"","addr":"경기도 평택시 지산동 807-5번지","category":"일반휴게음식 - 서양음식"}]},{"lat":"37.079598716","long":"127.05497374","items":[{"name":"공주네건강보리밥집","tel":"031-668-7233","addr":"경기도 평택시 지산동 767-4번지","category":"일반휴게음식 - 일반한식"},{"name":"쥬얼리샵","tel":"031-611-7358","addr":"경기도 평택시 지산동 767-4번지","category":"신변잡화 - 액세서리"}]},{"lat":"37.08211947","long":"127.05977769","items":[{"name":"교촌치킨송탄2호점","tel":"031-668-9949","addr":"경기도 평택시 지산동 995번지","category":"일반휴게음식 - 서양음식"},{"name":"웰빙노래연습장","tel":"031-665-9247","addr":"경기도 평택시 지산동 995번지 지하1층","category":"레저업소 - 노 래 방"},{"name":"평택왕닭발","tel":"031-665-0184","addr":"경기도 평택시 지산동 995번지","category":"일반휴게음식 - 일반한식"}]},{"lat":"37.077620571","long":"127.06500361","items":[{"name":"구어조은닭","tel":"031-663-0079","addr":"경기도 평택시 지산동 1135번지 아주아파트","category":"음식점 - 치킨"},{"name":"다솜심리발달연구소","tel":"","addr":"경기도 평택시 지산동 1135번지 제상가동401호,402호","category":"보건위생 - 기타대인서비스"},{"name":"라임헤어샵","tel":"031-665-1355","addr":"경기도 평택시 지산동 1135번지 아주아파트","category":"서비스업 - 이미용"},{"name":"만두나라","tel":"031-5611-1049","addr":"경기도 평택시 지산동 1135 아주1차상가1-112","category":"일반휴게음식 - 스넥"},{"name":"먹거리마켓","tel":"031-665-5533","addr":"경기도 평택시 지산동 1135번지 아주아파트 상가동 102호","category":"소매업 - 슈퍼"},{"name":"신전떡볶이 지산점","tel":"031-665-0744","addr":"경기도 평택시 지산동 1135번지 아주상가 106,107호","category":"일반휴게음식 - 스넥"},{"name":"아주공판장","tel":"031-666-0555","addr":"경기도 평택시 지산동 1135번지 아주상가 지하층","category":"유통업 영리 - 슈퍼마켓"},{"name":"아주문구","tel":"031-665-5757","addr":"경기도 평택시 지산동 1135번지 아주아파트","category":"소매업 - 문구"},{"name":"예희성음악학원","tel":"031-667-4757","addr":"경기도 평택시 지산동 1135번지 아주아파트 304호","category":"학원 - 예·체능계학원"},{"name":"오렌지유치원[아이행복]","tel":"031-662-4005","addr":"경기도 평택시 지산동 1135","category":"학원 - 유치원"},{"name":"점핑클레이","tel":"031-665-3254","addr":"경기도 평택시 지산동 1135번지 아주아파트 상가동 206호","category":"문화.취미 - 문화취미기타"},{"name":"제니스킨앤왁싱","tel":"031-667-8898","addr":"경기도 평택시 지산동 1135번지 아주1차 상가 3층","category":"서비스업 - 이미용"},{"name":"조은맘산후도우미","tel":"031-611-4167","addr":"경기도 평택시 지산동 1135번지 미주상가 201호","category":"서비스업 - 병원"},{"name":"지산국호 합기도","tel":"031-667-1350","addr":"경기도 평택시 지산동 1135번지 412호~415호","category":"학원 - 예·체능계학원"},{"name":"태후사랑","tel":"","addr":"경기도 평택시 지산동 1135번지 아주1차 상가 104호","category":"서비스업 - 이미용"}]},{"lat":"37.080814041","long":"127.05742625","items":[{"name":"구이박사","tel":"031-667-4700","addr":"경기도 평택시 지산동 757-6번지 1층","category":"일반휴게음식 - 중국식"}]},{"lat":"37.074452801","long":"127.0569269","items":[{"name":"구제매니아","tel":"","addr":"경기도 평택시 지산동 846-4번지 1층","category":"의류 - 기타의류"},{"name":"더힐846 (The hill 846)","tel":"070-8621-3082","addr":"경기도 평택시 지산동 846-4번지 ,1-2층","category":"일반휴게음식 - 서양음식"}]},{"lat":"37.080760671","long":"127.05589672","items":[{"name":"국민약국","tel":"031-667-7381","addr":"경기도 평택시 지산동 763-3번지 2층","category":"약국 - 약국"},{"name":"국민약국","tel":"031-666-7289","addr":"경기도 평택시 지산동 763-3번지 2층","category":"소매업 - 약국"}]},{"lat":"37.07481305","long":"127.0573095","items":[{"name":"굽네치킨 지산신장점","tel":"031-666-5959","addr":"경기도 평택시 지산동 851-29번지 1층","category":"일반휴게음식 - 스넥"}]},{"lat":"37.076119376","long":"127.05776025","items":[{"name":"굿모닝종합인테리어","tel":"031-664-3822","addr":"경기도 평택시 지산동 796-22번지 1층","category":"건축자재 - 인테리어전문"}]},{"lat":"37.078958607","long":"127.05578301","items":[{"name":"궁","tel":"031-666-0333","addr":"경기도 평택시 지산동 809-2번지","category":"일반휴게음식 - 중국식"},{"name":"대통상사","tel":"031-666-0876","addr":"경기도 평택시 지산동 809-2번지 2층","category":"음료식품 - 기타음료식품"}]},{"lat":"37.079371927","long":"127.05833614","items":[{"name":"귀빈예식장","tel":"031-664-4222","addr":"경기도 평택시 지산동 774-1번지","category":"용역 서비스 - 혼례서비스"},{"name":"노리공방","tel":"031-8054-7388","addr":"경기도 평택시 지산동 774-1번지","category":"신변잡화 - 기타잡화"},{"name":"효니스터치","tel":"070-7677-8284","addr":"경기도 평택시 지산동 774-1번지","category":"보건위생 - 미용재료"}]},{"lat":"37.081069286","long":"127.06931374","items":[{"name":"그랜드식당","tel":"031-665-7227","addr":"경기도 평택시 지산동 579번지","category":"일반휴게음식 - 일반한식"},{"name":"동서액발(주)","tel":"031-665-7227","addr":"경기도 평택시 지산동 579번지","category":"보건위생 - 사우나"}]},{"lat":"37.08111956","long":"127.05922587","items":[{"name":"그린네추럴휴","tel":"031-663-2780","addr":"경기도 평택시 지산동 759-42번지 1층","category":"회원제형태 - 기타4"},{"name":"그린네츄럴휴1","tel":"031-663-2780","addr":"경기도 평택시 지산동 759-42번지 1층","category":"보건위생 - 피부미용실"}]},{"lat":"37.081624454","long":"127.0585852","items":[{"name":"그린수입고기전문점","tel":"031-664-0206","addr":"경기도 평택시 지산동 759-46번지","category":"소매업 - 정육"},{"name":"쓰리에이치 송탄센터","tel":"031-665-7588","addr":"경기도 평택시 지산동 759-46번지 2층","category":"보건위생 - 의료용품"}]},{"lat":"37.081984176","long":"127.06005875","items":[{"name":"그린종합인테리어","tel":"031-662-3343","addr":"경기도 평택시 지산동 997번지 1층","category":"직물 - 카페트,커튼,천막,지물"},{"name":"동양열쇠","tel":"031-662-1771","addr":"경기도 평택시 지산동 997번지","category":"기타 - 기계공구"},{"name":"이프","tel":"","addr":"경기도 평택시 지산동 997번지","category":"일반휴게음식 - 주점"}]},{"lat":"37.081759058","long":"127.05975493","items":[{"name":"그림쟁이목수","tel":"","addr":"경기도 평택시 지산동 1009번지","category":"건축자재 - 인테리어전문"},{"name":"돈이돈이","tel":"031-667-9978","addr":"경기도 평택시 지산동 1009번지","category":"일반휴게음식 - 일반한식"}]},{"lat":"37.081985056","long":"127.05820309","items":[{"name":"글로리아가구","tel":"031-663-9477","addr":"경기도 평택시 지산동 735-27번지 1층","category":"가구 - 일반가구"},{"name":"벌집노래연습장","tel":"031-662-5458","addr":"경기도 평택시 지산동 735-27번지 2층","category":"레저업소 - 노 래 방"},{"name":"솔올바이오(평택)","tel":"031-611-3564","addr":"경기도 평택시 지산동 735-27번지","category":"보건위생 - 화장품"},{"name":"신화식당","tel":"031-667-8824","addr":"경기도 평택시 지산동 735-27번지","category":"일반휴게음식 - 일반한식"},{"name":"올스본코리아","tel":"031-663-7589","addr":"경기도 평택시 지산동 735-27번지 3층","category":"건강식품 - 기타건강식품"}]},{"lat":"37.08107001","long":"127.06800918","items":[{"name":"금강오토바이","tel":"031-665-5282","addr":"경기도 평택시 지산동 631-1번지","category":"자동차판매 - 이륜차판매"},{"name":"금강정육점","tel":"031-668-9285","addr":"경기도 평택시 지산동 631-1번지","category":"소매업 - 정육"},{"name":"금강할인마트","tel":"031-611-8080","addr":"경기도 평택시 지산동 631-1번지","category":"유통업 영리 - 슈퍼마켓"}]},{"lat":"37.07998219","long":"127.0633636","items":[{"name":"금강인테리어","tel":"031-665-6245","addr":"경기도 평택시 지산동 1124번지","category":"건축자재 - 인테리어전문"},{"name":"남경당구장","tel":"031-665-0963","addr":"경기도 평택시 지산동 1124번지","category":"레저업소 - 당 구 장"},{"name":"송탄로타리클럽","tel":"031-666-5385","addr":"경기도 평택시 지산동 1124번지 3층","category":"기타 - 비영리/비대상"},{"name":"송탄중앙로타리","tel":"031-664-3750","addr":"경기도 평택시 지산동 1124번지 3층","category":"기타 - 비영리/비대상"},{"name":"짱노래연습장","tel":"031-668-9944","addr":"경기도 평택시 지산동 1124번지 지하노래방","category":"레저업소 - 노 래 방"},{"name":"평택두레생협 지산점","tel":"031-666-9117","addr":"경기도 평택시 지산동 1124번지","category":"도소매업 - 슈퍼"},{"name":"평택두레소비자생활협동조합지산점","tel":"031-6652-760","addr":"경기도 평택시 지산동 1124번지","category":"유통업 영리 - 슈퍼마켓"}]},{"lat":"37.081760295","long":"127.05711203","items":[{"name":"금성이발관","tel":"031-664-8599","addr":"경기도 평택시 지산동 753-32번지","category":"서비스업 - 이미용"},{"name":"실비아수입코너","tel":"031-667-2092","addr":"경기도 평택시 지산동 753-32번지","category":"유통업 영리 - 기타유통업"},{"name":"준가방","tel":"031-663-1453","addr":"경기도 평택시 지산동 753-32번지","category":"신변잡화 - 가방"},{"name":"준가방","tel":"031-666-8782","addr":"경기도 평택시 지산동 753-32번지","category":"소매업 - 가방, 모자"},{"name":"초이스호프","tel":"031-664-2476","addr":"경기도 평택시 지산동 753-32번지","category":"일반휴게음식 - 주점"}]},{"lat":"37.080399848","long":"127.05678492","items":[{"name":"금호불교사","tel":"031-667-3877","addr":"경기도 평택시 지산동 762-5번지","category":"신변잡화 - 기념품점"}]},{"lat":"37.080678591","long":"127.05805594","items":[{"name":"금화당","tel":"031-666-1913","addr":"경기도 평택시 지산동 758-48번지","category":"신변잡화 - 시계"},{"name":"정택이네 김밥","tel":"02-1111-1111","addr":"경기도 평택시 지산동 758-48번지","category":"일반휴게음식 - 일반한식"}]},{"lat":"37.081346212","long":"127.05622327","items":[{"name":"기쁨주는안경원","tel":"031-666-3114","addr":"경기도 평택시 지산동 755-20번지","category":"보건위생 - 안경"},{"name":"기쁨주는안경원","tel":"031-652-8259","addr":"경기도 평택시 지산동 755-20번지","category":"소매업 - 안경"},{"name":"김환창치과의원","tel":"031-663-2828","addr":"경기도 평택시 지산동 755-20번지","category":"서비스업 - 병원"},{"name":"김환창치과의원","tel":"031-665-7528","addr":"경기도 평택시 지산동 755-20번지","category":"의원 - 치과의원"}]},{"lat":"37.084228948","long":"127.05764238","items":[{"name":"기선방","tel":"031-666-3780","addr":"경기도 평택시 지산동 737-6번지 2층","category":"보건위생 - 기타대인서비스"},{"name":"서광카센타","tel":"031-266-1514","addr":"경기도 평택시 지산동 737-6번지","category":"자동차정비 유지 - 자동차정비"}]},{"lat":"37.081147344","long":"127.05761767","items":[{"name":"기찬한의원","tel":"031-453-2311","addr":"경기도 평택시 지산동 756-84번지 2층","category":"의원 - 한의원"},{"name":"본치과","tel":"031-611-7522","addr":"경기도 평택시 지산동 756-84번지 2층","category":"의원 - 치과의원"}]},{"lat":"37.077011517","long":"127.05755847","items":[{"name":"김네집 지산점","tel":"031-611-1041","addr":"경기도 평택시 지산동 798-13번지","category":"일반휴게음식 - 일반한식"},{"name":"블랙홀 PC방","tel":"070-5020-5324","addr":"경기도 평택시 지산동 798-13번지 2층","category":"레저업소 - 기타레져업소"},{"name":"지산당구장","tel":"031-663-4548","addr":"경기도 평택시 지산동 798-13번지 3층","category":"레저업소 - 당 구 장"}]},{"lat":"37.079234677","long":"127.06264326","items":[{"name":"김대일동물병원","tel":"031-665-7585","addr":"경기도 평택시 지산동 1080번지","category":"기타의료기관 - 동물병원"},{"name":"김대일동물병원","tel":"031-662-2277","addr":"경기도 평택시 지산동 1080번지","category":"서비스업 - 병원"},{"name":"디엠켐","tel":"031-666-9396","addr":"경기도 평택시 지산동 1080번지 용립빌딩 202호","category":"서적문구 - 과학기자재"},{"name":"엔제이(NJ) 매직 씽크","tel":"031-663-5328","addr":"경기도 평택시 지산동 1080번지 1층 102호","category":"주방용구 - 주방용구"}]},{"lat":"37.082400133","long":"127.05692129","items":[{"name":"김밥나라송탄지산점","tel":"031-664-7874","addr":"경기도 평택시 지산동 743-4번지","category":"일반휴게음식 - 스넥"},{"name":"대한사료","tel":"031-666-6741","addr":"경기도 평택시 지산동 743-4번지","category":"문화.취미 - 애완동물"},{"name":"소라약국","tel":"031-611-7104","addr":"경기도 평택시 지산동 743-4","category":"약국 - 약국"},{"name":"쌀사랑유통","tel":"031-668-2467","addr":"경기도 평택시 지산동 743-4","category":"음료식품 - 미곡상"},{"name":"우리데코","tel":"031-662-2681","addr":"경기도 평택시 지산동 743-4번지","category":"직물 - 카페트,커튼,천막,지물"},{"name":"은성미용실","tel":"031-666-6282","addr":"경기도 평택시 지산동 743-4","category":"보건위생 - 미용원"}]},{"lat":"37.078985997","long":"127.05497332","items":[{"name":"김진희미용실","tel":"031-662-4746","addr":"경기도 평택시 지산동 811-23번지","category":"서비스업 - 이미용"},{"name":"김진희미용실","tel":"031-410-2582","addr":"경기도 평택시 지산동 811-23번지","category":"보건위생 - 미용원"},{"name":"드림사교무도학원","tel":"031-666-6567","addr":"경기도 평택시 지산동 811-23번지 2층","category":"학원 - 예·체능계학원"},{"name":"뜨개사랑","tel":"031-665-8865","addr":"경기도 평택시 지산동 811-23번지","category":"직물 - 침구·수예점"},{"name":"뜨개사랑","tel":"02-6916-1500","addr":"경기도 평택시 지산동 811-23번지","category":"소매업 - 공예품"}]},{"lat":"37.081929977","long":"127.06033987","items":[{"name":"김헤어라인","tel":"031-668-3136","addr":"경기도 평택시 지산동 999번지","category":"보건위생 - 미용원"},{"name":"배꼽시계","tel":"031-611-9665","addr":"경기도 평택시 지산동 999번지 1층 2호","category":"일반휴게음식 - 일반한식"},{"name":"베짱이 노래연습장","tel":"031-668-0569","addr":"경기도 평택시 지산동 999번지 지층","category":"레저업소 - 노 래 방"}]},{"lat":"37.074821686","long":"127.05811917","items":[{"name":"까꼬보꼬미용실","tel":"031-666-7882","addr":"경기도 평택시 지산동 857-2번지","category":"보건위생 - 미용원"}]},{"lat":"37.081218504","long":"127.05958583","items":[{"name":"꼬봉","tel":"","addr":"경기도 평택시 지산동 728-2번지 우성주택 나동 101호","category":"보건위생 - 기타대인서비스"}]},{"lat":"37.07784122","long":"127.05595092","items":[{"name":"꾸띠모텔","tel":"031-663-8622","addr":"경기도 평택시 지산동 816-13번지","category":"숙박업 - 여관/기타숙박업"},{"name":"꾸띠모텔","tel":"031-663-8622","addr":"경기도 평택시 지산동 816-13번지","category":"숙박업 - 여관/기타숙박업"}]},{"lat":"37.079425859","long":"127.05861733","items":[{"name":"꾸벅PC","tel":"","addr":"경기도 평택시 지산동 774-5번지 지하1층","category":"레저업소 - 기타레져업소"}]},{"lat":"37.072568464","long":"127.05934324","items":[{"name":"끌림샵","tel":"031-664-6644","addr":"경기도 평택시 지산동 864-75번지 1동 101호","category":"보건위생 - 미용원"}]},{"lat":"37.075543768","long":"127.05539829","items":[{"name":"끼네일","tel":"031-666-1277","addr":"경기도 평택시 지산동 830-40번지 1층","category":"보건위생 - 피부미용실"}]},{"lat":"37.081345768","long":"127.0572017","items":[{"name":"나나상회","tel":"031-666-2439","addr":"경기도 평택시 지산동 754-13","category":"음료식품 - 제과점"}]},{"lat":"37.079875039","long":"127.06141794","items":[{"name":"나눔기획","tel":"062-236-2306","addr":"경기도 평택시 지산동 714-12번지 1층","category":"서적문구 - 출판 및 인쇄물"},{"name":"민뷰티헤어","tel":"031-667-6552","addr":"경기도 평택시 지산동 714-12번지","category":"보건위생 - 미용원"},{"name":"복선생학원","tel":"031-665-3636","addr":"경기도 평택시 지산동 714-12,2층","category":"학원 - 보습학원"},{"name":"서울보청기전문센터","tel":"031-666-3348","addr":"경기도 평택시 지산동 714-12번지 2층","category":"보건위생 - 의료용품"},{"name":"서울의료기","tel":"031-611-0866","addr":"경기도 평택시 지산동 714-12번지","category":"소매업 - 의료기기"},{"name":"서울의료기","tel":"031-666-3353","addr":"경기도 평택시 지산동 714-12번지","category":"보건위생 - 의료용품"}]},{"lat":"37.076237328","long":"127.05597229","items":[{"name":"나르샤","tel":"","addr":"경기도 평택시 지산동 825-8번지 현대is빌 1동 4층 2호","category":"보건위생 - 화장품"}]},{"lat":"37.076841267","long":"127.05545541","items":[{"name":"나이스이앤이 주식회사","tel":"02-780-8891","addr":"경기도 평택시 지산동 824-10번지","category":"주방용구 - 정수기"},{"name":"브라더치킨","tel":"070-5135-0607","addr":"경기도 평택시 지산동 824-10번지","category":"음식점 - 치킨"},{"name":"브라더치킨","tel":"031-611-9145","addr":"경기도 평택시 지산동 824-10번지","category":"일반휴게음식 - 스넥"}]},{"lat":"37.081318711","long":"127.05725792","items":[{"name":"나주야채상회","tel":"031-665-8439","addr":"경기도 평택시 지산동 754-12번지","category":"소매업 - 슈퍼"},{"name":"나주야채상회","tel":"031-665-5789","addr":"경기도 평택시 지산동 754-12번지","category":"음료식품 - 농·축·수산품"}]},{"lat":"37.081534938","long":"127.0573143","items":[{"name":"남규닭집","tel":"031-666-5516","addr":"경기도 평택시 지산동 753-28번지","category":"음료식품 - 정육점"},{"name":"사랑다섯스푼","tel":"031-8029-3365","addr":"경기도 평택시 지산동 753-28번지","category":"음료식품 - 기타음료식품"}]},{"lat":"37.081705113","long":"127.05950746","items":[{"name":"남대문수입코너","tel":"031-665-6902","addr":"경기도 평택시 지산동 750-6번지","category":"신변잡화 - 기타잡화"},{"name":"다판다 송탄지산점","tel":"070-0000-0000","addr":"경기도 평택시 지산동 750-6번지","category":"의류 - 정장"}]},{"lat":"37.071981834","long":"127.09055874","items":[{"name":"남부전원어린이집","tel":"031-662-6533","addr":"경기도 평택시 지산동 73-1번지","category":"기타 - 비영리/대상"},{"name":"남부전원어린이집[아이행복]","tel":"031-662-6533","addr":"경기도 평택시 지산동 73-1번지","category":"학원 - 유아원"}]},{"lat":"37.081812959","long":"127.06009236","items":[{"name":"낭랑호프","tel":"031-662-1409","addr":"경기도 평택시 지산동 1003번지","category":"일반휴게음식 - 일반한식"},{"name":"쥬드봉봉","tel":"031-662-1409","addr":"경기도 평택시 지산동 1003번지 1층","category":"의류 - 아동의류"}]},{"lat":"37.078174082","long":"127.05712072","items":[{"name":"내고향한식부페","tel":"031-668-9199","addr":"경기도 평택시 지산동 779-3번지","category":"일반휴게음식 - 일반한식"},{"name":"사랑방한식과생삼겹살","tel":"031-667-1147","addr":"경기도 평택시 지산동 779-3번지 덕천빌딩 1층","category":"일반휴게음식 - 일반한식"},{"name":"사랑방한식과생삼겹살","tel":"031-663-4587","addr":"경기도 평택시 지산동 779-3번지","category":"소매업 - 한식"}]},{"lat":"37.080286727","long":"127.06683891","items":[{"name":"네네치킨지산점","tel":"031-667-4492","addr":"경기도 평택시 지산동 647-5번지","category":"일반휴게음식 - 스넥"}]},{"lat":"37.074290977","long":"127.05611713","items":[{"name":"네오빌","tel":"031-668-7838","addr":"경기도 평택시 지산동 840-27번지","category":"숙박업 - 여관/기타숙박업"}]},{"lat":"37.080125961","long":"127.0641397","items":[{"name":"네일진","tel":"","addr":"경기도 평택시 지산동 1128번지 초원빌딩 5층","category":"보건위생 - 피부미용실"},{"name":"대왕축산(지산점)","tel":"031-664-3554","addr":"경기도 평택시 지산동 1128번지","category":"소매업 - 정육"},{"name":"대한해동검도 송탄본관","tel":"031-667-7777","addr":"경기도 평택시 지산동 1128번지 초원빌딩 2층","category":"학원 - 예·체능계학원"},{"name":"리스킨케어","tel":"031-662-0607","addr":"경기도 평택시 지산동 1128번지 초원빌딩 5층","category":"보건위생 - 피부미용실"},{"name":"본죽&비빔밥(평택지산점)","tel":"031-667-6282","addr":"경기도 평택시 지산동 1128번지 1층","category":"일반휴게음식 - 일반한식"},{"name":"아이러브키즈카페","tel":"031-668-7984","addr":"경기도 평택시 지산동 1128번지 초원빌딩 4층","category":"일반휴게음식 - 서양음식"}]},{"lat":"37.081237257","long":"127.05803385","items":[{"name":"노을호프","tel":"031-0000-0000","addr":"경기도 평택시 지산동 752-20번지 2층","category":"일반휴게음식 - 주점"},{"name":"숙이미용실","tel":"031-662-6694","addr":"경기도 평택시 지산동 752-20번지","category":"보건위생 - 미용원"},{"name":"숙이미용실","tel":"","addr":"경기도 평택시 지산동 752-20번지","category":"서비스업 - 미용"}]},{"lat":"37.080985925","long":"127.05591937","items":[{"name":"녹십자약국","tel":"031-666-7289","addr":"경기도 평택시 지산동 763-1","category":"약국 - 약국"}]},{"lat":"37.080814649","long":"127.05608795","items":[{"name":"녹십자약국","tel":"031-611-7545","addr":"경기도 평택시 지산동 763-5번지","category":"소매업 - 약국"},{"name":"송탄베스트의원","tel":"031-663-7582","addr":"경기도 평택시 지산동 763-5번지 2층","category":"의원 - 의원"},{"name":"송탄베스트의원","tel":"031-663-7582","addr":"경기도 평택시 지산동 763-5번지 2층","category":"의원 - 의원"},{"name":"잠자리이불","tel":"031-667-1867","addr":"경기도 평택시 지산동 763-5번지","category":"소매업 - 이불"},{"name":"잠자리이불","tel":"031-665-3733","addr":"경기도 평택시 지산동 763-5번지","category":"직물 - 침구·수예점"},{"name":"재우산부인과의원","tel":"031-662-0001","addr":"경기도 평택시 지산동 763-5번지","category":"의원 - 의원"},{"name":"평성물칼국수","tel":"031-665-3456","addr":"경기도 평택시 지산동 763-5번지 1층 7호","category":"일반휴게음식 - 일반한식"}]},{"lat":"37.08059086","long":"127.07084281","items":[{"name":"놋그릇","tel":"031-667-6111","addr":"경기도 평택시 지산동 582-1번지","category":"일반휴게음식 - 일반한식"},{"name":"놋그릇","tel":"031-668-2622","addr":"경기도 평택시 지산동 582-1번지","category":"음식점 - 한식"}]},{"lat":"37.078543107","long":"127.05800941","items":[{"name":"농업회사법인우리엘바이오주식회사","tel":"031-668-7887","addr":"경기도 평택시 지산동 778-1번지 4층","category":"음료식품 - 미곡상"},{"name":"사단법인 장애인 권익지원 협회","tel":"031-666-3009","addr":"경기도 평택시 지산동 778-1번지 4층","category":"건축자재 - 인테리어전문"},{"name":"삼정건축사사무소","tel":"031-666-6038","addr":"경기도 평택시 지산동 778-1번지","category":"용역 서비스 - 법률회계서비스(개인)"},{"name":"유어스짐","tel":"031-666-5774","addr":"경기도 평택시 지산동 778-1번지 1층","category":"레저업소 - 헬스클럽"},{"name":"자연한식부페","tel":"031-665-4742","addr":"경기도 평택시 지산동 778-1번지","category":"음식점 - 한식"},{"name":"자연한식부페","tel":"031-667-1003","addr":"경기도 평택시 지산동 778-1번지 1층 1호2-4호","category":"일반휴게음식 - 일반한식"},{"name":"자연한식부페","tel":"031-667-1003","addr":"경기도 평택시 지산동 778-1번지","category":"일반휴게음식 - 일반한식"},{"name":"잠언의료기 송탄지점","tel":"031-662-5252","addr":"경기도 평택시 지산동 778-1번지 4층","category":"보건위생 - 의료용품"},{"name":"평택의료소비자 생활협동조합 나누리한의원","tel":"031-668-7887","addr":"경기도 평택시 지산동 778-1번지 3층","category":"의원 - 한의원"},{"name":"평택의료소비자생활협동조합 나누리한의원","tel":"031-686-7008","addr":"경기도 평택시 지산동 778-1번지 3층","category":"서비스업 - 병원"},{"name":"평택의료소비자생활협동조합 나우리의원","tel":"031-668-7887","addr":"경기도 평택시 지산동 778-1번지 2층 2-4","category":"의원 - 의원"},{"name":"훈민정음인쇄","tel":"031-611-5350","addr":"경기도 평택시 지산동 778-1번지","category":"서적문구 - 출판 및 인쇄물"}]},{"lat":"37.075318158","long":"127.05617407","items":[{"name":"누리미용실","tel":"031-665-2822","addr":"경기도 평택시 지산동 838-1번지 3층","category":"보건위생 - 미용원"}]},{"lat":"37.076761204","long":"127.08531253","items":[{"name":"누리외형관리","tel":"031-682-8259","addr":"경기도 평택시 지산동 179-9번지","category":"자동차정비 유지 - 자동차정비"}]},{"lat":"37.081093498","long":"127.05714529","items":[{"name":"뉴대성건강원","tel":"031-663-6012","addr":"경기도 평택시 지산동 756-61번지 1층","category":"건강식품 - 기타건강식품"},{"name":"뉴대성건강원","tel":"","addr":"경기도 평택시 지산동 756-61번지 1층","category":"도소매업 - 건강식품"},{"name":"영양칼국수","tel":"031-665-5335","addr":"경기도 평택시 지산동 756-61번지","category":"음식점 - 한식"},{"name":"영양칼국수","tel":"031-611-5288","addr":"경기도 평택시 지산동 756-61번지","category":"일반휴게음식 - 일반한식"}]},{"lat":"37.08037033","long":"127.06200312","items":[{"name":"뉴욕샵","tel":"031-000-0000","addr":"경기도 평택시 지산동 1064번지 202호","category":"의류 - 정장"}]},{"lat":"37.076759514","long":"127.05691729","items":[{"name":"늘푸른약국","tel":"","addr":"경기도 평택시 지산동 833-69번지","category":"소매업 - 약국"}]},{"lat":"37.082760236","long":"127.05761883","items":[{"name":"닉스폭스호텔","tel":"031-664-1321","addr":"경기도 평택시 지산동 735-33번지","category":"숙박업 - 여관/기타숙박업"}]},{"lat":"37.077257976","long":"127.08358123","items":[{"name":"다루지산점","tel":"031-663-6757","addr":"경기도 평택시 지산동 343-16번지","category":"음식점 - 한식"},{"name":"다루지산점","tel":"031-662-2005","addr":"경기도 평택시 지산동 343-16번지 나동 1호 ,2,3,4호","category":"일반휴게음식 - 일반한식"},{"name":"대박편의점","tel":"031-611-9518","addr":"경기도 평택시 지산동 343-16번지 가동 1호","category":"유통업 영리 - 편 의 점"},{"name":"대신냉동","tel":"031-666-1044","addr":"경기도 평택시 지산동 343-16상아상가가동4호~5호","category":"전기제품 - 가전제품"},{"name":"밥먹는집","tel":"031-663-3353","addr":"경기도 평택시 지산동 343-16상아상가,가-7","category":"일반휴게음식 - 일반한식"},{"name":"평송라이온스클럽","tel":"031-663-1190","addr":"경기도 평택시 지산동 343-16번지","category":"기타 - 비영리/비대상"}]},{"lat":"37.077819411","long":"127.07938714","items":[{"name":"다솔너싱홈","tel":"031-668-3881","addr":"경기도 평택시 지산동 457-2번지","category":"기타의료기관 - 기타의료기관 및 기타"}]},{"lat":"37.080012028","long":"127.05758312","items":[{"name":"다우생삼겹살","tel":"031-611-5102","addr":"경기도 평택시 지산동 761-18번지 1층","category":"일반휴게음식 - 일반한식"}]},{"lat":"37.075514703","long":"127.05980649","items":[{"name":"다원디자인&인테리어","tel":"031-616-6878","addr":"경기도 평택시 지산동 684-2번지","category":"건축자재 - 인테리어전문"},{"name":"라비","tel":"031-663-4214","addr":"경기도 평택시 지산동 684-2번지","category":"음식점 - 카페"},{"name":"라비","tel":"070-5135-0607","addr":"경기도 평택시 지산동 684-2번지","category":"일반휴게음식 - 일반한식"}]},{"lat":"37.07484904","long":"127.05742198","items":[{"name":"다인빌","tel":"031-667-3139","addr":"경기도 평택시 지산동 851-28번지 다인빌","category":"용역 서비스 - 부동산 중개·임대"}]},{"lat":"37.076596796","long":"127.05806423","items":[{"name":"다인삼겹","tel":"","addr":"경기도 평택시 지산동 796-9번지 1층","category":"일반휴게음식 - 일반한식"},{"name":"빅딜컴퓨터","tel":"031-611-9704","addr":"경기도 평택시 지산동 796-9번지 효운빌딩 1층","category":"사무통신 - 컴퓨터"},{"name":"이화페인트공사","tel":"031-647--3288","addr":"경기도 평택시 지산동 796-9번지","category":"용역 서비스 - 기타용역서비스"}]},{"lat":"37.077426919","long":"127.05553454","items":[{"name":"달레나순대국(신장점)","tel":"031-611-9317","addr":"경기도 평택시 지산동 818-11번지","category":"음식점 - 한식"},{"name":"달레나순대국(신장점)","tel":"031-667-5848","addr":"경기도 평택시 지산동 818-11번지 1층","category":"일반휴게음식 - 일반한식"}]},{"lat":"37.079202127","long":"127.05525462","items":[{"name":"달리다굼 FLOWER","tel":"031-666-4879","addr":"경기도 평택시 지산동 767-14번지","category":"문화.취미 - 화원"},{"name":"조순조화랑","tel":"031-666-0282","addr":"경기도 평택시 지산동 767-14","category":"문화.취미 - 화랑"},{"name":"준마트","tel":"070-7012-1329","addr":"경기도 평택시 지산동 767-14번지","category":"유통업 영리 - 슈퍼마켓"},{"name":"현이네 반찬","tel":"031-111-1111","addr":"경기도 평택시 지산동 767-14번지 1층","category":"음료식품 - 기타음료식품"}]},{"lat":"37.080066308","long":"127.05711082","items":[{"name":"달빛포차","tel":"031-665-4115","addr":"경기도 평택시 지산동 761-17번지","category":"일반휴게음식 - 일반한식"}]},{"lat":"37.081542976","long":"127.05939488","items":[{"name":"달의나라","tel":"031-662-1623","addr":"경기도 평택시 지산동 729-7번지","category":"문화.취미 - 문화취미기타"},{"name":"선애패션","tel":"031-663-3150","addr":"경기도 평택시 지산동 729-7번지","category":"의류 - 정장"},{"name":"송미헤어힐","tel":"031-664-3521","addr":"경기도 평택시 지산동 729-7번지","category":"보건위생 - 미용원"}]},{"lat":"37.079397245","long":"127.06188991","items":[{"name":"대구태영생막창","tel":"031-667-7017","addr":"경기도 평택시 지산동 1084번지","category":"음식점 - 한식"},{"name":"대구태영생막창","tel":"031-000-0000","addr":"경기도 평택시 지산동 1084번지","category":"일반휴게음식 - 일반한식"},{"name":"투다리지산점","tel":"031-663-6825","addr":"경기도 평택시 지산동 1084번지","category":"일반휴게음식 - 스넥"},{"name":"호식이두마리치킨지산점","tel":"031-662-9293","addr":"경기도 평택시 지산동 1084번지","category":"일반휴게음식 - 스넥"}]},{"lat":"37.082176455","long":"127.07130533","items":[{"name":"대동상사","tel":"031-611-6281","addr":"경기도 평택시 지산동 609번지","category":"직물 - 카페트,커튼,천막,지물"}]},{"lat":"37.07689826","long":"127.082535","items":[{"name":"대동하우징","tel":"031-663-4266","addr":"경기도 평택시 지산동 337번지","category":"건축자재 - 보일러·펌프·샷시"},{"name":"철물만돌이","tel":"031-611-2318","addr":"경기도 평택시 지산동 337번지","category":"건축자재 - 기타건축자재"}]},{"lat":"37.081674626","long":"127.06633398","items":[{"name":"대림세차장","tel":"031-663-5074","addr":"경기도 평택시 지산동 636-1번지","category":"자동차정비 유지 - 세차장"},{"name":"대림카프라자","tel":"031-662-7833","addr":"경기도 평택시 지산동 636-1번지","category":"서비스업 - 자동차정비"},{"name":"대림카프라자","tel":"031-663-0044","addr":"경기도 평택시 지산동 636-1번지","category":"자동차정비 유지 - 자동차정비"},{"name":"대림카프라자","tel":"031-663-0044","addr":"경기도 평택시 지산동 636-1번지","category":"자동차정비 유지 - 자동차정비"}]},{"lat":"37.081264811","long":"127.05689799","items":[{"name":"대명상회","tel":"031-663-2772","addr":"경기도 평택시 지산동 756-37번지","category":"음료식품 - 농·축·수산품"},{"name":"대명상회","tel":"","addr":"경기도 평택시 지산동 756-37번지","category":"소매업 - 건어물"}]},{"lat":"37.081291258","long":"127.05816885","items":[{"name":"대명철물","tel":"031-666-0604","addr":"경기도 평택시 지산동 752-9번지 4호상가","category":"건축자재 - 목재·석재·철물"},{"name":"진천상회","tel":"031-662-7492","addr":"경기도 평택시 지산동 752-9번지","category":"음료식품 - 농·축·수산품"}]},{"lat":"37.081679487","long":"127.05648217","items":[{"name":"대명통상","tel":"031-665-9731","addr":"경기도 평택시 지산동 754-38번지","category":"신변잡화 - 신발"},{"name":"신세계약국","tel":"031-666-9157","addr":"경기도 평택시 지산동 754-38","category":"약국 - 약국"},{"name":"온누리신세계약국","tel":"031-611-7104","addr":"경기도 평택시 지산동 754-38번지","category":"소매업 - 약국"},{"name":"지산투다리","tel":"031-664-6484","addr":"경기도 평택시 지산동 754-38번지 1층","category":"일반휴게음식 - 주점"},{"name":"팔도다방","tel":"031-654-4466","addr":"경기도 평택시 지산동 754-38번지","category":"음식점 - 카페"}]},{"lat":"37.080318205","long":"127.05797696","items":[{"name":"대박명당마트","tel":"031-668-6484","addr":"경기도 평택시 지산동 762-34번지 1층","category":"유통업 영리 - 슈퍼마켓"}]},{"lat":"37.081372866","long":"127.05705552","items":[{"name":"대박식당","tel":"031-666-8289","addr":"경기도 평택시 지산동 754-20번지","category":"소매업 - 한식"},{"name":"대박집","tel":"031-663-1704","addr":"경기도 평택시 지산동 754-20번지","category":"일반휴게음식 - 일반한식"}]},{"lat":"37.082236672","long":"127.05964282","items":[{"name":"대박이네","tel":"031-666-1964","addr":"경기도 평택시 지산동 994번지","category":"일반휴게음식 - 일반한식"},{"name":"참좋은날","tel":"031-662-8366","addr":"경기도 평택시 지산동 994번지 1층","category":"일반휴게음식 - 주점"}]},{"lat":"37.08078744","long":"127.05648155","items":[{"name":"대복청과","tel":"031-000-0000","addr":"경기도 평택시 지산동 757-48번지","category":"음료식품 - 농·축·수산품"}]},{"lat":"37.081733197","long":"127.05725821","items":[{"name":"대성방아","tel":"031-666-8962","addr":"경기도 평택시 지산동 753-33번지","category":"음료식품 - 제과점"},{"name":"대성방앗간","tel":"031-663-1453","addr":"경기도 평택시 지산동 753-33번지","category":"제조업 - 떡, 기름, 고춧가루"},{"name":"송탄철물","tel":"031-666-8962","addr":"경기도 평택시 지산동 753-33번지","category":"소매업 - 철물, 담배"},{"name":"송탄철물점","tel":"031-666-9825","addr":"경기도 평택시 지산동 753-33번지","category":"기타 - 기계공구"}]},{"lat":"37.081237831","long":"127.05678551","items":[{"name":"대성식당","tel":"031-611-5288","addr":"경기도 평택시 지산동 756-80번지","category":"음식점 - 한식"},{"name":"대성식당","tel":"031-611-4517","addr":"경기도 평택시 지산동 756-80번지","category":"일반휴게음식 - 일반한식"},{"name":"송북새아침협동조합","tel":"031-662-3368","addr":"경기도 평택시 지산동 756-80번지 3층","category":"음료식품 - 기타음료식품"},{"name":"우호도너스집","tel":"031-662-5741","addr":"경기도 평택시 지산동 756-80","category":"일반휴게음식 - 일반한식"},{"name":"우호도너츠","tel":"031-663-2772","addr":"경기도 평택시 지산동 756-80번지","category":"음식점 - 분식"},{"name":"일미정육점","tel":"","addr":"경기도 평택시 지산동 756-80번지 3층","category":"소매업 - 정육"}]},{"lat":"37.076479851","long":"127.05764806","items":[{"name":"대성오토바이","tel":"031-668-0894","addr":"경기도 평택시 지산동 797-8번지","category":"소매업 - 오토바이"},{"name":"대성오토바이","tel":"031-662-1363","addr":"경기도 평택시 지산동 797-8번지 1층","category":"자동차판매 - 이륜차판매"}]},{"lat":"37.081624554","long":"127.05837152","items":[{"name":"대성청과","tel":"031-668-3939","addr":"경기도 평택시 지산동 759-1번지","category":"소매업 - 과일"},{"name":"송탄상회","tel":"031-664-4396","addr":"경기도 평택시 지산동 759-1번지","category":"음료식품 - 농·축·수산품"},{"name":"오뚜기식당","tel":"031-611-3613","addr":"경기도 평택시 지산동 759-1번지 1층","category":"일반휴게음식 - 일반한식"}]},{"lat":"37.071704038","long":"127.07489429","items":[{"name":"대신엘이디","tel":"031-666-0245","addr":"경기도 평택시 지산동 519-3번지","category":"건축자재 - 조명기구"},{"name":"솔밭마을","tel":"031-663-5787","addr":"경기도 평택시 지산동 519-3번지 1층","category":"일반휴게음식 - 일반한식"}]},{"lat":"37.080733326","long":"127.05659397","items":[{"name":"대영마트","tel":"031-611-8471","addr":"경기도 평택시 지산동 757-46번지","category":"소매업 - 슈퍼"},{"name":"대영마트","tel":"031-662-0858","addr":"경기도 평택시 지산동 757-46번지","category":"유통업 영리 - 슈퍼마켓"}]},{"lat":"37.076237583","long":"127.05539877","items":[{"name":"대우가스보일러","tel":"031-666-3588","addr":"경기도 평택시 지산동 829-5번지","category":"건축자재 - 보일러·펌프·샷시"}]},{"lat":"37.074596734","long":"127.05744429","items":[{"name":"대원유리페인트","tel":"031-662-0790","addr":"경기도 평택시 지산동 846-11번지","category":"건축자재 - 유리"},{"name":"소리마을","tel":"031-666-1394","addr":"경기도 평택시 지산동 846-11번지","category":"수리서비스 - 사무·통신기기수리"},{"name":"송탄신경과정신과의","tel":"031-666-9620","addr":"경기도 평택시 지산동 846-11번지","category":"의원 - 의원"}]},{"lat":"37.0742106","long":"127.0721753","items":[{"name":"대육칼","tel":"031-662-8856","addr":"경기도 평택시 지산동 541번지","category":"일반휴게음식 - 일반한식"}]},{"lat":"37.075262081","long":"127.06048103","items":[{"name":"대한불교조계종삼화불교극락사","tel":"031-663-8365","addr":"경기도 평택시 지산동 684-1번지","category":"회원제형태 - 기타4"}]},{"lat":"37.073649443","long":"127.05995128","items":[{"name":"대한예수교장로회 복음주의총회","tel":"031-692-9191","addr":"경기도 평택시 지산동 681-14번지","category":"기타 - 비영리/대상"},{"name":"대한예수교장로회시온세계선교교회","tel":"031-352-1673","addr":"경기도 평택시 지산동 681-14번지","category":"기타 - 비영리/대상"},{"name":"복지법인사랑과나눔","tel":"031-352-8201","addr":"경기도 평택시 지산동 681-14번지","category":"기타 - 비영리/비대상"}]},{"lat":"37.081345603","long":"127.05756158","items":[{"name":"대흥상사","tel":"031-668-2241","addr":"경기도 평택시 지산동 753-17번지","category":"직물 - 침구·수예점"},{"name":"송월타월 지산","tel":"031-663-3267","addr":"경기도 평택시 지산동 753-17번지","category":"소매업 - 타월"}]},{"lat":"37.081345654","long":"127.05744912","items":[{"name":"대흥상회","tel":"","addr":"경기도 평택시 지산동 753-14번지","category":"소매업 - 슈퍼"},{"name":"대흥상회","tel":"031-666-6497","addr":"경기도 평택시 지산동 753-14번지","category":"음료식품 - 농·축·수산품"}]},{"lat":"37.081093901","long":"127.05625684","items":[{"name":"대흥상회","tel":"031-662-7013","addr":"경기도 평택시 지산동 756-8번지","category":"신변잡화 - 신발"},{"name":"대흥상회 지산동","tel":"031-663-6012","addr":"경기도 평택시 지산동 756-8번지","category":"소매업 - 신발"}]},{"lat":"37.076931387","long":"127.05542174","items":[{"name":"더(The)참치","tel":"031-663-0111","addr":"경기도 평택시 지산동 824-4번지 1층","category":"일반휴게음식 - 일식·회집"}]},{"lat":"37.0775923","long":"127.08219835","items":[{"name":"더갈비","tel":"031-667-1278","addr":"경기도 평택시 지산동 321-1번지","category":"음식점 - 한식"},{"name":"더갈비","tel":"031-667-8295","addr":"경기도 평택시 지산동 321-1번지 외 1필지","category":"일반휴게음식 - 일반한식"}]},{"lat":"37.079622453","long":"127.06200254","items":[{"name":"더네이처 산후조리원","tel":"031-611-9770","addr":"경기도 평택시 지산동 1077번지","category":"서비스업 - 산후조리원"},{"name":"더네이처산후조리원","tel":"031-668-3579","addr":"경기도 평택시 지산동 1077번지","category":"기타의료기관 - 산후조리원"},{"name":"더네이처산후조리원","tel":"","addr":"경기도 평택시 지산동 1077번지","category":"서비스업 - 산후조리원"},{"name":"더네이쳐기능식품","tel":"031-668-3579","addr":"경기도 평택시 지산동 1077번지 1층","category":"건강식품 - 기타건강식품"},{"name":"봄소아과의원","tel":"031-668-5983","addr":"경기도 평택시 지산동 1077번지","category":"서비스업 - 병원"},{"name":"봄소아과의원","tel":"031-668-0075","addr":"경기도 평택시 지산동 1077번지","category":"의원 - 의원"}]},{"lat":"37.074372987","long":"127.07183809","items":[{"name":"더말랑(The mallang)","tel":"031-663-2541","addr":"경기도 평택시 지산동 550-5번지 1층","category":"일반휴게음식 - 서양음식"}]},{"lat":"37.08173208","long":"127.05964244","items":[{"name":"더존당구클럽","tel":"070-8171-7692","addr":"경기도 평택시 지산동 730-5번지","category":"레저업소 - 당 구 장"}]},{"lat":"37.0833211","long":"127.07077777","items":[{"name":"더팰리스타운하우스111동","tel":"031-662-9868","addr":"경기도 평택시 지산동 621-3번지","category":"건설업 - 주택신축판매"}]},{"lat":"37.076569097","long":"127.05948115","items":[{"name":"덕천어린이집[아이행복]","tel":"031-664-7293","addr":"경기도 평택시 지산동 688-2번지","category":"학원 - 유아원"},{"name":"리라유치원","tel":"031-666-7293","addr":"경기도 평택시 지산동 688-2번지 리라유치원 301호","category":"학원 - 유치원"},{"name":"리라유치원[아이행복]","tel":"031-666-7293","addr":"경기도 평택시 지산동 688-2,301호","category":"학원 - 유치원"}]},{"lat":"37.080841026","long":"127.05752748","items":[{"name":"데일리","tel":"031-000-0000","addr":"경기도 평택시 지산동 757-5번지","category":"의류 - 정장"},{"name":"현보당","tel":"031-665-7077","addr":"경기도 평택시 지산동 757-5번지","category":"신변잡화 - 귀금속"}]},{"lat":"37.080175219","long":"127.05536775","items":[{"name":"덴폴","tel":"031-666-4049","addr":"경기도 평택시 지산동 766-1번지","category":"의류 - 정장"},{"name":"발리킹 제화","tel":"031-663-3350","addr":"경기도 평택시 지산동 766-1번지","category":"소매업 - 구두"},{"name":"발리킹제화","tel":"031-611-9770","addr":"경기도 평택시 지산동 766-1","category":"신변잡화 - 제화"},{"name":"신신의료기","tel":"031-662-5334","addr":"경기도 평택시 지산동 766-1번지 2층","category":"보건위생 - 의료용품"},{"name":"제이엔미디어","tel":"031-611-7201","addr":"경기도 평택시 지산동 766-1","category":"전기제품 - 가전제품"},{"name":"조희미용실","tel":"","addr":"경기도 평택시 지산동 766-1번지 1층","category":"보건위생 - 미용원"},{"name":"파란들","tel":"031-663-3077","addr":"경기도 평택시 지산동 766-1번지","category":"가구 - 철제가구"},{"name":"행복한 애견세상","tel":"031-667-4668","addr":"경기도 평택시 지산동 766-1번지","category":"문화.취미 - 애완동물"}]},{"lat":"37.07645819","long":"127.0650364","items":[{"name":"도그매니아","tel":"031-667-0597","addr":"경기도 평택시 지산동 1151번지","category":"문화.취미 - 애완동물"},{"name":"첫눈애뷰티","tel":"","addr":"경기도 평택시 지산동 1151번지 1층 101호","category":"보건위생 - 화장품"}]},{"lat":"37.080152818","long":"127.0644771","items":[{"name":"도담","tel":"031-667-0972","addr":"경기도 평택시 지산동 642-3번지 1층","category":"일반휴게음식 - 일반한식"},{"name":"어울림무한리필고기뷔페","tel":"031-663-0407","addr":"경기도 평택시 지산동 642-3번지 2층","category":"일반휴게음식 - 일반한식"},{"name":"파리바게뜨송탄지산2호점","tel":"031-663-0408","addr":"경기도 평택시 지산동 642-3번지","category":"음료식품 - 제과점"}]},{"lat":"37.08059837","long":"127.05614403","items":[{"name":"도심속정원","tel":"031-663-2659","addr":"경기도 평택시 지산동 763-4번지 1층","category":"일반휴게음식 - 서양음식"},{"name":"도심속정원","tel":"","addr":"경기도 평택시 지산동 763-4번지","category":"소매업 - 카페"}]},{"lat":"37.074542743","long":"127.05728681","items":[{"name":"도연페인트상사","tel":"031-666-3659","addr":"경기도 평택시 지산동 846번지","category":"건축자재 - 페인트"},{"name":"이모네맛집","tel":"031-618-1238","addr":"경기도 평택시 지산동 846번지 1층 좌측호","category":"일반휴게음식 - 일반한식"}]},{"lat":"37.080674005","long":"127.06716537","items":[{"name":"도예공간 엘","tel":"031-663-4294","addr":"경기도 평택시 지산동 631-5번지 1층 103호","category":"소매업 - 도자리소품"},{"name":"도예공간 엘","tel":"031-611-5025","addr":"경기도 평택시 지산동 631-5번지 103호","category":"가구 - 기타가구"},{"name":"박군치킨지산점","tel":"031-663-9945","addr":"경기도 평택시 지산동 631-5번지","category":"일반휴게음식 - 스넥"},{"name":"박군치킨지산점","tel":"031-667-6111","addr":"경기도 평택시 지산동 631-5번지","category":"음식점 - 치킨"},{"name":"스위첸크리닝","tel":"031-662-0076","addr":"경기도 평택시 지산동 631-5번지 101호","category":"수리서비스 - 세탁소"},{"name":"코치코치헤어샵","tel":"031-662-2999","addr":"경기도 평택시 지산동 631-5번지","category":"보건위생 - 미용원"}]},{"lat":"37.076479674","long":"127.05803041","items":[{"name":"도자기속커피","tel":"031-665-0805","addr":"경기도 평택시 지산동 796-11번지","category":"음식점 - 카페"},{"name":"도자기속커피","tel":"031-665-1400","addr":"경기도 평택시 지산동 796-11번지 1층","category":"일반휴게음식 - 서양음식"}]},{"lat":"37.076597222","long":"127.05714209","items":[{"name":"도토리부동산","tel":"070-4001-7347","addr":"경기도 평택시 지산동 800-7번지","category":"서비스업 - 부동산"}]},{"lat":"37.079841406","long":"127.05631219","items":[{"name":"동남식당","tel":"031-663-1880","addr":"경기도 평택시 지산동 768-49번지","category":"일반휴게음식 - 일반한식"}]},{"lat":"37.075785718","long":"127.05833353","items":[{"name":"동남전설","tel":"031-665-2979","addr":"경기도 평택시 지산동 852-6번지","category":"용역 서비스 - 기타용역서비스"}]},{"lat":"37.081066389","long":"127.05731397","items":[{"name":"동령상회","tel":"031-666-8941","addr":"경기도 평택시 지산동 756-69번지","category":"음료식품 - 미곡상"},{"name":"동령쌀상회","tel":"031-666-4985","addr":"경기도 평택시 지산동 756-69번지","category":"도소매업 - 쌀"}]},{"lat":"37.079319423","long":"127.05489482","items":[{"name":"동산의원","tel":"031-663-9229","addr":"경기도 평택시 지산동 767-97번지","category":"서비스업 - 병원"},{"name":"지산약국","tel":"031-611-7545","addr":"경기도 평택시 지산동 767-97번지","category":"약국 - 약국"}]},{"lat":"37.080481394","long":"127.05578407","items":[{"name":"동산의원","tel":"031-666-2878","addr":"경기도 평택시 지산동 767-1번지","category":"의원 - 의원"}]},{"lat":"37.071759437","long":"127.08658903","items":[{"name":"동선스포츠","tel":"031-611-3391","addr":"경기도 평택시 지산동 246-1번지","category":"레져용품 - 스포츠·레져용품"}]},{"lat":"37.081237538","long":"127.05742655","items":[{"name":"동아상회","tel":"031-666-6497","addr":"경기도 평택시 지산동 756-66번지","category":"소매업 - 슈퍼"},{"name":"동아상회","tel":"031-667-1243","addr":"경기도 평택시 지산동 756-66번지","category":"음료식품 - 농·축·수산품"},{"name":"충북상회","tel":"031-666-2959","addr":"경기도 평택시 지산동 756-66번지","category":"음료식품 - 농·축·수산품"}]},{"lat":"37.080731933","long":"127.05958546","items":[{"name":"동아유치원[아이행복]","tel":"031-666-0378","addr":"경기도 평택시 지산동 1027번지","category":"학원 - 유치원"}]},{"lat":"37.07462309","long":"127.05889495","items":[{"name":"동오타일철물건재","tel":"031-662-5632","addr":"경기도 평택시 지산동 861-2번지 2층","category":"기타 - 기계공구"},{"name":"신송탄가전중고마을","tel":"031-667-1254","addr":"경기도 평택시 지산동 861-2번지","category":"전기제품 - 가전제품"}]},{"lat":"37.080876444","long":"127.05886581","items":[{"name":"동원교역","tel":"031-662-8540","addr":"경기도 평택시 지산동 759-20번지","category":"문화.취미 - 화방·표구점"}]},{"lat":"37.081930221","long":"127.05983378","items":[{"name":"동진상사","tel":"031-664-0373","addr":"경기도 평택시 지산동 1005번지","category":"소매업 - 식품"},{"name":"동진상사","tel":"031-666-6082","addr":"경기도 평택시 지산동 1005번지","category":"음료식품 - 기타음료식품"}]},{"lat":"37.080899281","long":"127.06714307","items":[{"name":"돼지가매력있소","tel":"031-611-9849","addr":"경기도 평택시 지산동 631-20번지","category":"일반휴게음식 - 일반한식"},{"name":"신가네하나로축산","tel":"","addr":"경기도 평택시 지산동 631-20번지","category":"도소매업 - 정육"},{"name":"신가네하나로축산","tel":"031-611-9849","addr":"경기도 평택시 지산동 631-20번지","category":"음료식품 - 정육점"},{"name":"아마빌레","tel":"031-664-2915","addr":"경기도 평택시 지산동 631-20번지","category":"학원 - 예·체능계학원"},{"name":"엔젤스터치","tel":"031-665-6232","addr":"경기도 평택시 지산동 631-20번지 2층","category":"회원제형태 - 기타4"},{"name":"예쁘다","tel":"031-664-1046","addr":"경기도 평택시 지산동 631-20번지","category":"서비스업 - 미용"},{"name":"예쁘다","tel":"031-662-2242","addr":"경기도 평택시 지산동 631-20번지","category":"보건위생 - 미용원"}]},{"lat":"37.074903945","long":"127.07297435","items":[{"name":"두루두루","tel":"031-665-2221","addr":"경기도 평택시 지산동 545번지","category":"일반휴게음식 - 일반한식"},{"name":"미당","tel":"031-663-3959","addr":"경기도 평택시 지산동 545번지 1층","category":"일반휴게음식 - 일반한식"}]},{"lat":"37.07623654","long":"127.05770411","items":[{"name":"두바이크","tel":"031-662-0147","addr":"경기도 평택시 지산동 796-19번지","category":"소매업 - 자전거"},{"name":"두바이크(doobike)","tel":"031-684-6002","addr":"경기도 평택시 지산동 796-19번지","category":"레져용품 - 스포츠·레져용품"}]},{"lat":"37.08017402","long":"127.05801059","items":[{"name":"두인미용상사","tel":"031-666-4293","addr":"경기도 평택시 지산동 761-5번지","category":"보건위생 - 미용재료"}]},{"lat":"37.080763927","long":"127.06750283","items":[{"name":"들리다","tel":"070-6564-5468","addr":"경기도 평택시 지산동 631-24번지 1층 롯데슈퍼내 일부","category":"일반휴게음식 - 서양음식"},{"name":"들리다","tel":"","addr":"경기도 평택시 지산동 631-24번지","category":"음식점 - 한식"},{"name":"들리다","tel":"","addr":"경기도 평택시 지산동 631-24번지 1층 롯데슈퍼내 일부","category":"일반휴게음식 - 서양음식"},{"name":"써니네일","tel":"031-667-5955","addr":"경기도 평택시 지산동 631-24번지 1층","category":"보건위생 - 피부미용실"},{"name":"아지매떡볶이","tel":"031-611-9912","addr":"경기도 평택시 지산동 631-24번지","category":"일반휴게음식 - 일반한식"},{"name":"코리아크리닝","tel":"031-666-8060","addr":"경기도 평택시 지산동 631-24번지 롯데슈퍼평택지산점 1층","category":"수리서비스 - 세탁소"},{"name":"활어시장","tel":"031-666-7376","addr":"경기도 평택시 지산동 631-24번지 A동","category":"음식점 - 횟집"},{"name":"활어시장","tel":"031-668-8882","addr":"경기도 평택시 지산동 631-24번지 A동","category":"일반휴게음식 - 일식·회집"}]},{"lat":"37.083318282","long":"127.07553508","items":[{"name":"들뫼 약산흑염소","tel":"031-662-2571","addr":"경기도 평택시 지산동 391-13번지","category":"음식점 - 한식"},{"name":"들뫼약산흑염소전문점","tel":"031-611-0778","addr":"경기도 평택시 지산동 391-13번지","category":"일반휴게음식 - 일반한식"}]},{"lat":"37.076205633","long":"127.06553099","items":[{"name":"디에스테크(DSTECH)","tel":"031-662-6965","addr":"경기도 평택시 지산동 1167번지","category":"건축자재 - 기타건축자재"}]},{"lat":"37.080598566","long":"127.05570542","items":[{"name":"디자인호텔뜰앤","tel":"031-663-0377","addr":"경기도 평택시 지산동 765-3번지 1-7층","category":"숙박업 - 여관/기타숙박업"},{"name":"디자인호텔뜰앤","tel":"031-662-0377","addr":"경기도 평택시 지산동 765-3번지","category":"숙박업 - 여관/기타숙박업"}]},{"lat":"37.079931648","long":"127.05600861","items":[{"name":"디지탈센터(Digital Center)","tel":"070-8699-4772","addr":"경기도 평택시 지산동 768-52번지 파인힐오피스텔 608호","category":"사무통신 - 사무용 OA기기"}]},{"lat":"37.07981931","long":"127.06470176","items":[{"name":"떡볶이바삭","tel":"031-662-0608","addr":"경기도 평택시 지산동 644-3번지 1층","category":"일반휴게음식 - 스넥"},{"name":"떡볶이바삭","tel":"031-611-0582","addr":"경기도 평택시 지산동 644-3번지","category":"음식점 - 분식"}]},{"lat":"37.080652271","long":"127.05650394","items":[{"name":"또또헤어크럽","tel":"031-666-4662","addr":"경기도 평택시 지산동 758-80번지","category":"서비스업 - 이미용"}]},{"lat":"37.080344784","long":"127.05894414","items":[{"name":"또봉이통닭지산점","tel":"031-611-7833","addr":"경기도 평택시 지산동 726-3번지 101호","category":"일반휴게음식 - 스넥"},{"name":"용운마트","tel":"031-666-4132","addr":"경기도 평택시 지산동 726-3번지 102호","category":"유통업 영리 - 슈퍼마켓"}]},{"lat":"37.081399148","long":"127.05867501","items":[{"name":"라도상회","tel":"031-665-4920","addr":"경기도 평택시 지산동 759-26번지","category":"음료식품 - 농·축·수산품"},{"name":"라도상회","tel":"031-666-3521","addr":"경기도 평택시 지산동 759-26번지","category":"소매업 - 과일"}]},{"lat":"37.082704981","long":"127.0764792","items":[{"name":"라온유통","tel":"","addr":"경기도 평택시 지산동 398-2번지","category":"유통업 영리 - 기타유통업"}]},{"lat":"37.080223348","long":"127.06740116","items":[{"name":"러브리사(lovelisa)","tel":"031-662-3091","addr":"경기도 평택시 지산동 1217번지 케이씨씨스위첸 107동 1204호","category":"음료식품 - 기타음료식품"},{"name":"아주전기온돌판넬","tel":"031-671-0422","addr":"경기도 평택시 지산동 1217번지 케이씨씨스위첸 107동 404호","category":"전기제품 - 냉열기기"}]},{"lat":"37.081399395","long":"127.05814643","items":[{"name":"럭키지물장식","tel":"031-662-4932","addr":"경기도 평택시 지산동 752-11번지","category":"직물 - 카페트,커튼,천막,지물"}]},{"lat":"37.079704081","long":"127.06092298","items":[{"name":"로드1071카페","tel":"","addr":"경기도 평택시 지산동 1071번지 1층","category":"음식점 - 카페"},{"name":"로드1071카페(Rood1071cafe)","tel":"031-611-2933","addr":"경기도 평택시 지산동 1071번지 1층","category":"일반휴게음식 - 서양음식"},{"name":"베이스캠프레스토랑","tel":"031-667-7861","addr":"경기도 평택시 지산동 1071번지","category":"일반휴게음식 - 서양음식"},{"name":"채플린헤어","tel":"031-611-2855","addr":"경기도 평택시 지산동 1071번지 201호","category":"보건위생 - 미용원"},{"name":"채플미용실","tel":"","addr":"경기도 평택시 지산동 1071번지 2층","category":"서비스업 - 이미용"}]},{"lat":"37.080595499","long":"127.06219448","items":[{"name":"로우그린","tel":"","addr":"경기도 평택시 지산동 1065번지 1층","category":"일반휴게음식 - 서양음식"},{"name":"로우그린","tel":"031-663-7766","addr":"경기도 평택시 지산동 1065번지 1층","category":"음식점 - 커피"},{"name":"송탄기독펜시","tel":"031-667-3917","addr":"경기도 평택시 지산동 1065번지 2층","category":"신변잡화 - 기념품점"},{"name":"효네일","tel":"031-666-3353","addr":"경기도 평택시 지산동 1065번지 1층","category":"서비스업 - 네일"}]},{"lat":"37.075760022","long":"127.05539844","items":[{"name":"롯데가스기기","tel":"031-4-4475","addr":"경기도 평택시 지산동 829-10번지","category":"건축자재 - 보일러·펌프·샷시"},{"name":"송탄여관","tel":"031-667-8128","addr":"경기도 평택시 지산동 829-10번지","category":"숙박업 - 여관/기타숙박업"},{"name":"주주클럽","tel":"031-611-7377","addr":"경기도 평택시 지산동 829-10번지 1층","category":"문화.취미 - 애완동물"}]},{"lat":"37.079928224","long":"127.06317237","items":[{"name":"롯데리아 나뚜루팝 평택지산점","tel":"031-664-1123","addr":"경기도 평택시 지산동 1123번지","category":"음료식품 - 제과점"},{"name":"벤자민어학원","tel":"031-611-0582","addr":"경기도 평택시 지산동 1123번지 5층 전부","category":"학원 - 외국어학원"},{"name":"벤자민어학원","tel":"031-666-3859","addr":"경기도 평택시 지산동 1123번지 5층 전부","category":"서비스업 - 학원"},{"name":"어드벤쳐음악학원","tel":"031-663-0434","addr":"경기도 평택시 지산동 1123번지 3층","category":"학원 - 예·체능계학원"},{"name":"오다헤어지산점","tel":"031-664-0896","addr":"경기도 평택시 지산동 1123번지","category":"보건위생 - 미용원"},{"name":"오다헤어지산점","tel":"031-665-8221","addr":"경기도 평택시 지산동 1123번지","category":"서비스업 - 이미용"},{"name":"지산경희한의원","tel":"031-664-2246","addr":"경기도 평택시 지산동 1123번지 4층 전부","category":"의원 - 한의원"},{"name":"지산경희한의원","tel":"031-665-9735","addr":"경기도 평택시 지산동 1123번지","category":"서비스업 - 병원"}]},{"lat":"37.076676731","long":"127.06050459","items":[{"name":"루디아커피","tel":"031-3355-6659","addr":"경기도 평택시 지산동 693-2번지","category":"일반휴게음식 - 서양음식"}]},{"lat":"37.075759222","long":"127.05717523","items":[{"name":"류헤어샵","tel":"070-8977-1696","addr":"경기도 평택시 지산동 833-3번지 B동","category":"보건위생 - 미용원"}]},{"lat":"37.083985751","long":"127.05745101","items":[{"name":"리바트","tel":"031-663-5107","addr":"경기도 평택시 지산동 739-2번지","category":"가구 - 일반가구"},{"name":"오통종합기계","tel":"031-662-1375","addr":"경기도 평택시 지산동 739-2","category":"수리서비스 - 기타수리서비스"},{"name":"주식회사가구탑","tel":"031-666-2434","addr":"경기도 평택시 지산동 739-2번지","category":"가구 - 일반가구"}]},{"lat":"37.082317831","long":"127.05950792","items":[{"name":"리베라노래방","tel":"031-666-0298","addr":"경기도 평택시 지산동 993번지","category":"레저업소 - 노 래 방"},{"name":"멕시카나 지산2호점","tel":"031-666-4225","addr":"경기도 평택시 지산동 993번지 1층","category":"일반휴게음식 - 스넥"}]},{"lat":"37.074849402","long":"127.08752579","items":[{"name":"리빙쇼파천갈이","tel":"031-656-6109","addr":"경기도 평택시 지산동 228-25번지","category":"수리서비스 - 기타수리서비스"}]},{"lat":"37.081403493","long":"127.06784077","items":[{"name":"리츠부동산","tel":"031-611-7200","addr":"경기도 평택시 지산동 630-22번지","category":"서비스업 - 부동산"}]},{"lat":"37.07395816","long":"127.08638903","items":[{"name":"마로카페","tel":"031-611-8585","addr":"경기도 평택시 지산동 238-1번지","category":"음식점 - 카페"},{"name":"마로카페","tel":"031-665-3114","addr":"경기도 평택시 지산동 238-1번지","category":"일반휴게음식 - 서양음식"},{"name":"태평궁","tel":"031-663-0047","addr":"경기도 평택시 지산동 238-1번지","category":"음식점 - 한식"},{"name":"태평궁","tel":"031-611-8585","addr":"경기도 평택시 지산동 238-1번지 1동","category":"일반휴게음식 - 일반한식"}]},{"lat":"37.080426488","long":"127.05763965","items":[{"name":"마중물산야초건강원","tel":"031-662-4992","addr":"경기도 평택시 지산동 762-8번지 동호빌딩 102호","category":"도소매업 - 농산물, 임산물"},{"name":"마중물산야초건강원","tel":"031-665-0152","addr":"경기도 평택시 지산동 762-8번지 동호빌딩 102호","category":"음료식품 - 농·축·수산품"},{"name":"폰통령","tel":"031-611-1679","addr":"경기도 평택시 지산동 762-8번지 동호빌딩 101호","category":"사무통신 - 통신기기"}]},{"lat":"37.08242701","long":"127.05725871","items":[{"name":"마하불교전시관","tel":"031-665-6627","addr":"경기도 평택시 지산동 744번지","category":"신변잡화 - 기념품점"}]},{"lat":"37.08050739","long":"127.07486887","items":[{"name":"만복차예","tel":"","addr":"경기도 평택시 지산동 426-6번지 101호","category":"음료식품 - 기타음료식품"}]},{"lat":"37.079986057","long":"127.05523266","items":[{"name":"만원이네","tel":"031-667-5989","addr":"경기도 평택시 지산동 766-4번지 1층","category":"일반휴게음식 - 일반한식"},{"name":"심재훈동물병원","tel":"031-662-4805","addr":"경기도 평택시 지산동 766-4번지","category":"기타의료기관 - 동물병원"},{"name":"심재훈동물병원","tel":"031-665-0024","addr":"경기도 평택시 지산동 766-4번지","category":"서비스업 - 수의"},{"name":"심재훈애견샵","tel":"031-611-4805","addr":"경기도 평택시 지산동 766-4번지","category":"문화.취미 - 애완동물"}]},{"lat":"37.080895658","long":"127.05627919","items":[{"name":"만주분식","tel":"070-8966-6992","addr":"경기도 평택시 지산동 757-16번지","category":"일반휴게음식 - 스넥"},{"name":"송북축산","tel":"031-616-4000","addr":"경기도 평택시 지산동 757-16번지","category":"음료식품 - 정육점"},{"name":"송북축산","tel":"031-611-4517","addr":"경기도 평택시 지산동 757-16번지","category":"소매업 - 축산"},{"name":"할매반찬찌개","tel":"","addr":"경기도 평택시 지산동 757-16번지","category":"음료식품 - 미곡상"},{"name":"할매잡곡","tel":"031-663-1478","addr":"경기도 평택시 지산동 757-16번지","category":"소매업 - 잡곡"}]},{"lat":"37.081426966","long":"127.05697683","items":[{"name":"맛나식당","tel":"031-664-7695","addr":"경기도 평택시 지산동 754-24번지","category":"음료식품 - 기타음료식품"},{"name":"송북새아침협동조합육터","tel":"","addr":"경기도 평택시 지산동 754-24번지","category":"소매업 - 육류"},{"name":"송북새아침협동조합육터","tel":"031-662-3368","addr":"경기도 평택시 지산동 754-24번지","category":"음료식품 - 기타음료식품"},{"name":"왕손곱창","tel":"070-8966-6992","addr":"경기도 평택시 지산동 754-24번지","category":"일반휴게음식 - 일반한식"},{"name":"정유네해장국","tel":"070-4148-2111","addr":"경기도 평택시 지산동 754-24번지","category":"일반휴게음식 - 일반한식"},{"name":"정유네해장국","tel":"031-662-7476","addr":"경기도 평택시 지산동 754-24번지","category":"음식점 - 한식"}]},{"lat":"37.078481291","long":"127.05523163","items":[{"name":"망향비빔국수","tel":"031-662-1730","addr":"경기도 평택시 지산동 812-6번지","category":"일반휴게음식 - 일반한식"}]},{"lat":"37.076043472","long":"127.06547463","items":[{"name":"매일유업남부유통대리점","tel":"031-377-4481","addr":"경기도 평택시 지산동 1163","category":"음료식품 - 기타음료식품"}]},{"lat":"37.0814541","long":"127.05675193","items":[{"name":"맵시엄마방","tel":"031-667-4966","addr":"경기도 평택시 지산동 754-27번지","category":"의류 - 정장"}]},{"lat":"37.074091511","long":"127.08891936","items":[{"name":"멀티시스템","tel":"","addr":"경기도 평택시 지산동 223-13번지","category":"전기제품 - 냉열기기"}]},{"lat":"37.075871902","long":"127.06617171","items":[{"name":"멕시카나치킨지산점","tel":"031-665-9768","addr":"경기도 평택시 지산동 1185번지","category":"일반휴게음식 - 서양음식"}]},{"lat":"37.08081376","long":"127.05803354","items":[{"name":"모닝마트","tel":"031-663-3050","addr":"경기도 평택시 지산동 758-28번지 그랜드빌딩 1층","category":"유통업 영리 - 슈퍼마켓"},{"name":"모닝마트","tel":"031-665-2815","addr":"경기도 평택시 지산동 758-28번지 그랜드빌딩 1층","category":"소매업 - 슈퍼"}]},{"lat":"37.080930898","long":"127.05803363","items":[{"name":"모닝축산","tel":"031-668-3892","addr":"경기도 평택시 지산동 758-26번지","category":"도소매업 - 정육"},{"name":"쫑아분식","tel":"031-611-8289","addr":"경기도 평택시 지산동 758-26번지","category":"일반휴게음식 - 스넥"}]},{"lat":"37.077543674","long":"127.0563893","items":[{"name":"모모파크","tel":"031-666-1661","addr":"경기도 평택시 지산동 802-7번지","category":"숙박업 - 여관/기타숙박업"}]},{"lat":"37.081374972","long":"127.07050612","items":[{"name":"모이라이","tel":"","addr":"경기도 평택시 지산동 614-7번지","category":"일반휴게음식 - 서양음식"}]},{"lat":"37.082705606","long":"127.05883342","items":[{"name":"모자식당","tel":"031-668-7330","addr":"경기도 평택시 지산동 747-3번지 1층","category":"음식점 - 한식"},{"name":"모자식당엔포차","tel":"","addr":"경기도 평택시 지산동 747-3번지 1층","category":"일반휴게음식 - 일반한식"},{"name":"송탄낚시프라자","tel":"031-668-5156","addr":"경기도 평택시 지산동 747-3번지","category":"레져용품 - 스포츠·레져용품"},{"name":"신진세차장","tel":"","addr":"경기도 평택시 지산동 747-3번지","category":"자동차정비 유지 - 세차장"},{"name":"중국성","tel":"031-611-2822","addr":"경기도 평택시 지산동 747-3번지 1층","category":"음식점 - 중식"},{"name":"중국성","tel":"031-666-0002","addr":"경기도 평택시 지산동 747-3번지 1층","category":"일반휴게음식 - 중국식"},{"name":"포항막창","tel":"031-664-5414","addr":"경기도 평택시 지산동 747-3번지","category":"음식점 - 한식"},{"name":"포항막창","tel":"031-663-9707","addr":"경기도 평택시 지산동 747-3번지","category":"일반휴게음식 - 일반한식"}]},{"lat":"37.079535493","long":"127.05531108","items":[{"name":"모텔라움","tel":"031-667-0555","addr":"경기도 평택시 지산동 767-101번지 모텔라움","category":"숙박업 - 여관/기타숙박업"},{"name":"장미식당","tel":"031-668-7933","addr":"경기도 평택시 지산동 767-101번지","category":"일반휴게음식 - 일반한식"}]},{"lat":"37.080237509","long":"127.05711094","items":[{"name":"목포식당","tel":"031-611-0866","addr":"경기도 평택시 지산동 762-19번지","category":"일반휴게음식 - 일반한식"},{"name":"목포식당","tel":"031-662-6094","addr":"경기도 평택시 지산동 762-19번지","category":"음식점 - 한식"},{"name":"신통치킨지산점","tel":"031-611-8295","addr":"경기도 평택시 지산동 762-19번지 1층","category":"일반휴게음식 - 스넥"}]},{"lat":"37.080375163","long":"127.0698642","items":[{"name":"무공해","tel":"031-665-9088","addr":"경기도 평택시 지산동 578번지","category":"일반휴게음식 - 일반한식"}]},{"lat":"37.075955829","long":"127.09011349","items":[{"name":"문화촌","tel":"031-8054-7623","addr":"경기도 평택시 지산동 159-2번지 1층","category":"일반휴게음식 - 일반한식"},{"name":"카페모모","tel":"070-7543-9745","addr":"경기도 평택시 지산동 159-2번지 2동 1층","category":"일반휴게음식 - 서양음식"}]},{"lat":"37.078876346","long":"127.05833578","items":[{"name":"뮤엠영어교습소","tel":"053-781-8205","addr":"경기도 평택시 지산동 777-12번지 지산우방타운 115동 지하층 10호","category":"학원 - 외국어학원"},{"name":"서정차유리","tel":"031-665-0326","addr":"경기도 평택시 지산동 777-12번지","category":"자동차정비 유지 - 자동차부품"},{"name":"종이문화재단대구수성종이문화교육원","tel":"053-784-1500","addr":"경기도 평택시 지산동 777-12번지 지산우방타운 상가114동 지하층6호","category":"문화.취미 - 문화취미기타"}]},{"lat":"37.072487331","long":"127.0594219","items":[{"name":"미구앙","tel":"031-111-1111","addr":"경기도 평택시 지산동 864-77번지","category":"일반휴게음식 - 일반한식"}]},{"lat":"37.082228994","long":"127.05678621","items":[{"name":"미니스톱 송탄지산점","tel":"031-1577-9621","addr":"경기도 평택시 지산동 742-5번지 1층","category":"유통업 영리 - 편 의 점"}]},{"lat":"37.075318284","long":"127.05589293","items":[{"name":"미니스톱 평택지산점","tel":"031-667-5848","addr":"경기도 평택시 지산동 830-45번지","category":"소매업 - 편의점"},{"name":"미니스톱평택지산점","tel":"031-1577-9621","addr":"경기도 평택시 지산동 830-45번지 102호","category":"유통업 영리 - 편 의 점"},{"name":"밥스토어","tel":"031-665-3361","addr":"경기도 평택시 지산동 830-45번지 102호","category":"유통업 영리 - 슈퍼마켓"}]},{"lat":"37.07976001","long":"127.05697565","items":[{"name":"미니여관","tel":"031-665-9636","addr":"경기도 평택시 지산동 768-73번지","category":"숙박업 - 여관/기타숙박업"}]},{"lat":"37.078706605","long":"127.05511932","items":[{"name":"미래인테리어","tel":"031-664-3374","addr":"경기도 평택시 지산동 811-8번지 일층","category":"건축자재 - 인테리어전문"}]},{"lat":"37.079515463","long":"127.07611624","items":[{"name":"미래주방","tel":"031-611-7414","addr":"경기도 평택시 지산동 429번지","category":"주방용구 - 주방용구"},{"name":"미래주방아울렛","tel":"031-611-7414","addr":"경기도 평택시 지산동 429번지","category":"주방용구 - 주방용구"},{"name":"이안테크","tel":"031-664-4877","addr":"경기도 평택시 지산동 429번지","category":"건축자재 - 기타건축자재"}]},{"lat":"37.076985416","long":"127.0555005","items":[{"name":"미래치과기공소","tel":"031-666-0027","addr":"경기도 평택시 지산동 824-2번지","category":"제조업 - 치과기공소"},{"name":"안창선동물병원","tel":"031-665-6252","addr":"경기도 평택시 지산동 824-2번지","category":"기타의료기관 - 동물병원"},{"name":"안창선동물병원","tel":"031-611-7900","addr":"경기도 평택시 지산동 824-2번지","category":"서비스업 - 병원"}]},{"lat":"37.081345896","long":"127.05692055","items":[{"name":"민속떡집","tel":"031-667-6254","addr":"경기도 평택시 지산동 754-26번지","category":"음료식품 - 제과점"},{"name":"민속떡집","tel":"","addr":"경기도 평택시 지산동 754-26번지","category":"제조업 - 떡"},{"name":"왕손곱창","tel":"","addr":"경기도 평택시 지산동 754-26번지","category":"음식점 - 한식"}]},{"lat":"37.082120035","long":"127.05858557","items":[{"name":"민헤어&네일아트","tel":"031-662-4992","addr":"경기도 평택시 지산동 749-4번지","category":"보건위생 - 미용원"},{"name":"민헤어&네일아트","tel":"031-611-2855","addr":"경기도 평택시 지산동 749-4번지","category":"서비스업 - 이미용"}]},{"lat":"37.080787251","long":"127.05689766","items":[{"name":"민희지물","tel":"031-665-8288","addr":"경기도 평택시 지산동 757-11번지","category":"소매업 - 벽지, 장판"},{"name":"민희지물","tel":"031-666-9114","addr":"경기도 평택시 지산동 757-11번지","category":"직물 - 카페트,커튼,천막,지물"},{"name":"장충족발","tel":"031-665-8288","addr":"경기도 평택시 지산동 757-11번지","category":"일반휴게음식 - 일반한식"},{"name":"한방장충족발","tel":"","addr":"경기도 평택시 지산동 757-11번지","category":"음식점 - 한식"}]},{"lat":"37.08034641","long":"127.05539036","items":[{"name":"밀알통상","tel":"031-664-9832","addr":"경기도 평택시 지산동 767-49번지 1층","category":"수리서비스 - 사무·통신기기수리"}]},{"lat":"37.08051526","long":"127.0767245","items":[{"name":"바늘꽃","tel":"031-666-6197","addr":"경기도 평택시 지산동 1237-6번지","category":"일반휴게음식 - 서양음식"},{"name":"전람회","tel":"031-666-6230","addr":"경기도 평택시 지산동 1237-6번지","category":"신변잡화 - 액세서리"}]},{"lat":"37.081398658","long":"127.07614055","items":[{"name":"바니메이드","tel":"","addr":"경기도 평택시 지산동 400-5번지","category":"일반휴게음식 - 서양음식"}]},{"lat":"37.08101469","long":"127.07025838","items":[{"name":"바오돈까스","tel":"031-662-2230","addr":"경기도 평택시 지산동 580번지","category":"일반휴게음식 - 일반한식"},{"name":"바오돈까스","tel":"031-611-4260","addr":"경기도 평택시 지산동 580번지","category":"음식점 - 양식"}]},{"lat":"37.082398969","long":"127.05941801","items":[{"name":"박정희미술심리상담센터","tel":"031-667-7170","addr":"경기도 평택시 지산동 992번지","category":"보건위생 - 기타대인서비스"}]},{"lat":"37.078399891","long":"127.05591757","items":[{"name":"반지모텔","tel":"031-665-8383","addr":"경기도 평택시 지산동 815-4번지","category":"숙박업 - 여관/기타숙박업"}]},{"lat":"37.081841365","long":"127.05716832","items":[{"name":"반찬나라","tel":"031-663-6104","addr":"경기도 평택시 지산동 745-9번지","category":"일반휴게음식 - 일반한식"},{"name":"좋은사이","tel":"031-666-9825","addr":"경기도 평택시 지산동 745-9번지","category":"음식점 - 한식"},{"name":"좋은사이","tel":"031-663-3343","addr":"경기도 평택시 지산동 745-9번지 1층 103호","category":"일반휴게음식 - 일반한식"}]},{"lat":"37.081066656","long":"127.05672916","items":[{"name":"반찬냉장고","tel":"031-611-4074","addr":"경기도 평택시 지산동 757-101번지","category":"도소매업 - 반찬"},{"name":"반찬냉장고","tel":"031-666-8782","addr":"경기도 평택시 지산동 757-101번지","category":"음료식품 - 기타음료식품"}]},{"lat":"37.076233688","long":"127.07917188","items":[{"name":"발렛 앤 워시","tel":"","addr":"경기도 평택시 지산동 500-2번지 1층","category":"자동차정비 유지 - 세차장"}]},{"lat":"37.080956602","long":"127.07700608","items":[{"name":"백문종합건설","tel":"031-662-3947","addr":"경기도 평택시 지산동 1236-10번지","category":"건축자재 - 보일러·펌프·샷시"}]},{"lat":"37.076787193","long":"127.05547787","items":[{"name":"백촌 정보통신","tel":"031-668-0880","addr":"경기도 평택시 지산동 824-11번지 1층 1호","category":"사무통신 - 통신기기"},{"name":"스포맥스","tel":"031-666-2278","addr":"경기도 평택시 지산동 824-11번지","category":"소매업 - 운동기구"}]},{"lat":"37.081786352","long":"127.05920387","items":[{"name":"베비또(BEBITO)","tel":"","addr":"경기도 평택시 지산동 729-2","category":"의류 - 정장"}]},{"lat":"37.079930907","long":"127.05763929","items":[{"name":"별모바일","tel":"031-611-3188","addr":"경기도 평택시 지산동 761-19번지 1층","category":"사무통신 - 통신기기"},{"name":"케이떠블유엠에스","tel":"031-664-7333","addr":"경기도 평택시 지산동 761-19번지 3층","category":"가구 - 일반가구"},{"name":"평택효간병인","tel":"031-611-5505","addr":"경기도 평택시 지산동 761-19번지","category":"기타의료기관 - 기타의료기관 및 기타"},{"name":"평택효간병인협회","tel":"031-666-5558","addr":"경기도 평택시 지산동 761-19번지","category":"서비스업 - 인력"}]},{"lat":"37.080175119","long":"127.05559267","items":[{"name":"보부","tel":"031-657-0227","addr":"경기도 평택시 지산동 767-122번지","category":"의류 - 기타의류"}]},{"lat":"37.079399074","long":"127.05808875","items":[{"name":"보스톤드림치과","tel":"031-663-3050","addr":"경기도 평택시 지산동 773-1번지 3층","category":"서비스업 - 병원"},{"name":"보스톤드림치과의원","tel":"031-665-3788","addr":"경기도 평택시 지산동 773-1번지 3층","category":"의원 - 치과의원"},{"name":"송탄터미널 마포갈매기","tel":"031-663-0303","addr":"경기도 평택시 지산동 773-1번지 1층","category":"음식점 - 한식"},{"name":"시나브로","tel":"","addr":"경기도 평택시 지산동 773-1번지 2층","category":"일반휴게음식 - 주점"},{"name":"신마포갈매기송탄터미널점","tel":"031-663-6092","addr":"경기도 평택시 지산동 773-1번지 1층","category":"일반휴게음식 - 일반한식"},{"name":"아로마","tel":"031-000-0000","addr":"경기도 평택시 지산동 773-1번지 송탄빌딩","category":"보건위생 - 화장품"},{"name":"아지트","tel":"031-666-1019","addr":"경기도 평택시 지산동 773-1번지 송탄빌딩 4층","category":"레저업소 - 당 구 장"},{"name":"아지트당구장","tel":"070-8182-5416","addr":"경기도 평택시 지산동 773-1번지 4층","category":"레저업소 - 당 구 장"},{"name":"아프로","tel":"031-611-9980","addr":"경기도 평택시 지산동 773-1번지 송탄빌딩 4층","category":"레저업소 - 기타레져업소"},{"name":"창민돼지불백","tel":"031-662-9289","addr":"경기도 평택시 지산동 773-1번지 송탄빌딩","category":"일반휴게음식 - 일반한식"},{"name":"창민송탄연탄불생고기","tel":"031-667-8295","addr":"경기도 평택시 지산동 773-1번지","category":"음식점 - 양식"},{"name":"평택원조김밥나라","tel":"031-611-1144","addr":"경기도 평택시 지산동 773-1번지","category":"음식점 - 분식"},{"name":"평택원조김밥나라","tel":"031-664-5053","addr":"경기도 평택시 지산동 773-1번지 송탄빌딩 1층","category":"일반휴게음식 - 일반한식"},{"name":"평택컨텀의료기","tel":"070-8940-7582","addr":"경기도 평택시 지산동 773-1번지 송탄빌딩 5층","category":"보건위생 - 의료용품"}]},{"lat":"37.075596099","long":"127.0591768","items":[{"name":"보시엘드파리과자점","tel":"031-665-6464","addr":"경기도 평택시 지산동 687번지 외3필지","category":"음료식품 - 제과점"}]},{"lat":"37.08114804","long":"127.05608818","items":[{"name":"보신당","tel":"031-663-5600","addr":"경기도 평택시 지산동 755-10번지","category":"신변잡화 - 시계"},{"name":"엘리에 명품이","tel":"","addr":"경기도 평택시 지산동 755-10번지","category":"의류 - 정장"},{"name":"이화약국","tel":"031-663-5911","addr":"경기도 평택시 지산동 755-10번지","category":"약국 - 약국"},{"name":"이화약국","tel":"031-668-0292","addr":"경기도 평택시 지산동 755-10번지","category":"소매업 - 약국"},{"name":"하얀나라 이상수 피부과의원","tel":"031-665-7528","addr":"경기도 평택시 지산동 755-10번지","category":"서비스업 - 병원"},{"name":"하얀나라에스테틱","tel":"031-666-8359","addr":"경기도 평택시 지산동 755-10번지","category":"보건위생 - 화장품"},{"name":"하얀나라이상수피부과","tel":"031-666-8359","addr":"경기도 평택시 지산동 755-10번지","category":"의원 - 의원"}]},{"lat":"37.08067914","long":"127.05686384","items":[{"name":"복댕이식당","tel":"031-664-9917","addr":"경기도 평택시 지산동 757-36번지 1층","category":"일반휴게음식 - 일반한식"}]},{"lat":"37.07918071","long":"127.06245204","items":[{"name":"복주네쌈밥","tel":"031-662-5580","addr":"경기도 평택시 지산동 1081번지","category":"일반휴게음식 - 일반한식"},{"name":"수신닭발(지산분점)","tel":"070-4249-1578","addr":"경기도 평택시 지산동 1081번지 1동 2호","category":"일반휴게음식 - 스넥"},{"name":"이종훈골프아카데미","tel":"031-668-0079","addr":"경기도 평택시 지산동 1081번지 2층","category":"회원제형태 - 레져업소"}]},{"lat":"37.083807761","long":"127.07062075","items":[{"name":"본Food","tel":"031-668-8769","addr":"경기도 평택시 지산동 621-57번지 더팰리스 C동 401호","category":"음료식품 - 농·축·수산품"}]},{"lat":"37.083229044","long":"127.05705684","items":[{"name":"봉봉연탄불생고기","tel":"","addr":"경기도 평택시 지산동 740-9번지","category":"일반휴게음식 - 일반한식"},{"name":"봉봉연탄불생고기","tel":"031-663-2814","addr":"경기도 평택시 지산동 740-9번지","category":"음식점 - 한식"},{"name":"봉봉플라워","tel":"","addr":"경기도 평택시 지산동 740-9번지","category":"소매업 - 화훼"},{"name":"봉봉플라워","tel":"031-611-1715","addr":"경기도 평택시 지산동 740-9번지","category":"문화.취미 - 화원"}]},{"lat":"37.076260564","long":"127.0638667","items":[{"name":"봉이랜드사우나","tel":"031-665-5753","addr":"경기도 평택시 지산동 1094 지하층 1","category":"보건위생 - 사우나"},{"name":"새하얀세탁소","tel":"031-664-6100","addr":"경기도 평택시 지산동 1094번지 건영아파트 206호","category":"서비스업 - 세탁"},{"name":"수민헤어","tel":"031-611-0677","addr":"경기도 평택시 지산동 1094번지 건영아파트","category":"서비스업 - 이미용"},{"name":"용인대 뉴선일 태권도","tel":"031-666-0722","addr":"경기도 평택시 지산동 1094번지 204호 205호","category":"학원 - 예·체능계학원"},{"name":"지산사","tel":"031-664-2263","addr":"경기도 평택시 지산동 1094번지 건영 상가 301호","category":"보건위생 - 기타대인서비스"}]},{"lat":"37.073596849","long":"127.07391775","items":[{"name":"부락산원두막","tel":"031-666-9954","addr":"경기도 평택시 지산동 536-2번지 2층","category":"일반휴게음식 - 일반한식"}]},{"lat":"37.073453288","long":"127.0728943","items":[{"name":"부락산주막","tel":"031-611-2229","addr":"경기도 평택시 지산동 537-4번지 1층","category":"일반휴게음식 - 일반한식"},{"name":"부락산편의점","tel":"031-611-2229","addr":"경기도 평택시 지산동 537-4번지 1층","category":"유통업 영리 - 슈퍼마켓"}]},{"lat":"37.072291377","long":"127.08613982","items":[{"name":"부락산케이투","tel":"031-666-0664","addr":"경기도 평택시 지산동 246-4번지","category":"일반휴게음식 - 일반한식"}]},{"lat":"37.074174865","long":"127.07164674","items":[{"name":"부락산포장마차","tel":"031-663-6673","addr":"경기도 평택시 지산동 528-5번지","category":"일반휴게음식 - 일반한식"}]},{"lat":"37.081480978","long":"127.05708934","items":[{"name":"부부떡집","tel":"031-666-6154","addr":"경기도 평택시 지산동 754-19번지","category":"음료식품 - 제과점"}]},{"lat":"37.082093594","long":"127.0573147","items":[{"name":"부산아지매국밥","tel":"001-0000-0000","addr":"경기도 평택시 지산동 745-10번지 1층","category":"일반휴게음식 - 일반한식"}]},{"lat":"37.081625336","long":"127.05667332","items":[{"name":"부산아지매식당","tel":"031-666-9198","addr":"경기도 평택시 지산동 754-5번지 1층","category":"일반휴게음식 - 일반한식"},{"name":"임 한의원","tel":"031-663-2814","addr":"경기도 평택시 지산동 754-5번지 2층","category":"의원 - 한의원"},{"name":"임한의원","tel":"031-666-8359","addr":"경기도 평택시 지산동 754-5번지","category":"서비스업 - 병원"}]},{"lat":"37.081346034","long":"127.05661689","items":[{"name":"부일여인숙","tel":"031-663-2352","addr":"경기도 평택시 지산동 756-20","category":"숙박업 - 여관/기타숙박업"}]},{"lat":"37.081316769","long":"127.06134032","items":[{"name":"뷰티스킨","tel":"","addr":"경기도 평택시 지산동 1029번지 쌍용아파트 상가 121호","category":"소매업 - 화장품"},{"name":"약선닭발","tel":"031-667-8878","addr":"경기도 평택시 지산동 1029번지 삼익아파트 120호","category":"음식점 - 한식"},{"name":"카페나날","tel":"031-663-1171","addr":"경기도 평택시 지산동 1029번지 삼익아파트 상가동 1층 110호","category":"음식점 - 커피"},{"name":"크로세돌스토리","tel":"031-611-0331","addr":"경기도 평택시 지산동 1029번지 삼익아파트 상가동 108호","category":"문화.취미 - 문화취미기타"}]},{"lat":"37.079706803","long":"127.05506378","items":[{"name":"비단장수","tel":"070-4806-6789","addr":"경기도 평택시 지산동 766-13번지","category":"직물 - 옷감·직물"},{"name":"비단장수","tel":"031-662-3940","addr":"경기도 평택시 지산동 766-13번지","category":"소매업 - 원단"},{"name":"신오렌지","tel":"","addr":"경기도 평택시 지산동 766-13번지","category":"의류 - 정장"}]},{"lat":"37.07975809","long":"127.06103548","items":[{"name":"비어사케","tel":"031-664-7368","addr":"경기도 평택시 지산동 1070번지","category":"음식점 - 호프"},{"name":"비어사케(지산점)","tel":"031-663-2933","addr":"경기도 평택시 지산동 1070번지","category":"일반휴게음식 - 주점"},{"name":"스타일맨","tel":"031-000-0000","addr":"경기도 평택시 지산동 1070번지 1층","category":"보건위생 - 미용원"},{"name":"엘림보습학원","tel":"031-665-9242","addr":"경기도 평택시 지산동 1070번지 2층","category":"학원 - 보습학원"},{"name":"피자스쿨(송탄지산점)","tel":"031-663-2577","addr":"경기도 평택시 지산동 1070번지","category":"음식점 - 양식"},{"name":"피자스쿨송탄지산점","tel":"031-663-0303","addr":"경기도 평택시 지산동 1070번지","category":"일반휴게음식 - 서양음식"}]},{"lat":"37.076710136","long":"127.06570009","items":[{"name":"빵구","tel":"031-665-5664","addr":"경기도 평택시 지산동 1145번지","category":"음식점 - 카페"},{"name":"빵구","tel":"031-664-0206","addr":"경기도 평택시 지산동 1145번지","category":"일반휴게음식 - 서양음식"}]},{"lat":"37.080092011","long":"127.05994486","items":[{"name":"뽀까뽀까야채곱창","tel":"031-611-1541","addr":"경기도 평택시 지산동 1028번지 제일아파트 6호","category":"일반휴게음식 - 일반한식"},{"name":"장미마트","tel":"031-666-4838","addr":"경기도 평택시 지산동 1028번지 제일아파트","category":"소매업 - 슈퍼"},{"name":"제일농수산물","tel":"031-665-0016","addr":"경기도 평택시 지산동 1028번지 제일아파트","category":"음료식품 - 농·축·수산품"}]},{"lat":"37.078876472","long":"127.05806588","items":[{"name":"산울림","tel":"031-662-6143","addr":"경기도 평택시 지산동 775-11번지 지하층","category":"일반휴게음식 - 일반한식"},{"name":"유현통신","tel":"031-667-4010","addr":"경기도 평택시 지산동 775-11번지 1층","category":"사무통신 - 통신기기"},{"name":"피케이짐 (PK GYM)","tel":"031-662-4967","addr":"경기도 평택시 지산동 775-11번지","category":"레저업소 - 헬스클럽"}]},{"lat":"37.081538547","long":"127.06803207","items":[{"name":"산촌미꾸라지매운탕","tel":"031-665-5220","addr":"경기도 평택시 지산동 630-2번지","category":"일반휴게음식 - 일반한식"}]},{"lat":"37.07992903","long":"127.06156418","items":[{"name":"살롱드영","tel":"031-666-3240","addr":"경기도 평택시 지산동 714-13번지 1층","category":"보건위생 - 미용원"},{"name":"쏭쏭모바일","tel":"031-664-0601","addr":"경기도 평택시 지산동 714-13번지 외1필지","category":"사무통신 - 통신기기"},{"name":"아리랑핫도그(송탄지산점)","tel":"070-4384-1003","addr":"경기도 평택시 지산동 714-13번지","category":"일반휴게음식 - 서양음식"},{"name":"픽폰모바일","tel":"031-665-1470","addr":"경기도 평택시 지산동 714-13번지 102호","category":"사무통신 - 통신기기"},{"name":"픽폰모바일","tel":"031-664-5897","addr":"경기도 평택시 지산동 714-13번지","category":"소매업 - 휴대폰"}]},{"lat":"37.079787898","long":"127.05506384","items":[{"name":"삼국지","tel":"031-611-0235","addr":"경기도 평택시 지산동 766-11번지","category":"일반휴게음식 - 중국식"}]},{"lat":"37.080985319","long":"127.05725768","items":[{"name":"삼성수산","tel":"031-665-8439","addr":"경기도 평택시 지산동 756-70번지","category":"음료식품 - 농·축·수산품"},{"name":"삼성수산","tel":"031-667-3495","addr":"경기도 평택시 지산동 756-70번지","category":"도소매업 - 생선"}]},{"lat":"37.076016101","long":"127.06611561","items":[{"name":"삼성자판기","tel":"031-665-5481","addr":"경기도 평택시 지산동 1184번지 1층","category":"기타 - 기타 전문점"},{"name":"삼성자판기/삼원(담배)","tel":"","addr":"경기도 평택시 지산동 1184번지 1층","category":"기타 - 기타 전문점"},{"name":"송탄문구슈퍼","tel":"031-662-3031","addr":"경기도 평택시 지산동 1184번지","category":"소매업 - 문구"}]},{"lat":"37.081785873","long":"127.0602048","items":[{"name":"삼익주방","tel":"031-666-3818","addr":"경기도 평택시 지산동 1002번지","category":"주방용구 - 주방용구"},{"name":"삼익주방","tel":"031-611-3640","addr":"경기도 평택시 지산동 1002번지","category":"도소매업 - 주방용품"},{"name":"한성닭집","tel":"031-664-6613","addr":"경기도 평택시 지산동 1002번지","category":"음료식품 - 정육점"}]},{"lat":"37.074063832","long":"127.0898077","items":[{"name":"삼일철물건재","tel":"031-611-2425","addr":"경기도 평택시 지산동 223-19번지","category":"건축자재 - 목재·석재·철물"}]},{"lat":"37.081209104","long":"127.06039555","items":[{"name":"삼척생선전문점","tel":"031-668-7330","addr":"경기도 평택시 지산동 1013번지","category":"일반휴게음식 - 일반한식"},{"name":"삼척생선전문점","tel":"031-611-1344","addr":"경기도 평택시 지산동 1013번지","category":"음식점 - 한식"},{"name":"조쌩커피","tel":"031-378-0447","addr":"경기도 평택시 지산동 1013번지","category":"일반휴게음식 - 서양음식"}]},{"lat":"37.08106983","long":"127.06833532","items":[{"name":"삼천리강산","tel":"031-666-6777","addr":"경기도 평택시 지산동 629-2번지","category":"일반휴게음식 - 일반한식"}]},{"lat":"37.075786478","long":"127.08756057","items":[{"name":"삼태기마을","tel":"031-611-0207","addr":"경기도 평택시 지산동 216-1번지 1동","category":"일반휴게음식 - 일반한식"},{"name":"주안상사","tel":"031-667-7557","addr":"경기도 평택시 지산동 216-1번지 A동","category":"자동차정비 유지 - 자동차부품"}]},{"lat":"37.081341012","long":"127.06674982","items":[{"name":"상구닭발","tel":"031-668-3958","addr":"경기도 평택시 지산동 636-10번지 나동","category":"일반휴게음식 - 일반한식"},{"name":"서창서서갈비","tel":"","addr":"경기도 평택시 지산동 636-10번지","category":"음식점 - 한식"},{"name":"서창서서갈비(송탄점)","tel":"031-667-6668","addr":"경기도 평택시 지산동 636-10번지 가동","category":"일반휴게음식 - 일반한식"},{"name":"총각수산","tel":"031-668-1395","addr":"경기도 평택시 지산동 636-10번지 나동","category":"음식점 - 일식"},{"name":"총각수산송탄2호점","tel":"031-666-8810","addr":"경기도 평택시 지산동 636-10번지 나동","category":"일반휴게음식 - 일식·회집"}]},{"lat":"37.081120795","long":"127.0565605","items":[{"name":"상미네과일나라","tel":"031-666-4001","addr":"경기도 평택시 지산동 756-28번지","category":"음료식품 - 농·축·수산품"},{"name":"송북시장상인회 송북카페","tel":"031-662-3368","addr":"경기도 평택시 지산동 756-28번지","category":"일반휴게음식 - 스넥"},{"name":"우리상회","tel":"","addr":"경기도 평택시 지산동 756-28번지","category":"소매업 - 야채"},{"name":"우리상회","tel":"031-662-3796","addr":"경기도 평택시 지산동 756-28번지","category":"음료식품 - 농·축·수산품"},{"name":"행복한상미네과일나라","tel":"031-665-2153","addr":"경기도 평택시 지산동 756-28번지","category":"소매업 - 과일"}]},{"lat":"37.080065846","long":"127.05811173","items":[{"name":"새우리약국","tel":"031-663-9798","addr":"경기도 평택시 지산동 761-12번지","category":"소매업 - 약국"},{"name":"송탄미용학원","tel":"031-663-3357","addr":"경기도 평택시 지산동 761-12번지 6층","category":"학원 - 기능학원"},{"name":"제이와이","tel":"031-663-9798","addr":"경기도 평택시 지산동 761-12번지 3층 일부","category":"건강식품 - 기타건강식품"},{"name":"제일테크","tel":"031-665-1516","addr":"경기도 평택시 지산동 761-12번지 3층","category":"보건위생 - 화장품"},{"name":"하나의원","tel":"031-665-3788","addr":"경기도 평택시 지산동 761-12번지","category":"서비스업 - 병원"},{"name":"힐링순스킨앤바디","tel":"031-000-0000","addr":"경기도 평택시 지산동 761-12번지 4층","category":"보건위생 - 피부미용실"}]},{"lat":"37.079927466","long":"127.06464561","items":[{"name":"색연필","tel":"031-663-3683","addr":"경기도 평택시 지산동 643번지","category":"서적문구 - 문구용품"},{"name":"송탄하나부동산","tel":"031-665-7471","addr":"경기도 평택시 지산동 643번지","category":"서비스업 - 부동산"}]},{"lat":"37.080147145","long":"127.05767319","items":[{"name":"샤론홈인테리어","tel":"031-662-0423","addr":"경기도 평택시 지산동 761-1번지","category":"직물 - 카페트,커튼,천막,지물"}]},{"lat":"37.080123571","long":"127.06860441","items":[{"name":"서안정보통신","tel":"","addr":"경기도 평택시 지산동 1217번지 케이씨씨스위첸 106동 203호","category":"사무통신 - 통신기기"}]},{"lat":"37.079317577","long":"127.07555375","items":[{"name":"서울꽃도매","tel":"031-665-2760","addr":"경기도 평택시 지산동 429-3번지","category":"도매업 - 화훼"},{"name":"서울꽃도매","tel":"031-663-6757","addr":"경기도 평택시 지산동 429-3번지","category":"문화.취미 - 화원"}]},{"lat":"37.074511376","long":"127.06603564","items":[{"name":"서울꽃식물원","tel":"031-665-0902","addr":"경기도 평택시 지산동 산172-2번지","category":"문화.취미 - 화원"}]},{"lat":"37.074650616","long":"127.05783791","items":[{"name":"서울카서비스","tel":"031-667-4884","addr":"경기도 평택시 지산동 850-69번지","category":"자동차정비 유지 - 자동차정비"},{"name":"왕창닭발","tel":"031-655-2217","addr":"경기도 평택시 지산동 850-69번지","category":"일반휴게음식 - 일반한식"}]},{"lat":"37.075927256","long":"127.07928403","items":[{"name":"서원냉열","tel":"031-665-1775","addr":"경기도 평택시 지산동 502번지","category":"용역 서비스 - 기타용역서비스"}]},{"lat":"37.081237897","long":"127.05663931","items":[{"name":"서탄떡방앗간","tel":"031-667-3495","addr":"경기도 평택시 지산동 756-27번지","category":"음료식품 - 제과점"},{"name":"서탄떡집","tel":"","addr":"경기도 평택시 지산동 756-27번지","category":"소매업 - 떡"},{"name":"서탄상회","tel":"031-663-0563","addr":"경기도 평택시 지산동 756-27번지","category":"음료식품 - 농·축·수산품"}]},{"lat":"37.078261462","long":"127.07855539","items":[{"name":"서포칼국수","tel":"031-611-9797","addr":"경기도 평택시 지산동 456-2번지","category":"음식점 - 한식"},{"name":"서포칼국수","tel":"031-665-1441","addr":"경기도 평택시 지산동 456-2번지 1층","category":"일반휴게음식 - 일반한식"}]},{"lat":"37.08117449","long":"127.05737028","items":[{"name":"선물의 집","tel":"031-667-9212","addr":"경기도 평택시 지산동 756-68번지","category":"소매업 - 액세서리"},{"name":"선물의집","tel":"031-000-0000","addr":"경기도 평택시 지산동 756-68번지","category":"신변잡화 - 액세서리"},{"name":"충남식품","tel":"031-663-8239","addr":"경기도 평택시 지산동 756-68번지","category":"음료식품 - 농·축·수산품"},{"name":"충남식품","tel":"","addr":"경기도 평택시 지산동 756-68번지","category":"소매업 - 슈퍼"}]},{"lat":"37.079651868","long":"127.05700931","items":[{"name":"성인용품","tel":"031-662-7080","addr":"경기도 평택시 지산동 768-76번지","category":"기타 - 기타 전문점"}]},{"lat":"37.079262276","long":"127.06150744","items":[{"name":"성피아노음악학원","tel":"031-662-7402","addr":"경기도 평택시 지산동 1086번지 2층","category":"학원 - 예·체능계학원"},{"name":"야한밤영상포차","tel":"031-662-1022","addr":"경기도 평택시 지산동 1086번지 1층 2호","category":"일반휴게음식 - 주점"},{"name":"큰맘할매순대국","tel":"031-668-0505","addr":"경기도 평택시 지산동 1086번지","category":"음식점 - 한식"},{"name":"큰맘할매순대국 평택지산점","tel":"031-662-1022","addr":"경기도 평택시 지산동 1086번지 1층","category":"일반휴게음식 - 일반한식"}]},{"lat":"37.074932329","long":"127.07064659","items":[{"name":"세계명상화치료센터","tel":"031-665-1182","addr":"경기도 평택시 지산동 551-4번지","category":"일반휴게음식 - 일반한식"}]},{"lat":"37.080569206","long":"127.06069872","items":[{"name":"세광인테리어","tel":"031-664-7067","addr":"경기도 평택시 지산동 1030번지","category":"건축자재 - 인테리어전문"}]},{"lat":"37.080815","long":"127.07277736","items":[{"name":"세광철물","tel":"031-668-1667","addr":"경기도 평택시 지산동 595-1번지 1층","category":"건축자재 - 목재·석재·철물"}]},{"lat":"37.080092615","long":"127.05867405","items":[{"name":"세모네모","tel":"","addr":"경기도 평택시 지산동 761-31번지 401호","category":"보건위생 - 화장품"}]},{"lat":"37.081173873","long":"127.05869734","items":[{"name":"세븐스타빨래방지산점","tel":"070-4210-2569","addr":"경기도 평택시 지산동 759-33번지 1층","category":"수리서비스 - 세탁소"}]},{"lat":"37.076071892","long":"127.06278697","items":[{"name":"세븐일레븐 평택지산미주점","tel":"031-611-6566","addr":"경기도 평택시 지산동 1091번지 미주아파트 101호","category":"소매업 - 편의점"},{"name":"진서영헤어","tel":"031-662-0068","addr":"경기도 평택시 지산동 1091번지 미주상가 202호","category":"보건위생 - 미용원"}]},{"lat":"37.080201915","long":"127.05612126","items":[{"name":"세븐일레븐평택송북시장점","tel":"031-1577-0711","addr":"경기도 평택시 지산동 768-31번지","category":"유통업 영리 - 편 의 점"}]},{"lat":"37.081123053","long":"127.06984237","items":[{"name":"세븐일레븐평택지산코아루점","tel":"","addr":"경기도 평택시 지산동 580-4번지 상가 1층","category":"유통업 영리 - 편 의 점"}]},{"lat":"37.076457768","long":"127.06583483","items":[{"name":"세븐일레븐평택지산푸른점","tel":"031-1577-0711","addr":"경기도 평택시 지산동 1180번지","category":"유통업 영리 - 편 의 점"},{"name":"원정보통신","tel":"031-684-0114","addr":"경기도 평택시 지산동 1180번지","category":"회원제형태 - 기타4"}]},{"lat":"37.07890379","long":"127.05744737","items":[{"name":"세진패션","tel":"031-663-8172","addr":"경기도 평택시 지산동 775-19번지 송산빌딩","category":"의류 - 정장"},{"name":"송탄골드만치과","tel":"031-666-2313","addr":"경기도 평택시 지산동 775-19번지 3층","category":"의원 - 치과의원"}]},{"lat":"37.077877101","long":"127.05631081","items":[{"name":"세화철물상사","tel":"031-664-9800","addr":"경기도 평택시 지산동 805-10번지","category":"건축자재 - 목재·석재·철물"},{"name":"세화철물상사","tel":"031-662-5641","addr":"경기도 평택시 지산동 805-10번지","category":"소매업 - 철물"},{"name":"전통노래연습장","tel":"031-611-2626","addr":"경기도 평택시 지산동 805-10번지 2층","category":"레저업소 - 노 래 방"}]},{"lat":"37.0793176","long":"127.0588984","items":[{"name":"소담고을","tel":"031-665-5840","addr":"경기도 평택시 지산동 716-4번지","category":"일반휴게음식 - 일반한식"},{"name":"소담고을","tel":"031-663-6693","addr":"경기도 평택시 지산동 716-4번지","category":"음식점 - 한식"},{"name":"어머니생선구이","tel":"031-666-8765","addr":"경기도 평택시 지산동 716-4번지","category":"음식점 - 한식"},{"name":"어머니생선구이.백반","tel":"031-663-6693","addr":"경기도 평택시 지산동 716-4번지 1층","category":"일반휴게음식 - 일반한식"}]},{"lat":"37.082174807","long":"127.05705609","items":[{"name":"소라약국","tel":"031-667-1075","addr":"경기도 평택시 지산동 745-1번지","category":"소매업 - 약국"},{"name":"정동국내과의원","tel":"031-663-5632","addr":"경기도 평택시 지산동 745-1번지","category":"서비스업 - 병원"}]},{"lat":"37.076038015","long":"127.05833372","items":[{"name":"소랑돼지랑","tel":"","addr":"경기도 평택시 지산동 793-11번지","category":"음식점 - 한식"},{"name":"피닉스스포츠센터","tel":"031-667-5959","addr":"경기도 평택시 지산동 793-11번지","category":"회원제형태 - 레져업소"},{"name":"피닉스스포츠센터","tel":"031-662-1363","addr":"경기도 평택시 지산동 793-11번지","category":"서비스업 - 헬스"},{"name":"휴헤어","tel":"0710-4001-7347","addr":"경기도 평택시 지산동 793-11번지 1층","category":"보건위생 - 미용원"}]},{"lat":"37.07648518","long":"127.06511514","items":[{"name":"소망","tel":"031-663-7254","addr":"경기도 평택시 지산동 1150번지","category":"음료식품 - 기타음료식품"}]},{"lat":"37.081812839","long":"127.06033978","items":[{"name":"소문난감자탕","tel":"031-611-1344","addr":"경기도 평택시 지산동 1000번지","category":"일반휴게음식 - 일반한식"},{"name":"소문난감자탕","tel":"","addr":"경기도 평택시 지산동 1000번지","category":"음식점 - 한식"},{"name":"희성유공압설비","tel":"031-664-6009","addr":"경기도 평택시 지산동 1000번지","category":"건축자재 - 기타건축자재"}]},{"lat":"37.079343276","long":"127.06169868","items":[{"name":"소연노래연습장","tel":"031-666-1660","addr":"경기도 평택시 지산동 1085번지 2층","category":"레저업소 - 노 래 방"},{"name":"왕궁뼈다구탕대박","tel":"031-611-1165","addr":"경기도 평택시 지산동 1085번지","category":"일반휴게음식 - 일반한식"},{"name":"작은뚱이네","tel":"031-611-7958","addr":"경기도 평택시 지산동 1085번지 1층","category":"일반휴게음식 - 일반한식"},{"name":"참새골","tel":"031-667-1150","addr":"경기도 평택시 지산동 1085번지","category":"일반휴게음식 - 일반한식"}]},{"lat":"37.080760286","long":"127.05675144","items":[{"name":"소연식품","tel":"031-667-5159","addr":"경기도 평택시 지산동 757-12번지","category":"음료식품 - 기타음료식품"},{"name":"소연식품","tel":"031-664-2246","addr":"경기도 평택시 지산동 757-12번지","category":"제조업 - 식품"},{"name":"전국축산물","tel":"031-666-6810","addr":"경기도 평택시 지산동 757-12번지","category":"소매업 - 정육"}]},{"lat":"37.080063971","long":"127.06200288","items":[{"name":"송북감자탕과쭈꾸미삼겹살","tel":"031-662-7013","addr":"경기도 평택시 지산동 714-16번지","category":"음식점 - 한식"},{"name":"송북감자탕과쭈꾸미삼겹살","tel":"031-664-8705","addr":"경기도 평택시 지산동 714-16번지","category":"일반휴게음식 - 일반한식"},{"name":"용가리노래연습장","tel":"031-668-0909","addr":"경기도 평택시 지산동 714-16번지 2층","category":"레저업소 - 노 래 방"},{"name":"제타PC방","tel":"","addr":"경기도 평택시 지산동 714-16번지 3층","category":"레저업소 - 기타레져업소"}]},{"lat":"37.082012627","long":"127.05703348","items":[{"name":"송북시장상인회","tel":"031-662-3368","addr":"경기도 평택시 지산동 745-14번지","category":"기타 - 비영리/비대상"}]},{"lat":"37.081400062","long":"127.05669566","items":[{"name":"송북시장상인회송북카페","tel":"031-664-0618","addr":"경기도 평택시 지산동 754-28번지","category":"소매업 - 카페"},{"name":"한우랑정육도매점","tel":"031-666-7415","addr":"경기도 평택시 지산동 754-28번지","category":"음료식품 - 정육점"},{"name":"한우랑정육점","tel":"031-666-3110","addr":"경기도 평택시 지산동 754-28번지","category":"소매업 - 정육"}]},{"lat":"37.080341563","long":"127.0653882","items":[{"name":"송북초등학교","tel":"031-664-1511","addr":"경기도 평택시 지산동 642번지","category":"학원 - 초중고교육기관"},{"name":"송북초등학교_수업료","tel":"031-664-1511","addr":"경기도 평택시 지산동 642번지","category":"학원 - 초중고교육기관"},{"name":"송북초등학교병설유치원[아이행복]","tel":"031-664-1514","addr":"경기도 평택시 지산동 642번지","category":"학원 - 유치원"}]},{"lat":"37.082570978","long":"127.05769742","items":[{"name":"송탄낚시프라자","tel":"031-668-5156","addr":"경기도 평택시 지산동 735-37번지","category":"레져용품 - 스포츠·레져용품"}]},{"lat":"37.081066844","long":"127.05631305","items":[{"name":"송탄농약플라워","tel":"031-666-5132","addr":"경기도 평택시 지산동 756-19번지","category":"회원제형태 - 기타4"},{"name":"송탄농약플라워","tel":"031-663-5207","addr":"경기도 평택시 지산동 756-19번지","category":"소매업 - 농약, 화훼"}]},{"lat":"37.080814067","long":"127.05737002","items":[{"name":"송탄복떡집","tel":"031-666-1404","addr":"경기도 평택시 지산동 757-7번지","category":"제조업 - 떡"},{"name":"송탄복떡집","tel":"031-662-5742","addr":"경기도 평택시 지산동 757-7번지","category":"음료식품 - 제과점"}]},{"lat":"37.080292356","long":"127.05536783","items":[{"name":"송탄사","tel":"031-662-3940","addr":"경기도 평택시 지산동 767-50번지","category":"보건위생 - 미용재료"},{"name":"송탄사","tel":"031-667-1003","addr":"경기도 평택시 지산동 767-50번지","category":"소매업 - 잡화"}]},{"lat":"37.08148132","long":"127.05633583","items":[{"name":"송탄성모안경","tel":"031-611-0996","addr":"경기도 평택시 지산동 755-6번지 1층","category":"보건위생 - 안경"},{"name":"송탄성모안과","tel":"031-667-1144","addr":"경기도 평택시 지산동 755-6번지 (2,3층)","category":"서비스업 - 병원"},{"name":"송탄종합약국","tel":"031-662-3690","addr":"경기도 평택시 지산동 755-6번지 1층","category":"약국 - 약국"},{"name":"송탄종합약국","tel":"031-662-3690","addr":"경기도 평택시 지산동 755-6번지","category":"약국 - 약국"},{"name":"송탄종합약국","tel":"031-611-7378","addr":"경기도 평택시 지산동 755-6번지","category":"소매업 - 약국"}]},{"lat":"37.074596306","long":"127.0583664","items":[{"name":"송탄수산","tel":"031-111-1111","addr":"경기도 평택시 지산동 857-11번지 1층 101호","category":"일반휴게음식 - 일반한식"},{"name":"아빠돈가스전문점","tel":"031-662-1311","addr":"경기도 평택시 지산동 857-11번지 1층","category":"음식점 - 양식"}]},{"lat":"37.081147167","long":"127.05800005","items":[{"name":"송탄열쇠","tel":"031-667-9000","addr":"경기도 평택시 지산동 758-60번지","category":"건축자재 - 목재·석재·철물"},{"name":"펫 프랜즈","tel":"031-668-7955","addr":"경기도 평택시 지산동 758-60번지 1층","category":"문화.취미 - 애완동물"}]},{"lat":"37.081931686","long":"127.05669603","items":[{"name":"송탄우체국","tel":"031-662-0100","addr":"경기도 평택시 지산동 753-1번지","category":"용역 서비스 - 공공요금대행서비스/소"}]},{"lat":"37.081625499","long":"127.05631344","items":[{"name":"송탄유통","tel":"031-665-2815","addr":"경기도 평택시 지산동 755-15번지","category":"보건위생 - 화장품"},{"name":"숙녀방","tel":"031-611-0778","addr":"경기도 평택시 지산동 755-15번지","category":"소매업 - 화장품"}]},{"lat":"37.077404779","long":"127.07961164","items":[{"name":"송탄윤서어린이집[아이행복]","tel":"031-667-4530","addr":"경기도 평택시 지산동 497-1번지","category":"학원 - 유아원"}]},{"lat":"37.075570016","long":"127.05714136","items":[{"name":"송탄종합공사","tel":"031-666-7129","addr":"경기도 평택시 지산동 834-2번지","category":"건축자재 - 목재·석재·철물"}]},{"lat":"37.076150874","long":"127.06683543","items":[{"name":"송탄중학교","tel":"031-667-5987","addr":"경기도 평택시 지산동 1195번지","category":"학원 - 초중고교육기관"}]},{"lat":"37.082868734","long":"127.05680916","items":[{"name":"송탄토종한우직판장","tel":"031-611-6817","addr":"경기도 평택시 지산동 740-12번지","category":"음료식품 - 정육점"},{"name":"퍼플-케이(PURPLE-K)","tel":"031-000-0000","addr":"경기도 평택시 지산동 740-12번지 1층 1,2호","category":"일반휴게음식 - 서양음식"}]},{"lat":"37.072204179","long":"127.06694457","items":[{"name":"송현초등학교","tel":"031-611-9614","addr":"경기도 평택시 지산동 675-19번지 송현초등학교","category":"학원 - 초중고교육기관"}]},{"lat":"37.072564971","long":"127.06625893","items":[{"name":"송현초등학교병설유치원[아이행복]","tel":"031-611-9688","addr":"경기도 평택시 지산동 675","category":"학원 - 유치원"}]},{"lat":"37.079264991","long":"127.05572699","items":[{"name":"수다한식뷔페","tel":"031-666-3562","addr":"경기도 평택시 지산동 767-7번지","category":"일반휴게음식 - 일반한식"}]},{"lat":"37.074930022","long":"127.05766943","items":[{"name":"순수","tel":"","addr":"경기도 평택시 지산동 850번지 1층","category":"음료식품 - 기타음료식품"}]},{"lat":"37.077065388","long":"127.0579746","items":[{"name":"순이가 차려주는 밥상","tel":"031-611-0677","addr":"경기도 평택시 지산동 795-5번지","category":"일반휴게음식 - 일반한식"},{"name":"순이가차려주는밥상","tel":"031-665-6902","addr":"경기도 평택시 지산동 795-5번지","category":"음식점 - 한식"}]},{"lat":"37.080118661","long":"127.06073211","items":[{"name":"순이네3호점","tel":"031-666-7500","addr":"경기도 평택시 지산동 1034번지","category":"음식점 - 한식"},{"name":"순이네3호점","tel":"031-666-0207","addr":"경기도 평택시 지산동 1034번지","category":"일반휴게음식 - 일반한식"}]},{"lat":"37.079760113","long":"127.05675073","items":[{"name":"순이네포차","tel":"031-665-0819","addr":"경기도 평택시 지산동 768-2","category":"일반휴게음식 - 일반한식"}]},{"lat":"37.081012428","long":"127.057089","items":[{"name":"순자네포차","tel":"031-668-1119","addr":"경기도 평택시 지산동 756-62번지","category":"일반휴게음식 - 일반한식"},{"name":"순자포차","tel":"","addr":"경기도 평택시 지산동 756-62번지","category":"음식점 - 한식"}]},{"lat":"37.078153771","long":"127.07786929","items":[{"name":"숯불이야기","tel":"031-611-4512","addr":"경기도 평택시 지산동 465-1번지 2층","category":"일반휴게음식 - 일반한식"},{"name":"숯불이야기","tel":"031-611-4511","addr":"경기도 평택시 지산동 465-1번지","category":"음식점 - 한식"},{"name":"창조유통","tel":"","addr":"경기도 평택시 지산동 465-1번지","category":"도소매업 - 정육"}]},{"lat":"37.074759038","long":"127.05719701","items":[{"name":"쉬어가는주막","tel":"031-667-0706","addr":"경기도 평택시 지산동 848번지 1층","category":"일반휴게음식 - 주점"},{"name":"자담치킨(지산점)","tel":"031-663-2844","addr":"경기도 평택시 지산동 848번지","category":"일반휴게음식 - 스넥"}]},{"lat":"37.079980337","long":"127.06689488","items":[{"name":"쉬즈카페산책","tel":"031-668-0518","addr":"경기도 평택시 지산동 647-18번지 1동","category":"일반휴게음식 - 서양음식"}]},{"lat":"37.07739954","long":"127.05631048","items":[{"name":"쉴터모텔","tel":"031-668-0021","addr":"경기도 평택시 지산동 802-9번지","category":"숙박업 - 여관/기타숙박업"}]},{"lat":"37.080651752","long":"127.05763981","items":[{"name":"스위트안경원","tel":"031-664-5107","addr":"경기도 평택시 지산동 758-21번지","category":"소매업 - 안경"},{"name":"스위트안경원","tel":"031-667-8800","addr":"경기도 평택시 지산동 758-21번지 1층","category":"보건위생 - 안경"}]},{"lat":"37.081651926","long":"127.05764053","items":[{"name":"스타일","tel":"031-664-7716","addr":"경기도 평택시 지산동 753-39번지","category":"의류 - 정장"},{"name":"스타일 지산","tel":"031-686-7818","addr":"경기도 평택시 지산동 753-39번지","category":"소매업 - 의류"},{"name":"쌍둥이네손만두","tel":"031-666-8777","addr":"경기도 평택시 지산동 753-39번지 1층","category":"일반휴게음식 - 일반한식"},{"name":"아랑화장품","tel":"031-666-3110","addr":"경기도 평택시 지산동 753-39번지 1층","category":"보건위생 - 화장품"},{"name":"아랑화장품","tel":"031-663-7513","addr":"경기도 평택시 지산동 753-39번지 1층 뷰티샵","category":"소매업 - 화장품"},{"name":"오즈헤어샵","tel":"031-663-5207","addr":"경기도 평택시 지산동 753-39번지","category":"보건위생 - 미용원"},{"name":"오즈헤어팜","tel":"031-662-8506","addr":"경기도 평택시 지산동 753-39번지","category":"서비스업 - 이미용"},{"name":"주옥식품","tel":"031-662-9616","addr":"경기도 평택시 지산동 753-39번지","category":"소매업 - 식품"},{"name":"주옥식품","tel":"031-665-2586","addr":"경기도 평택시 지산동 753-39번지","category":"음료식품 - 기타음료식품"}]},{"lat":"37.079208566","long":"127.06078765","items":[{"name":"스터디센터CNT독서실","tel":"031-666-2525","addr":"경기도 평택시 지산동 1072번지 3층","category":"학원 - 독서실"},{"name":"스터디카페씨엔티","tel":"031-666-2525","addr":"경기도 평택시 지산동 1072번지 2층 201호","category":"일반휴게음식 - 일반한식"}]},{"lat":"37.082786802","long":"127.05861979","items":[{"name":"스티플호텔","tel":"031-668-8665","addr":"경기도 평택시 지산동 746-2번지","category":"숙박업 - 여관/기타숙박업"}]},{"lat":"37.07631379","long":"127.06547486","items":[{"name":"스파펫살롱","tel":"","addr":"경기도 평택시 지산동 1166번지 102호","category":"문화.취미 - 애완동물"},{"name":"장수전","tel":"","addr":"경기도 평택시 지산동 1166번지","category":"일반휴게음식 - 일반한식"},{"name":"키즈앤아트","tel":"","addr":"경기도 평택시 지산동 1166번지","category":"음료식품 - 제과점"}]},{"lat":"37.079570773","long":"127.05700925","items":[{"name":"승현에어컨","tel":"","addr":"경기도 평택시 지산동 768-77번지","category":"용역 서비스 - 기타용역서비스"},{"name":"우리쌀농산물","tel":"031-654-3580","addr":"경기도 평택시 지산동 768-77번지 1층","category":"음료식품 - 미곡상"},{"name":"정도유통","tel":"041-577-1232","addr":"경기도 평택시 지산동 768-77번지 지하1층","category":"음료식품 - 기타음료식품"}]},{"lat":"37.074651511","long":"127.05586998","items":[{"name":"신데렐라 미용실","tel":"031-664-5688","addr":"경기도 평택시 지산동 840-12번지","category":"서비스업 - 이미용"},{"name":"신데렐라헤어","tel":"031-662-1311","addr":"경기도 평택시 지산동 840-12번지","category":"보건위생 - 미용원"},{"name":"신데렐라헤어","tel":"031-665-6902","addr":"경기도 평택시 지산동 840-12번지","category":"서비스업 - 이미용"},{"name":"최은경콜렉션","tel":"031-666-8006","addr":"경기도 평택시 지산동 840-12번지 102호","category":"의류 - 정장"}]},{"lat":"37.079983236","long":"127.07736501","items":[{"name":"신도OA","tel":"031-668-8187","addr":"경기도 평택시 지산동 1238-5번지","category":"사무통신 - 사무용 OA기기"}]},{"lat":"37.077399677","long":"127.05600684","items":[{"name":"신맛골","tel":"031-665-5643","addr":"경기도 평택시 지산동 820-1번지","category":"일반휴게음식 - 일반한식"},{"name":"이슬산업","tel":"031-665-5643","addr":"경기도 평택시 지산동 820-1번지","category":"건축자재 - 기타건축자재"}]},{"lat":"37.080731609","long":"127.06026024","items":[{"name":"신우정보시스템","tel":"031-668-5583","addr":"경기도 평택시 지산동 1018번지","category":"수리서비스 - 사무·통신기기수리"},{"name":"우리숯불닭바베큐","tel":"031-662-8750","addr":"경기도 평택시 지산동 1018번지 1층","category":"일반휴게음식 - 일반한식"},{"name":"우리쪽갈비","tel":"031-691-9080","addr":"경기도 평택시 지산동 1018번지","category":"음식점 - 한식"},{"name":"우리쪽갈비엔꼬미닭도리탕","tel":"031-662-5189","addr":"경기도 평택시 지산동 1018번지","category":"일반휴게음식 - 일반한식"}]},{"lat":"37.080924206","long":"127.07092183","items":[{"name":"신제일공인중개사사무소","tel":"031-665-3400","addr":"경기도 평택시 지산동 584번지 1층 2호","category":"용역 서비스 - 부동산 중개·임대"},{"name":"호재","tel":"031-665-5553","addr":"경기도 평택시 지산동 584번지 103호","category":"용역 서비스 - 사무서비스"}]},{"lat":"37.083175032","long":"127.05694434","items":[{"name":"신차이","tel":"031-667-6637","addr":"경기도 평택시 지산동 740-10번지 1층","category":"일반휴게음식 - 중국식"},{"name":"중국식품점","tel":"031-667-6796","addr":"경기도 평택시 지산동 740-10번지 1층","category":"음료식품 - 기타음료식품"}]},{"lat":"37.081678723","long":"127.05814664","items":[{"name":"신현대보습학원","tel":"031-662-2921","addr":"경기도 평택시 지산동 752-15","category":"학원 - 보습학원"},{"name":"원더짐","tel":"031-663-6893","addr":"경기도 평택시 지산동 752-15번지 2층","category":"회원제형태 - 레져업소"},{"name":"태양횟집","tel":"031-664-1143","addr":"경기도 평택시 지산동 752-15번지 1층","category":"일반휴게음식 - 일식·회집"},{"name":"현대자동차정비공장","tel":"031-668-0167","addr":"경기도 평택시 지산동 752-15","category":"자동차정비 유지 - 자동차정비"}]},{"lat":"37.081426837","long":"127.05725799","items":[{"name":"신흥정육점","tel":"031-666-6810","addr":"경기도 평택시 지산동 754-37번지","category":"음료식품 - 정육점"},{"name":"신흥정육점","tel":"031-667-6254","addr":"경기도 평택시 지산동 754-37번지","category":"소매업 - 정육"}]},{"lat":"37.07617882","long":"127.06511489","items":[{"name":"심싸롱","tel":"","addr":"경기도 평택시 지산동 1152번지 1층","category":"보건위생 - 미용원"}]},{"lat":"37.081598079","long":"127.05716814","items":[{"name":"싱싱수산","tel":"031-663-7513","addr":"경기도 평택시 지산동 753-29번지","category":"음료식품 - 농·축·수산품"},{"name":"싱싱수산","tel":"","addr":"경기도 평택시 지산동 753-29번지","category":"도소매업 - 수산물"}]},{"lat":"37.080424612","long":"127.06156456","items":[{"name":"써니 Clothing Shop","tel":"","addr":"경기도 평택시 지산동 1058번지","category":"의류 - 정장"}]},{"lat":"37.080732822","long":"127.0576961","items":[{"name":"써니헤어","tel":"031-664-1478","addr":"경기도 평택시 지산동 757-73번지 1층","category":"보건위생 - 미용원"}]},{"lat":"37.083534858","long":"127.07500669","items":[{"name":"썬텍스 코리아","tel":"031-665-9051","addr":"경기도 평택시 지산동 394번지 1층 2호","category":"자동차정비 유지 - 자동차시트·타이어"}]},{"lat":"37.081566409","long":"127.06650259","items":[{"name":"쎄니쿨","tel":"031-664-6449","addr":"경기도 평택시 지산동 636-9번지","category":"서적문구 - 과학기자재"},{"name":"지성원","tel":"031-665-5966","addr":"경기도 평택시 지산동 636-9번지","category":"일반휴게음식 - 중국식"}]},{"lat":"37.082537149","long":"127.0708333","items":[{"name":"쎈언니 쎈오빠 떡볶이","tel":"031-611-3948","addr":"경기도 평택시 지산동 608-1번지 더팰리스스위트 103동 302호","category":"음료식품 - 기타음료식품"}]},{"lat":"37.080202031","long":"127.0558626","items":[{"name":"씨앤모텔","tel":"031-664-1077","addr":"경기도 평택시 지산동 767-59번지","category":"숙박업 - 여관/기타숙박업"}]},{"lat":"37.076649765","long":"127.06036962","items":[{"name":"씨유송탄공원로점","tel":"031-898-6568","addr":"경기도 평택시 지산동 693-3번지 1층","category":"유통업 영리 - 편 의 점"}]},{"lat":"37.07537186","long":"127.05697253","items":[{"name":"씨유평택지산원룸점","tel":"031-663-1393","addr":"경기도 평택시 지산동 835-5번지 1층","category":"유통업 영리 - 편 의 점"},{"name":"오드리","tel":"070-8625-0121","addr":"경기도 평택시 지산동 835-5번지 2층","category":"보건위생 - 피부미용실"}]},{"lat":"37.08140026","long":"127.05625705","items":[{"name":"아나파약국","tel":"031-663-5911","addr":"경기도 평택시 지산동 755-7번지","category":"소매업 - 약국"},{"name":"탑피씨","tel":"02-222-2222","addr":"경기도 평택시 지산동 755-7번지 3층","category":"레저업소 - 기타레져업소"},{"name":"한양에이스마취통증의학과의원","tel":"031-652-2280","addr":"경기도 평택시 지산동 755-7번지 1층, 2층","category":"보건업 - 마취통증의학과,정형외과"},{"name":"한양에이스마취통증의학과의원","tel":"031-666-7500","addr":"경기도 평택시 지산동 755-7번지 1층, 2층","category":"유통업 영리 - 편 의 점"}]},{"lat":"37.080264298","long":"127.05763953","items":[{"name":"아우네옛날순대","tel":"031-662-1757","addr":"경기도 평택시 지산동 762-22번지","category":"일반휴게음식 - 일반한식"}]},{"lat":"37.076151641","long":"127.065396","items":[{"name":"아우름","tel":"","addr":"경기도 평택시 지산동 1164번지 스마일 302호","category":"직물 - 카페트,커튼,천막,지물"}]},{"lat":"37.07542686","long":"127.08642438","items":[{"name":"아우토스 모터스","tel":"","addr":"경기도 평택시 지산동 229-2번지","category":"자동차정비 유지 - 자동차정비"}]},{"lat":"37.079983016","long":"127.06172167","items":[{"name":"아이데코송탄점","tel":"031-666-9157","addr":"경기도 평택시 지산동 714-14번지","category":"소매업 - 안경"},{"name":"아이데코안경 송탄점","tel":"031-667-1144","addr":"경기도 평택시 지산동 714-14","category":"보건위생 - 안경"}]},{"lat":"37.083174466","long":"127.05817021","items":[{"name":"아이엠티","tel":"031-666-8858","addr":"경기도 평택시 지산동 736-6번지","category":"숙박업 - 여관/기타숙박업"}]},{"lat":"37.081428849","long":"127.07083231","items":[{"name":"아이워시","tel":"031-666-7893","addr":"경기도 평택시 지산동 614-1번지","category":"자동차정비 유지 - 세차장"},{"name":"차사랑 외형복원","tel":"031-611-7889","addr":"경기도 평택시 지산동 614-1번지 1층","category":"자동차정비 유지 - 카인테리어"}]},{"lat":"37.079314577","long":"127.06497125","items":[{"name":"아트융미술학원","tel":"031-666-6811","addr":"경기도 평택시 지산동 644-4번지","category":"학원 - 예·체능계학원"},{"name":"천사음악학원","tel":"031-666-1134","addr":"경기도 평택시 지산동 644-4번지 3층","category":"학원 - 예·체능계학원"},{"name":"하이매스단과학원","tel":"031-663-0904","addr":"경기도 평택시 지산동 644-4번지 1층","category":"학원 - 보습학원"}]},{"lat":"37.073398491","long":"127.05708358","items":[{"name":"안골양봉","tel":"031-256-9869","addr":"경기도 평택시 지산동 844-17번지","category":"건강식품 - 기타건강식품"}]},{"lat":"37.081508046","long":"127.05701063","items":[{"name":"안성상회","tel":"031-662-1794","addr":"경기도 평택시 지산동 754-22번지 1층","category":"의류 - 정장"},{"name":"안성상회","tel":"031-665-5949","addr":"경기도 평택시 지산동 754-22번지","category":"소매업 - 의류"}]},{"lat":"37.083264817","long":"127.05764169","items":[{"name":"안전사","tel":"031-666-8385","addr":"경기도 평택시 지산동 735-6번지","category":"건축자재 - 조명기구"},{"name":"안전사","tel":"031-662-8385","addr":"경기도 평택시 지산동 735-6번지 외1필지","category":"건축자재 - 조명기구"}]},{"lat":"37.08209348","long":"127.05756212","items":[{"name":"알로호텔","tel":"031-667-7782","addr":"경기도 평택시 지산동 735-12번지 외 1필지","category":"숙박업 - 여관/기타숙박업"}]},{"lat":"37.076597538","long":"127.05644486","items":[{"name":"앤제이모텔","tel":"031-668-6033","addr":"경기도 평택시 지산동 825-10번지","category":"숙박업 - 여관/기타숙박업"},{"name":"엔제이모텔","tel":"031-668-1033","addr":"경기도 평택시 지산동 825-10번지","category":"숙박업 - 여관/기타숙박업"}]},{"lat":"37.076371532","long":"127.05806406","items":[{"name":"야옹아 멍멍해봐","tel":"031-668-3330","addr":"경기도 평택시 지산동 796-12번지 외1필지","category":"문화.취미 - 애완동물"}]},{"lat":"37.081012704","long":"127.0564817","items":[{"name":"야채나라","tel":"031-662-8106","addr":"경기도 평택시 지산동 756-31번지","category":"음료식품 - 농·축·수산품"},{"name":"야채나라","tel":"031-668-5555","addr":"경기도 평택시 지산동 756-31번지","category":"소매업 - 야채, 건어물"}]},{"lat":"37.080624757","long":"127.05756107","items":[{"name":"약수약국","tel":"031-668-0555","addr":"경기도 평택시 지산동 758-22번지","category":"소매업 - 약국"}]},{"lat":"37.079868163","long":"127.0569195","items":[{"name":"언니네실내포차","tel":"031-662-6440","addr":"경기도 평택시 지산동 768-96번지","category":"일반휴게음식 - 일반한식"},{"name":"추억의포차","tel":"","addr":"경기도 평택시 지산동 768-96번지 1층 1호","category":"일반휴게음식 - 주점"}]},{"lat":"37.082318525","long":"127.05803463","items":[{"name":"언더스텐","tel":"031-667-7298","addr":"경기도 평택시 지산동 735-28번지","category":"일반휴게음식 - 일반한식"}]},{"lat":"37.074315532","long":"127.09061765","items":[{"name":"에스앤케이가스산업(S&K가스산업)","tel":"031-666-9865","addr":"경기도 평택시 지산동 96-11번지","category":"용역 서비스 - 기타용역서비스"}]},{"lat":"37.073901584","long":"127.08988623","items":[{"name":"에스엠(SM)씽크","tel":"031-663-7602","addr":"경기도 평택시 지산동 223-21번지","category":"주방용구 - 주방용구"}]},{"lat":"37.081841313","long":"127.05728078","items":[{"name":"에어컨24","tel":"031-663-2300","addr":"경기도 평택시 지산동 745-6번지","category":"용역 서비스 - 기타용역서비스"}]},{"lat":"37.07551528","long":"127.05859198","items":[{"name":"에이치티","tel":"031-663-0447","addr":"경기도 평택시 지산동 853-6번지","category":"용역 서비스 - 기타용역서비스"}]},{"lat":"37.07873303","long":"127.0564801","items":[{"name":"엠(송탄점)","tel":"031-668-8333","addr":"경기도 평택시 지산동 809-1번지","category":"숙박업 - 여관/기타숙박업"}]},{"lat":"37.079345534","long":"127.05695286","items":[{"name":"여인포차","tel":"031-662-5188","addr":"경기도 평택시 지산동 807-1번지 1층","category":"일반휴게음식 - 일반한식"},{"name":"연분포차","tel":"031-611-3818","addr":"경기도 평택시 지산동 807-1번지 대성빌딩","category":"일반휴게음식 - 일반한식"},{"name":"진달래","tel":"031-666-2775","addr":"경기도 평택시 지산동 807-1번지 대성빌딩","category":"일반휴게음식 - 중국식"},{"name":"학성문구","tel":"031-666-9957","addr":"경기도 평택시 지산동 807-1번지","category":"도매업 - 문구"},{"name":"학성문구","tel":"031-665-8406","addr":"경기도 평택시 지산동 807-1번지","category":"서적문구 - 문구용품"}]},{"lat":"37.081201712","long":"127.05695418","items":[{"name":"연정식당","tel":"031-611-0775","addr":"경기도 평택시 지산동 756-42번지","category":"일반휴게음식 - 일반한식"}]},{"lat":"37.076570389","long":"127.05670349","items":[{"name":"열린성모외과의원","tel":"031-662-2266","addr":"경기도 평택시 지산동 825-14번지","category":"서비스업 - 병원"},{"name":"열린성모외과의원","tel":"031-665-6194","addr":"경기도 평택시 지산동 825-14번지","category":"의원 - 의원"}]},{"lat":"37.081202088","long":"127.05612196","items":[{"name":"열린한의원","tel":"070-4257-3004","addr":"경기도 평택시 지산동 755-9번지","category":"서비스업 - 병원"},{"name":"열린한의원","tel":"031-662-1075","addr":"경기도 평택시 지산동 755-9번지","category":"의원 - 한의원"},{"name":"왕치과의원","tel":"031-664-6900","addr":"경기도 평택시 지산동 755-9번지 2층","category":"의원 - 치과의원"},{"name":"케익나라","tel":"031-666-7688","addr":"경기도 평택시 지산동 755-9번지","category":"음료식품 - 제과점"}]},{"lat":"37.080731544","long":"127.06039519","items":[{"name":"염색전문하빠노미용실","tel":"070-7503-0264","addr":"경기도 평택시 지산동 1017번지 101호","category":"보건위생 - 미용원"},{"name":"크린토피아 평택지산점","tel":"031-665-3395","addr":"경기도 평택시 지산동 1017번지","category":"수리서비스 - 세탁소"}]},{"lat":"37.081678268","long":"127.05911382","items":[{"name":"영광떡방아간","tel":"031-665-4920","addr":"경기도 평택시 지산동 729-3번지","category":"제조업 - 떡"},{"name":"영광방아","tel":"031-662-0265","addr":"경기도 평택시 지산동 729-3번지","category":"음료식품 - 제과점"}]},{"lat":"37.078895866","long":"127.05502949","items":[{"name":"영주주방","tel":"031-662-5700","addr":"경기도 평택시 지산동 811-13번지","category":"주방용구 - 주방용구"}]},{"lat":"37.078704897","long":"127.05886422","items":[{"name":"영지원","tel":"031-673-3707","addr":"경기도 평택시 지산동 777-1번지 2호","category":"보건위생 - 기타대인서비스"}]},{"lat":"37.079568485","long":"127.06181132","items":[{"name":"예담떡","tel":"02-668-0505","addr":"경기도 평택시 지산동 1076번지","category":"음료식품 - 제과점"},{"name":"유미약국","tel":"031-666-2577","addr":"경기도 평택시 지산동 1076번지","category":"약국 - 약국"},{"name":"유미약국","tel":"031-665-3921","addr":"경기도 평택시 지산동 1076번지","category":"소매업 - 약국"}]},{"lat":"37.078732318","long":"127.05803204","items":[{"name":"옛골마당","tel":"031-667-8883","addr":"경기도 평택시 지산동 776-2번지","category":"일반휴게음식 - 일반한식"}]},{"lat":"37.07803541","long":"127.07978096","items":[{"name":"옛날사람들","tel":"031-663-1090","addr":"경기도 평택시 지산동 312-4번지","category":"문화.취미 - 골동품점"}]},{"lat":"37.078182658","long":"127.05806538","items":[{"name":"오니(Oni) pc cafe","tel":"","addr":"경기도 평택시 지산동 782-16번지 주건축물 1동 201호","category":"레저업소 - 기타레져업소"},{"name":"오케이(O.K) 텔레콤","tel":"032-816-9930","addr":"경기도 평택시 지산동 782-16번지 1층 103호","category":"사무통신 - 통신기기"},{"name":"홍이치킨(지산점)","tel":"031-611-1800","addr":"경기도 평택시 지산동 782-16번지 1층","category":"일반휴게음식 - 스넥"}]},{"lat":"37.080343942","long":"127.06069855","items":[{"name":"오렌지헤어","tel":"031-662-8820","addr":"경기도 평택시 지산동 1032번지 1층","category":"보건위생 - 미용원"},{"name":"키즈방방","tel":"031-611-4948","addr":"경기도 평택시 지산동 1032번지","category":"레저업소 - 기타레져업소"},{"name":"회뜨는사람들","tel":"031-611-0288","addr":"경기도 평택시 지산동 1032번지","category":"일반휴게음식 - 일반한식"}]},{"lat":"37.077093428","long":"127.05575922","items":[{"name":"오산조은참치 평택송탄점","tel":"031-611-9145","addr":"경기도 평택시 지산동 824-1번지 명진쉐르빌 1층","category":"음식점 - 일식"}]},{"lat":"37.080010523","long":"127.06075452","items":[{"name":"오인헤어아트","tel":"031-611-4260","addr":"경기도 평택시 지산동 1035번지","category":"보건위생 - 미용원"},{"name":"오인헤어아트","tel":"031-662-5189","addr":"경기도 평택시 지산동 1035번지","category":"서비스업 - 이미용"},{"name":"제일식당","tel":"031-611-2799","addr":"경기도 평택시 지산동 1035번지","category":"일반휴게음식 - 일반한식"},{"name":"피오치킨지산점","tel":"031-667-5580","addr":"경기도 평택시 지산동 1035번지","category":"일반휴게음식 - 스넥"},{"name":"피오치킨지산점","tel":"","addr":"경기도 평택시 지산동 1035번지","category":"음식점 - 치킨"},{"name":"하모니노래연습장","tel":"031-611-3846","addr":"경기도 평택시 지산동 1035번지","category":"레저업소 - 노 래 방"}]},{"lat":"37.081292174","long":"127.056167","items":[{"name":"오제호내과의원","tel":"031-668-1675","addr":"경기도 평택시 지산동 755-8번지 2층","category":"의원 - 의원"},{"name":"와이(y)치과의원","tel":"031-663-2831","addr":"경기도 평택시 지산동 755-8번지 2층","category":"의원 - 치과의원"},{"name":"와이치과의원","tel":"031-662-1075","addr":"경기도 평택시 지산동 755-8번지","category":"서비스업 - 병원"},{"name":"케익나라","tel":"031-665-8406","addr":"경기도 평택시 지산동 755-8번지","category":"소매업 - 카페"}]},{"lat":"37.081958487","long":"127.05720214","items":[{"name":"옵시롱감시롱","tel":"031-662-5741","addr":"경기도 평택시 지산동 745-8번지","category":"음식점 - 한식"},{"name":"옵시롱감시롱","tel":"070-8966-6992","addr":"경기도 평택시 지산동 745-8번지","category":"일반휴게음식 - 일반한식"}]},{"lat":"37.078210001","long":"127.05739065","items":[{"name":"왕삼돈 평택점/유한회사애플이엔씨","tel":"031-611-6498","addr":"경기도 평택시 지산동 779-16번지","category":"일반휴게음식 - 일반한식"}]},{"lat":"37.081201511","long":"127.05739279","items":[{"name":"욕쟁이","tel":"031-666-0346","addr":"경기도 평택시 지산동 756-67번지 1층","category":"일반휴게음식 - 주점"}]},{"lat":"37.078841778","long":"127.05508568","items":[{"name":"용천관","tel":"1577-9621","addr":"경기도 평택시 지산동 811-15번지","category":"음식점 - 중식"},{"name":"용천관","tel":"031-611-7900","addr":"경기도 평택시 지산동 811-15번지","category":"일반휴게음식 - 중국식"}]},{"lat":"37.076015744","long":"127.09430814","items":[{"name":"우드앤퍼니","tel":"031-663-4542","addr":"경기도 평택시 지산동 131번지 1층","category":"건축자재 - 인테리어전문"}]},{"lat":"37.080840974","long":"127.05763995","items":[{"name":"우리동네축산할인마트","tel":"031-666-0607","addr":"경기도 평택시 지산동 757-2번지 1층","category":"음료식품 - 정육점"},{"name":"우리동네축산할인마트","tel":"031-667-7854","addr":"경기도 평택시 지산동 757-2번지","category":"도소매업 - 정육"}]},{"lat":"37.081120831","long":"127.05648178","items":[{"name":"우리상회","tel":"","addr":"경기도 평택시 지산동 756-21번지","category":"소매업 - 문구"},{"name":"우리서점","tel":"031-666-2107","addr":"경기도 평택시 지산동 756-21번지","category":"서적문구 - 일반서적"}]},{"lat":"37.075425395","long":"127.05811961","items":[{"name":"우리집반찬&김밥(지산점)","tel":"031-663-8787","addr":"경기도 평택시 지산동 산190-4번지 삼우빌딩 1층","category":"음료식품 - 기타음료식품"},{"name":"제일영상중고가전","tel":"031-373-2068","addr":"경기도 평택시 지산동 산190-4번지 삼우빌딩","category":"전기제품 - 가전제품"}]},{"lat":"37.077119948","long":"127.05689506","items":[{"name":"우리집포차","tel":"031-664-4757","addr":"경기도 평택시 지산동 800-2번지 외1필지 1층","category":"일반휴게음식 - 일반한식"},{"name":"임헤어","tel":"031-666-3458","addr":"경기도 평택시 지산동 800-2번지 101호","category":"보건위생 - 미용원"}]},{"lat":"37.075953485","long":"127.06524965","items":[{"name":"우리컴","tel":"031-662-6749","addr":"경기도 평택시 지산동 1154번지","category":"사무통신 - 컴퓨터"}]},{"lat":"37.083454267","long":"127.05714697","items":[{"name":"우리하우징","tel":"031-662-2681","addr":"경기도 평택시 지산동 739-6번지","category":"직물 - 카페트,커튼,천막,지물"}]},{"lat":"37.081840628","long":"127.05875406","items":[{"name":"우성공업사","tel":"031-665-5006","addr":"경기도 평택시 지산동 751-14","category":"회원제형태 - 기타4"}]},{"lat":"37.076230387","long":"127.08414241","items":[{"name":"원포레스트","tel":"","addr":"경기도 평택시 지산동 341-1번지 1층,2층","category":"일반휴게음식 - 서양음식"}]},{"lat":"37.075876065","long":"127.0578163","items":[{"name":"원플러스","tel":"031-664-3615","addr":"경기도 평택시 지산동 796-24번지 1층","category":"사무통신 - 컴퓨터"}]},{"lat":"37.083679495","long":"127.05722586","items":[{"name":"월드상사","tel":"031-665-3600","addr":"경기도 평택시 지산동 739-3번지","category":"용역 서비스 - 기타용역서비스"}]},{"lat":"37.074479761","long":"127.05708435","items":[{"name":"월드헤어샵","tel":"","addr":"경기도 평택시 지산동 846-3번지","category":"서비스업 - 미용"},{"name":"월드헤어샵","tel":"031-611-9317","addr":"경기도 평택시 지산동 846-3번지","category":"보건위생 - 미용원"}]},{"lat":"37.076597005","long":"127.0576144","items":[{"name":"웰빙건강관리","tel":"031-666-6433","addr":"경기도 평택시 지산동 797-17번지 2층","category":"보건위생 - 피부미용실"},{"name":"폴하우스","tel":"031-668-5698","addr":"경기도 평택시 지산동 797-17번지 1층","category":"문화.취미 - 애완동물"}]},{"lat":"37.073983692","long":"127.05814105","items":[{"name":"웰빙푸드","tel":"031-235-3941","addr":"경기도 평택시 지산동 850-19번지 신화빌리지 301호","category":"음료식품 - 기타음료식품"}]},{"lat":"37.07523634","long":"127.05775962","items":[{"name":"웰빙푸딩","tel":"031-000-0000","addr":"경기도 평택시 지산동 851-10번지 이안힐시티 1동 11층 2호","category":"직물 - 침구·수예점"}]},{"lat":"37.078236773","long":"127.05795296","items":[{"name":"웰빙프라자","tel":"031-667-5575","addr":"경기도 평택시 지산동 779-30번지","category":"전기제품 - 가전제품"}]},{"lat":"37.074371225","long":"127.05797265","items":[{"name":"위드미평택지산점","tel":"070-7774-9455","addr":"경기도 평택시 지산동 850-35번지 신화주택2차 101호","category":"유통업 영리 - 편 의 점"},{"name":"이마트24","tel":"","addr":"경기도 평택시 지산동 850-35번지 신화주택2차 101호","category":"소매업 - 편의점"}]},{"lat":"37.080569123","long":"127.06086741","items":[{"name":"유정샵","tel":"031-663-8668","addr":"경기도 평택시 지산동 1043번지 1층","category":"의류 - 정장"}]},{"lat":"37.083093071","long":"127.05881121","items":[{"name":"윤가네토종순대국","tel":"031-667-7667","addr":"경기도 평택시 지산동 733-6번지 1동 1층","category":"일반휴게음식 - 일반한식"}]},{"lat":"37.080126972","long":"127.06214913","items":[{"name":"윤헤어라인","tel":"031-667-9902","addr":"경기도 평택시 지산동 714-17","category":"보건위생 - 미용원"},{"name":"커피식스쥬스식스 송탄지산점","tel":"070-8283-0905","addr":"경기도 평택시 지산동 714-17번지 C동","category":"일반휴게음식 - 서양음식"},{"name":"피비포토","tel":"031-663-7766","addr":"경기도 평택시 지산동 714-17","category":"광학제품 - 사진관"},{"name":"피비포토","tel":"031-665-2227","addr":"경기도 평택시 지산동 714-17번지","category":"서비스업 - 사진관"}]},{"lat":"37.074705062","long":"127.0570058","items":[{"name":"은하세탁소","tel":"031-611-1333","addr":"경기도 평택시 지산동 847-7번지","category":"수리서비스 - 세탁소"}]},{"lat":"37.074425862","long":"127.05672447","items":[{"name":"은하수쉼터","tel":"031-665-8984","addr":"경기도 평택시 지산동 842번지 1층","category":"일반휴게음식 - 일반한식"},{"name":"컴퓨터NEWS","tel":"031-667-7661","addr":"경기도 평택시 지산동 842번지","category":"사무통신 - 컴퓨터"}]},{"lat":"37.075093024","long":"127.08705376","items":[{"name":"이다산업안전용품상사","tel":"031-664-0119","addr":"경기도 평택시 지산동 228-2번지 201호","category":"기타 - 기계공구"},{"name":"이다산업안전용품상사","tel":"031-668-1675","addr":"경기도 평택시 지산동 228-2번지","category":"소매업 - 철물"}]},{"lat":"37.076786227","long":"127.05761454","items":[{"name":"이마트편의점(지산중앙점)","tel":"031-668-0123","addr":"경기도 평택시 지산동 798-20번지","category":"소매업 - 편의점"}]},{"lat":"37.073704259","long":"127.05836575","items":[{"name":"이모네불닭발","tel":"031-611-9592","addr":"경기도 평택시 지산동 864-11번지 1층","category":"일반휴게음식 - 일반한식"}]},{"lat":"37.080868637","long":"127.05625668","items":[{"name":"이미숙미용실","tel":"031-666-7415","addr":"경기도 평택시 지산동 757-19번지","category":"서비스업 - 이미용"},{"name":"이미숙헤어샵","tel":"031-664-5897","addr":"경기도 평택시 지산동 757-19번지","category":"보건위생 - 미용원"}]},{"lat":"37.074875634","long":"127.05836661","items":[{"name":"이브자리","tel":"031-611-3906","addr":"경기도 평택시 지산동 857-4번지","category":"소매업 - 이불"},{"name":"이브자리","tel":"031-662-0147","addr":"경기도 평택시 지산동 857-4번지","category":"직물 - 침구·수예점"},{"name":"정성이가득찬집밥","tel":"031-667-0147","addr":"경기도 평택시 지산동 857-4번지 1층","category":"일반휴게음식 - 일반한식"}]},{"lat":"37.078292059","long":"127.05525399","items":[{"name":"이세용치과의원","tel":"031-663-9229","addr":"경기도 평택시 지산동 812-2번지","category":"의원 - 치과의원"},{"name":"이세용치과의원","tel":"","addr":"경기도 평택시 지산동 812-2번지","category":"서비스업 - 병원"},{"name":"토담우렁쌈밥","tel":"031-611-7071","addr":"경기도 평택시 지산동 812-2번지","category":"일반휴게음식 - 서양음식"}]},{"lat":"37.078008181","long":"127.08008457","items":[{"name":"이승현 건축사사무소","tel":"031-662-3690","addr":"경기도 평택시 지산동 311-3번지 2층","category":"서비스업 - 건축"}]},{"lat":"37.082958276","long":"127.0580351","items":[{"name":"이주에어컨자재","tel":"031-667-1479","addr":"경기도 평택시 지산동 735-31번지","category":"전기제품 - 냉열기기"}]},{"lat":"37.07942451","long":"127.06141759","items":[{"name":"이태섭안경","tel":"031-666-0010","addr":"경기도 평택시 지산동 1074번지","category":"보건위생 - 안경"},{"name":"이태섭안경원","tel":"031-666-2577","addr":"경기도 평택시 지산동 1074번지","category":"소매업 - 안경"},{"name":"헤어코코","tel":"031-662-6004","addr":"경기도 평택시 지산동 1074번지 2층","category":"보건위생 - 미용원"},{"name":"헤어코코","tel":"031-662-1022","addr":"경기도 평택시 지산동 1074번지","category":"서비스업 - 이미용"}]},{"lat":"37.081679563","long":"127.05631348","items":[{"name":"이화의상실","tel":"031-662-4515","addr":"경기도 평택시 지산동 755-4번지","category":"의류 - 맞춤복점"},{"name":"쟈스킨","tel":"031-662-4515","addr":"경기도 평택시 지산동 755-4번지","category":"의류 - 정장"}]},{"lat":"37.081625198","long":"127.05697698","items":[{"name":"일미정육점","tel":"031-662-5061","addr":"경기도 평택시 지산동 753-36번지","category":"음료식품 - 정육점"}]},{"lat":"37.079292173","long":"127.05538963","items":[{"name":"작은공원분식","tel":"031-662-3030","addr":"경기도 평택시 지산동 767-6번지","category":"일반휴게음식 - 일반한식"}]},{"lat":"37.077263605","long":"127.05800848","items":[{"name":"장수열기","tel":"031-611-0202","addr":"경기도 평택시 지산동 794-2번지","category":"건축자재 - 보일러·펌프·샷시"},{"name":"주왕산얼음막걸리지산점","tel":"031-668-9428","addr":"경기도 평택시 지산동 794-2번지","category":"일반휴게음식 - 주점"}]},{"lat":"37.078876204","long":"127.05863942","items":[{"name":"전일노래연습장","tel":"031-664-4197","addr":"경기도 평택시 지산동 777번지","category":"레저업소 - 노 래 방"},{"name":"필립동물병원","tel":"031-666-0459","addr":"경기도 평택시 지산동 777번지","category":"서비스업 - 수의"}]},{"lat":"37.075757864","long":"127.06006532","items":[{"name":"전자담배&휴대폰멀티샵","tel":"031-667-7780","addr":"경기도 평택시 지산동 685-4번지 신화주택","category":"기타 - 기타 전문점"},{"name":"코지마켓","tel":"","addr":"경기도 평택시 지산동 685-4번지 신화주택 상가동 102호","category":"신변잡화 - 기타잡화"}]},{"lat":"37.081704712","long":"127.0603397","items":[{"name":"정애미용실","tel":"031-663-3311","addr":"경기도 평택시 지산동 1001번지","category":"서비스업 - 미용"},{"name":"챤스(지산2점)","tel":"031-665-1266","addr":"경기도 평택시 지산동 1001번지 1층","category":"일반휴게음식 - 주점"},{"name":"토프레소 평택지산점","tel":"070-8918-3323","addr":"경기도 평택시 지산동 1001번지","category":"일반휴게음식 - 서양음식"},{"name":"토프레소 평택지산점","tel":"031-663-9707","addr":"경기도 평택시 지산동 1001번지","category":"음식점 - 카페"}]},{"lat":"37.073289325","long":"127.08925581","items":[{"name":"정육점은 위고","tel":"031-667-3757","addr":"경기도 평택시 지산동 223-6번지","category":"음료식품 - 정육점"}]},{"lat":"37.072180901","long":"127.08942323","items":[{"name":"정이가교동짬뽕","tel":"031-664-0078","addr":"경기도 평택시 지산동 248-3번지 A동","category":"일반휴게음식 - 중국식"},{"name":"정이가교동짬뽕","tel":"031-662-1254","addr":"경기도 평택시 지산동 248-3번지","category":"음식점 - 중식"},{"name":"캠프슐레","tel":"031-663-0079","addr":"경기도 평택시 지산동 248-3번지 A동","category":"레져용품 - 스포츠·레져용품"},{"name":"캠프슐레","tel":"031-664-0078","addr":"경기도 평택시 지산동 248-3번지","category":"소매업 - 캠핑용품"}]},{"lat":"37.080235798","long":"127.0607322","items":[{"name":"제일식당","tel":"031-667-7791","addr":"경기도 평택시 지산동 1033번지","category":"음식점 - 한식"}]},{"lat":"37.075010544","long":"127.05889524","items":[{"name":"젠트웰의류매장","tel":"031-666-3811","addr":"경기도 평택시 지산동 855-7번지","category":"소매업 - 의류"},{"name":"젠트웰의류할인매장","tel":"031-663-4587","addr":"경기도 평택시 지산동 855-7번지 1층","category":"레져용품 - 스포츠·레져용품"}]},{"lat":"37.078814538","long":"127.05555799","items":[{"name":"좌동카센타","tel":"031-663-9525","addr":"경기도 평택시 지산동 812-17번지","category":"자동차정비 유지 - 자동차정비"},{"name":"포시즌","tel":"031-663-3330","addr":"경기도 평택시 지산동 812-17번지","category":"일반휴게음식 - 주점"}]},{"lat":"37.080543417","long":"127.05808958","items":[{"name":"준패션컴퍼니","tel":"031-8094-4097","addr":"경기도 평택시 지산동 758-49번지 1층","category":"의류 - 정장"}]},{"lat":"37.083507842","long":"127.0582042","items":[{"name":"중고시대","tel":"031-665-0018","addr":"경기도 평택시 지산동 736-1번지","category":"전기제품 - 가전제품"},{"name":"진바이크 주식회사","tel":"031-666-5282","addr":"경기도 평택시 지산동 736-1번지 1층","category":"자동차판매 - 이륜차판매"}]},{"lat":"37.079264592","long":"127.05661543","items":[{"name":"중앙고시원","tel":"031-666-6616","addr":"경기도 평택시 지산동 768-111번지","category":"학원 - 독서실"}]},{"lat":"37.080092472","long":"127.0589777","items":[{"name":"지산골목식당","tel":"031-611-5218","addr":"경기도 평택시 지산동 725-3번지","category":"일반휴게음식 - 일반한식"}]},{"lat":"37.07740261","long":"127.08289539","items":[{"name":"지산공조","tel":"031-668-0769","addr":"경기도 평택시 지산동 343-2번지","category":"용역 서비스 - 기타용역서비스"},{"name":"크래팜","tel":"031-664-8489","addr":"경기도 평택시 지산동 343-2번지","category":"신변잡화 - 액세서리"}]},{"lat":"37.079319339","long":"127.05508601","items":[{"name":"지산약국","tel":"031-662-5551","addr":"경기도 평택시 지산동 767-11번지","category":"소매업 - 약국"}]},{"lat":"37.074289286","long":"127.05976059","items":[{"name":"지산어린이집[아이행복]","tel":"031-611-7373","addr":"경기도 평택시 지산동 862-18번지","category":"학원 - 유아원"}]},{"lat":"37.077570477","long":"127.05689537","items":[{"name":"지산한식뷔페","tel":"031-666-7377","addr":"경기도 평택시 지산동 801-6번지","category":"일반휴게음식 - 일반한식"}]},{"lat":"37.077903345","long":"127.05803144","items":[{"name":"지산해장국","tel":"031-665-8896","addr":"경기도 평택시 지산동 782-3번지","category":"음식점 - 한식"},{"name":"지산해장국","tel":"031-667-1591","addr":"경기도 평택시 지산동 782-3번지","category":"일반휴게음식 - 일반한식"}]},{"lat":"37.082480193","long":"127.05914815","items":[{"name":"착한돈","tel":"031-611-2822","addr":"경기도 평택시 지산동 748-1번지","category":"일반휴게음식 - 일반한식"},{"name":"착한돈","tel":"070-8918-3323","addr":"경기도 평택시 지산동 748-1번지","category":"음식점 - 한식"}]},{"lat":"37.081705481","long":"127.05873147","items":[{"name":"참구이씨","tel":"031-664-3128","addr":"경기도 평택시 지산동 751-12번지 1층","category":"일반휴게음식 - 일반한식"}]},{"lat":"37.075237374","long":"127.0554768","items":[{"name":"참맛있는집","tel":"031-667-6611","addr":"경기도 평택시 지산동 830-14","category":"일반휴게음식 - 일반한식"}]},{"lat":"37.081038962","long":"127.05816866","items":[{"name":"창민돼지고기불백","tel":"031-667-7854","addr":"경기도 평택시 지산동 758-4번지","category":"일반휴게음식 - 일반한식"},{"name":"창민돼지고기불백","tel":"031-665-0682","addr":"경기도 평택시 지산동 758-4번지","category":"음식점 - 양식"}]},{"lat":"37.080787174","long":"127.05706635","items":[{"name":"천일상회","tel":"","addr":"경기도 평택시 지산동 757-9번지","category":"소매업 - 그릇"},{"name":"천일상회","tel":"031-666-6415","addr":"경기도 평택시 지산동 757-9번지","category":"주방용구 - 주방용구"}]},{"lat":"37.081480849","long":"127.05737049","items":[{"name":"철영농약사","tel":"031-666-5812","addr":"경기도 평택시 지산동 754-10번지","category":"농업 - 비료,사료,종자"},{"name":"철영농업사","tel":"031-665-6471","addr":"경기도 평택시 지산동 754-10번지","category":"소매업 - 농업용품"}]},{"lat":"37.074206354","long":"127.06347147","items":[{"name":"청솔호프","tel":"031-666-5419","addr":"경기도 평택시 지산동 1093번지 한양청솔 상가 106호","category":"일반휴게음식 - 주점"}]},{"lat":"37.080734647","long":"127.07150647","items":[{"name":"청와대공인중개","tel":"","addr":"경기도 평택시 지산동 585번지","category":"서비스업 - 부동산"}]},{"lat":"37.079900795","long":"127.06394833","items":[{"name":"청호반점","tel":"031-668-1081","addr":"경기도 평택시 지산동 1130번지","category":"일반휴게음식 - 중국식"}]},{"lat":"37.074623688","long":"127.05761299","items":[{"name":"초이스파트너가구","tel":"031-611-7283","addr":"경기도 평택시 지산동 850-57번지","category":"가구 - 일반가구"}]},{"lat":"37.080759046","long":"127.07591501","items":[{"name":"축복어린이집[아이행복]","tel":"031-667-3560","addr":"경기도 평택시 지산동 422-1번지","category":"학원 - 유아원"}]},{"lat":"37.081291321","long":"127.05803389","items":[{"name":"충주떡방앗간","tel":"031-662-7670","addr":"경기도 평택시 지산동 752-18번지","category":"음료식품 - 제과점"}]},{"lat":"37.080452069","long":"127.06069863","items":[{"name":"치킨뱅이(송탄점)","tel":"031-666-2968","addr":"경기도 평택시 지산동 1031번지 1층","category":"일반휴게음식 - 일반한식"}]},{"lat":"37.08234794","long":"127.07081064","items":[{"name":"친환경e클린","tel":"","addr":"경기도 평택시 지산동 608-2번지 더팰리스스위트지산 102동 3층 305호","category":"용역 서비스 - 종합용역"}]},{"lat":"37.08320142","long":"127.05833893","items":[{"name":"카마스","tel":"031-662-6869","addr":"경기도 평택시 지산동 736-7번지","category":"자동차정비 유지 - 자동차정비"}]},{"lat":"37.073539366","long":"127.07941658","items":[{"name":"카페영글다","tel":"031-665-8902","addr":"경기도 평택시 지산동 509번지 1,2층","category":"일반휴게음식 - 서양음식"}]},{"lat":"37.07740343","long":"127.08166961","items":[{"name":"카페커핑","tel":"031-666-7825","addr":"경기도 평택시 지산동 324-2번지","category":"음식점 - 카페"},{"name":"카페커핑(본점)","tel":"031-668-1395","addr":"경기도 평택시 지산동 324-2번지","category":"일반휴게음식 - 서양음식"}]},{"lat":"37.077345228","long":"127.05686148","items":[{"name":"칼슨모텔","tel":"031-611-4777","addr":"경기도 평택시 지산동 801-4번지","category":"숙박업 - 여관/기타숙박업"}]},{"lat":"37.079222075","long":"127.06939085","items":[{"name":"캐리어에어컨평택총판 그린공조","tel":"031-668-3366","addr":"경기도 평택시 지산동 1217번지 케이씨씨스위첸 104동 1102호","category":"전기제품 - 냉열기기"}]},{"lat":"37.081677909","long":"127.05986733","items":[{"name":"코바늘대바늘뜨개방","tel":"031-663-3533","addr":"경기도 평택시 지산동 1010번지","category":"회원제형태 - 기타4"}]},{"lat":"37.07804362","long":"127.08100676","items":[{"name":"코션앤타이어","tel":"031-618-4009","addr":"경기도 평택시 지산동 311-5번지 외 2필지","category":"자동차정비 유지 - 자동차시트·타이어"}]},{"lat":"37.082150617","long":"127.06920222","items":[{"name":"코아루공인중개사사무소","tel":"031-667-8100","addr":"경기도 평택시 지산동 1250번지 코아루 A상가 101호","category":"용역 서비스 - 부동산 중개·임대"}]},{"lat":"37.078287274","long":"127.08044472","items":[{"name":"콩미가손두부","tel":"031-611-4512","addr":"경기도 평택시 지산동 311번지","category":"음식점 - 한식"},{"name":"황금코다리 송탄점","tel":"031-662-5898","addr":"경기도 평택시 지산동 311번지","category":"일반휴게음식 - 일반한식"}]},{"lat":"37.080229123","long":"127.05572766","items":[{"name":"큐모텔","tel":"031-662-0004","addr":"경기도 평택시 지산동 767-58번지","category":"숙박업 - 여관/기타숙박업"}]},{"lat":"37.076847905","long":"127.06056094","items":[{"name":"큰집멸치국수","tel":"031-667-0510","addr":"경기도 평택시 지산동 692-12번지","category":"음식점 - 한식"},{"name":"큰집멸치국수","tel":"031-663-4214","addr":"경기도 평택시 지산동 692-12번지 1층","category":"일반휴게음식 - 일반한식"}]},{"lat":"37.079263685","long":"127.05858348","items":[{"name":"클린히트복싱2호점","tel":"031-662-9222","addr":"경기도 평택시 지산동 777-4번지 1층","category":"레저업소 - 헬스클럽"}]},{"lat":"37.080507102","long":"127.07534121","items":[{"name":"키큰목수","tel":"031-654-5955","addr":"경기도 평택시 지산동 426-1 2호,3호","category":"가구 - 일반가구"},{"name":"키큰목수목공학원","tel":"031-654-5955","addr":"경기도 평택시 지산동 426-1번지 1층","category":"학원 - 기능학원"}]},{"lat":"37.080733478","long":"127.05625658","items":[{"name":"탕화쿵푸마라탕","tel":"031-611-7565","addr":"경기도 평택시 지산동 763-6번지 1층","category":"일반휴게음식 - 중국식"},{"name":"탕화쿵푸마라탕","tel":"031-666-7688","addr":"경기도 평택시 지산동 763-6번지","category":"음식점 - 중식"}]},{"lat":"37.07820581","long":"127.08100693","items":[{"name":"태림상사","tel":"031-665-8577","addr":"경기도 평택시 지산동 313-5번지","category":"건축자재 - 보일러·펌프·샷시"}]},{"lat":"37.080344387","long":"127.07619576","items":[{"name":"태화루","tel":"031-666-3858","addr":"경기도 평택시 지산동 1235-7번지","category":"일반휴게음식 - 중국식"}]},{"lat":"37.081984333","long":"127.0597326","items":[{"name":"태화바이크","tel":"031-662-8289","addr":"경기도 평택시 지산동 1006번지 1층","category":"자동차판매 - 이륜차판매"},{"name":"태화바이크","tel":"031-665-8648","addr":"경기도 평택시 지산동 1006번지 1층","category":"도소매업 - 오토바이"}]},{"lat":"37.080841417","long":"127.05667277","items":[{"name":"텃밭야채","tel":"031-666-9449","addr":"경기도 평택시 지산동 757-100번지","category":"음료식품 - 농·축·수산품"},{"name":"텃밭야채","tel":"1577-9315","addr":"경기도 평택시 지산동 757-100번지","category":"소매업 - 농산물"}]},{"lat":"37.077818702","long":"127.08047798","items":[{"name":"테라스 스키","tel":"031-638-0322","addr":"경기도 평택시 지산동 310-7번지","category":"레져용품 - 스포츠·레져용품"}]},{"lat":"37.079264916","long":"127.05589568","items":[{"name":"테마모텔","tel":"031-666-6531","addr":"경기도 평택시 지산동 767-8번지","category":"숙박업 - 여관/기타숙박업"}]},{"lat":"37.076760077","long":"127.05566903","items":[{"name":"평산닭발","tel":"031-667-8892","addr":"경기도 평택시 지산동 824-12번지","category":"일반휴게음식 - 일반한식"},{"name":"평산닭발","tel":"031-663-1601","addr":"경기도 평택시 지산동 824-12번지","category":"음식점 - 한식"}]},{"lat":"37.07873508","long":"127.07014391","items":[{"name":"평택곤충과 사람들","tel":"031-611-2430","addr":"경기도 평택시 지산동 567-2번지","category":"문화.취미 - 애완동물"}]},{"lat":"37.077036306","long":"127.06222545","items":[{"name":"평택지산초등학교","tel":"031-663-9287","addr":"경기도 평택시 지산동 1090번지 평택지산초등학교","category":"학원 - 초중고교육기관"},{"name":"평택지산초등학교병설유치원[아이행복]","tel":"031-668-9286","addr":"경기도 평택시 지산동 1090번지 평택지산초등학교","category":"학원 - 유치원"}]},{"lat":"37.075064832","long":"127.08867306","items":[{"name":"푸른자동차공업사","tel":"031-611-5588","addr":"경기도 평택시 지산동 218-6번지","category":"자동차정비 유지 - 자동차정비"}]},{"lat":"37.08345361","long":"127.05856405","items":[{"name":"풍기홍삼","tel":"031-667-6602","addr":"경기도 평택시 지산동 732-2번지","category":"회원제형태 - 건강식품"}]},{"lat":"37.076507875","long":"127.05545518","items":[{"name":"풍미식당","tel":"","addr":"경기도 평택시 지산동 828-8번지","category":"일반휴게음식 - 일반한식"}]},{"lat":"37.075010961","long":"127.05800685","items":[{"name":"프렌들리","tel":"031-663-2369","addr":"경기도 평택시 지산동 851-16번지","category":"일반휴게음식 - 일반한식"},{"name":"헤어닥터우노","tel":"031-662-2024","addr":"경기도 평택시 지산동 851-16번지","category":"보건위생 - 미용원"}]},{"lat":"37.079400518","long":"127.05489488","items":[{"name":"피아노피아","tel":"031-665-4989","addr":"경기도 평택시 지산동 767-96번지 1층","category":"레져용품 - 피아노대리점"}]},{"lat":"37.078399197","long":"127.05744701","items":[{"name":"필모텔","tel":"","addr":"경기도 평택시 지산동 779-9번지","category":"숙박업 - 여관/기타숙박업"}]},{"lat":"37.079929373","long":"127.06086692","items":[{"name":"하루","tel":"","addr":"경기도 평택시 지산동 714-8번지","category":"소매업 - 여성의류"},{"name":"하루여성의류전문점","tel":"031-000-0000","addr":"경기도 평택시 지산동 714-8번지","category":"의류 - 정장"}]},{"lat":"37.079369977","long":"127.06236222","items":[{"name":"한국불교태고종보현암","tel":"031-611-7626","addr":"경기도 평택시 지산동 1082번지","category":"기타 - 비영리/대상"}]},{"lat":"37.082214909","long":"127.06698673","items":[{"name":"한국화장품쥬단학","tel":"031-668-1919","addr":"경기도 평택시 지산동 625-3번지 더하우스 가동 301호","category":"보건위생 - 화장품"}]},{"lat":"37.080985586","long":"127.05667287","items":[{"name":"한독이불","tel":"031-665-2153","addr":"경기도 평택시 지산동 756-34번지","category":"직물 - 침구·수예점"},{"name":"한독패션","tel":"031-662-8106","addr":"경기도 평택시 지산동 756-34번지","category":"소매업 - 이불"}]},{"lat":"37.080292331","long":"127.05542406","items":[{"name":"한마음토탈전기","tel":"031-668-1204","addr":"경기도 평택시 지산동 767-51번지","category":"건축자재 - 조명기구"}]},{"lat":"37.081733601","long":"127.05636975","items":[{"name":"행운수입구제","tel":"031-668-3080","addr":"경기도 평택시 지산동 755-1번지","category":"의류 - 기타의류"},{"name":"황실유럽자수","tel":"031-663-5994","addr":"경기도 평택시 지산동 755-1번지","category":"문화.취미 - 문화취미기타"}]},{"lat":"37.074903052","long":"127.05753447","items":[{"name":"헤어리움","tel":"031-665-0255","addr":"경기도 평택시 지산동 851-43번지 201호","category":"보건위생 - 미용원"}]},{"lat":"37.080848681","long":"127.06039528","items":[{"name":"헤어샵미","tel":"031-611-5242","addr":"경기도 평택시 지산동 1016번지","category":"보건위생 - 미용원"}]},{"lat":"37.081453745","long":"127.05752792","items":[{"name":"헤어쟁이","tel":"031-663-0577","addr":"경기도 평택시 지산동 753-62번지","category":"보건위생 - 미용원"}]},{"lat":"37.080454487","long":"127.05550289","items":[{"name":"헬스마일평택점","tel":"031-666-0009","addr":"경기도 평택시 지산동 767-47번지","category":"보건위생 - 의료용품"}]},{"lat":"37.081149185","long":"127.07141687","items":[{"name":"현대기아자동차공업사","tel":"031-668-8134","addr":"경기도 평택시 지산동 597-3번지","category":"자동차정비 유지 - 자동차정비"}]},{"lat":"37.078513803","long":"127.06269893","items":[{"name":"현대볼링센타","tel":"031-252-7100","addr":"경기도 평택시 지산동 1089번지 현대아파트","category":"레저업소 - 볼 링 장"}]},{"lat":"37.079535667","long":"127.05491746","items":[{"name":"현대악기","tel":"031-663-8050","addr":"경기도 평택시 지산동 767-15번지","category":"레져용품 - 악기점"}]},{"lat":"37.08431909","long":"127.05756372","items":[{"name":"현대추어탕","tel":"031-664-6500","addr":"경기도 평택시 지산동 737-5번지","category":"일반휴게음식 - 일반한식"}]},{"lat":"37.07384827","long":"127.05870321","items":[{"name":"현우머리방","tel":"031-664-2146","addr":"경기도 평택시 지산동 864-3번지","category":"서비스업 - 미용"},{"name":"현우미용실","tel":"031-611-5445","addr":"경기도 평택시 지산동 864-3번지","category":"보건위생 - 미용원"}]},{"lat":"37.081538442","long":"127.06822326","items":[{"name":"호성카테크","tel":"031-663-2456","addr":"경기도 평택시 지산동 630-7번지","category":"자동차정비 유지 - 카인테리어"}]},{"lat":"37.078229856","long":"127.08541533","items":[{"name":"호현상사","tel":"031-952-5784","addr":"경기도 평택시 지산동 176번지","category":"직물 - 옷감·직물"}]},{"lat":"37.080814108","long":"127.05728005","items":[{"name":"홍대빈티지","tel":"031-664-8777","addr":"경기도 평택시 지산동 757-8번지 상가동 1층","category":"의류 - 기타의류"}]},{"lat":"37.073487666","long":"127.05908528","items":[{"name":"화개장터","tel":"031-655-9229","addr":"경기도 평택시 지산동 864-6번지","category":"일반휴게음식 - 일반한식"}]},{"lat":"37.074957705","long":"127.08727851","items":[{"name":"화승상사","tel":"031-664-7233","addr":"경기도 평택시 지산동 228-24번지","category":"건축자재 - 페인트"}]},{"lat":"37.074425184","long":"127.0581976","items":[{"name":"화이트클리닉","tel":"","addr":"경기도 평택시 지산동 858-7번지 2층 202호","category":"용역 서비스 - 종합용역"}]},{"lat":"37.081399702","long":"127.0574829","items":[{"name":"화정상회","tel":"031-665-6471","addr":"경기도 평택시 지산동 753-13번지","category":"음료식품 - 농·축·수산품"},{"name":"화정식당","tel":"031-668-9222","addr":"경기도 평택시 지산동 753-13번지","category":"음식점 - 한식"}]},{"lat":"37.079535592","long":"127.05508615","items":[{"name":"황제탕","tel":"031-666-0724","addr":"경기도 평택시 지산동 767-100번지","category":"일반휴게음식 - 일반한식"}]},{"lat":"37.081147664","long":"127.0569204","items":[{"name":"황해고추집","tel":"031-662-2122","addr":"경기도 평택시 지산동 756-45번지","category":"음료식품 - 농·축·수산품"}]},{"lat":"37.079429034","long":"127.06989711","items":[{"name":"흑염소 토속마을","tel":"031-666-2519","addr":"경기도 평택시 지산동 576-4번지","category":"일반휴게음식 - 일반한식"}]}]