[{"lat":"37.616049425","long":"126.84392797","items":[{"name":"J2헤어","tel":"031-971-1450","addr":"경기도 고양시 덕양구 충경로","category":"보건위생 - 미용원"}]},{"lat":"37.615135981","long":"126.83492559","items":[{"name":"SBS당구클럽","tel":"031-974-6649","addr":"경기도 고양시 덕양구 충경로","category":"레저업소 - 당 구 장"}]},{"lat":"37.615583727","long":"126.83301044","items":[{"name":"소나무한의원","tel":"031-971-8732","addr":"경기도 고양시 덕양구 충경로","category":"의원 - 한의원"}]},{"lat":"37.615053114","long":"126.83367989","items":[{"name":"아리따움","tel":"031-972-3631","addr":"경기도 고양시 덕양구 충경로","category":"보건위생 - 화장품"}]},{"lat":"37.615136545","long":"126.835322","items":[{"name":"이지샘보습학원","tel":"070-8699-6227","addr":"경기도 고양시 덕양구 충경로","category":"학원 - 보습학원"},{"name":"퍼스널개별지도학원","tel":"031-979-3708","addr":"경기도 고양시 덕양구 충경로","category":"학원 - 보습학원"},{"name":"행신히트학원","tel":"031-970-0596","addr":"경기도 고양시 덕양구 충경로","category":"학원 - 보습학원"}]},{"lat":"37.615578053","long":"126.83534366","items":[{"name":"행신안경콘택트","tel":"031-970-6003","addr":"경기도 고양시 덕양구 충경로","category":"보건위생 - 안경"}]},{"lat":"37.615577667","long":"126.83507183","items":[{"name":"허미숙애견","tel":"031-973-3377","addr":"경기도 고양시 덕양구 충경로","category":"문화.취미 - 애완동물"}]}]