[{"lat":"37.131065113","long":"127.07550191","items":[{"name":"(주) 에프앤에스식품","tel":"031-378-2280","addr":"경기도 오산시 갈곶동 317-25번지","category":"음료식품 - 기타음료식품"}]},{"lat":"37.129114252","long":"127.06789277","items":[{"name":"(주)다인씨앤디","tel":"031-376-6885","addr":"경기도 오산시 갈곶동 207번지","category":"건축자재 - 조명기구"},{"name":"NOS마트 (오산점)","tel":"031-378-4499","addr":"경기도 오산시 갈곶동 207번지","category":"유통업 영리 - 슈퍼마켓"},{"name":"경희스포츠 아카데미","tel":"031-378-0506","addr":"경기도 오산시 갈곶동 207번지 3층","category":"레저업소 - 기타레져업소"},{"name":"마마푸드","tel":"031-373-6610","addr":"경기도 오산시 갈곶동 207번지 1층","category":"음료식품 - 기타음료식품"},{"name":"본떡","tel":"031-667-9945","addr":"경기도 오산시 갈곶동 207번지","category":"음료식품 - 기타음료식품"},{"name":"본떡","tel":"031-372-2040","addr":"경기도 오산시 갈곶동 207번지 1층","category":"음료식품 - 제과점"},{"name":"썬플라워","tel":"","addr":"경기도 오산시 갈곶동 207번지","category":"문화.취미 - 화원"},{"name":"어촌","tel":"031-375-8485","addr":"경기도 오산시 갈곶동 207번지 1층","category":"일반휴게음식 - 일반한식"},{"name":"어촌수산","tel":"031-375-8485","addr":"경기도 오산시 갈곶동 207번지","category":"음료식품 - 농·축·수산품"},{"name":"주식회사에코티스(ECOTIS)","tel":"031-359-9177","addr":"경기도 오산시 갈곶동 207번지 2층","category":"사무통신 - 기타 사무용품"},{"name":"카페쉼표","tel":"031-377-6604","addr":"경기도 오산시 갈곶동 207번지 1층","category":"일반휴게음식 - 서양음식"},{"name":"크린에이드 (노스마트점)","tel":"031-373-5452","addr":"경기도 오산시 갈곶동 207번지","category":"수리서비스 - 세탁소"}]},{"lat":"37.129643646","long":"127.07183193","items":[{"name":"(주)마봉 갈곶주유소","tel":"031-375-9718","addr":"경기도 오산시 갈곶동 254번지","category":"연료판매점 - 쌍용S-OIL"}]},{"lat":"37.130585377","long":"127.07897882","items":[{"name":"(주)목우촌식자재대리점고양점","tel":"031-376-5399","addr":"경기도 오산시 갈곶동 347번지","category":"일반휴게음식 - 일반한식"},{"name":"오산영원동물병원","tel":"031-377-8875","addr":"경기도 오산시 갈곶동 347번지","category":"기타의료기관 - 동물병원"},{"name":"타이어티스토어 (오산점)","tel":"","addr":"경기도 오산시 갈곶동 347번지 전체","category":"자동차정비 유지 - 자동차시트·타이어"}]},{"lat":"37.130643909","long":"127.07166403","items":[{"name":"(주)원창","tel":"031-376-3705","addr":"경기도 오산시 갈곶동 285번지","category":"연료판매점 - 쌍용S-OIL"},{"name":"경성","tel":"031-714-2376","addr":"경기도 오산시 갈곶동 285","category":"유통업 영리 - 편 의 점"},{"name":"컨트롤필라테스","tel":"031-831-5531","addr":"경기도 오산시 갈곶동 285번지","category":"레저업소 - 헬스클럽"}]},{"lat":"37.129505407","long":"127.07694086","items":[{"name":"(주)인동에프엔오산점","tel":"031-379-6515","addr":"경기도 오산시 갈곶동 304번지 일양종합물류오산센터 B동 지상 1층","category":"의류 - 정장"}]},{"lat":"37.131642005","long":"127.07514235","items":[{"name":"(주)파피아","tel":"031-372-9461","addr":"경기도 오산시 갈곶동 317-3번지","category":"가구 - 일반가구"}]},{"lat":"37.129114675","long":"127.06711628","items":[{"name":"DS billiard club","tel":"031-374-3010","addr":"경기도 오산시 갈곶동 180-1번지 정우빌딩 2층 B호","category":"레저업소 - 당 구 장"}]},{"lat":"37.131646219","long":"127.06786117","items":[{"name":"GS25오산스위첸점","tel":"","addr":"경기도 오산시 갈곶동 133-9번지","category":"유통업 영리 - 편 의 점"}]},{"lat":"37.135114891","long":"127.06852814","items":[{"name":"GS25오산한솔점","tel":"","addr":"경기도 오산시 갈곶동 659-2번지 101호","category":"유통업 영리 - 편 의 점"},{"name":"달보드레 제과점","tel":"031-378-0848","addr":"경기도 오산시 갈곶동 659-2번지 1층","category":"음료식품 - 제과점"},{"name":"렌토피아노전문교육학원","tel":"031-374-7830","addr":"경기도 오산시 갈곶동 659-2번지 솔파크근린생활시설 201호","category":"학원 - 예·체능계학원"},{"name":"본죽오산갈곶점","tel":"031-373-2356","addr":"경기도 오산시 갈곶동 659-2번지 외3필지 105호","category":"일반휴게음식 - 일반한식"},{"name":"이룸학원","tel":"031-374-0972","addr":"경기도 오산시 갈곶동 659-2번지 302-304호","category":"학원 - 보습학원"},{"name":"한솔마트","tel":"031-372-8589","addr":"경기도 오산시 갈곶동 659-2번지 한솔프라자상가 101호","category":"유통업 영리 - 슈퍼마켓"},{"name":"헤어팝페라","tel":"031-375-9661","addr":"경기도 오산시 갈곶동 659-2번지 104호","category":"보건위생 - 미용원"}]},{"lat":"37.135502261","long":"127.06867478","items":[{"name":"MI리듬체조클럽","tel":"031-377-7774","addr":"경기도 오산시 갈곶동 667번지 3층","category":"학원 - 예·체능계학원"},{"name":"뽕차이","tel":"031-375-9495","addr":"경기도 오산시 갈곶동 667번지 1층","category":"일반휴게음식 - 중국식"},{"name":"오땡큐헤어","tel":"031-374-7003","addr":"경기도 오산시 갈곶동 667번지 1층","category":"보건위생 - 미용원"},{"name":"오산검도관","tel":"031-375-8840","addr":"경기도 오산시 갈곶동 667번지 2층","category":"학원 - 예·체능계학원"},{"name":"튼튼영어마스터클럽원동학원","tel":"031-378-0512","addr":"경기도 오산시 갈곶동 667번지 태림빌딩 3층","category":"학원 - 보습학원"}]},{"lat":"37.128645964","long":"127.06741973","items":[{"name":"OK스크린골프존","tel":"031-376-1717","addr":"경기도 오산시 갈곶동 206번지","category":"레저업소 - 스크린골프"}]},{"lat":"37.125893712","long":"127.07447296","items":[{"name":"[지로]경기가스","tel":"031-378-3463","addr":"경기도 오산시 갈곶동 298-3번지","category":"유통업 영리 - 인터넷 Mall"},{"name":"경기가스","tel":"031-374-4612","addr":"경기도 오산시 갈곶동 298-3번지","category":"연료판매점 - 기타연료"}]},{"lat":"37.129976837","long":"127.07216984","items":[{"name":"가마솥한식부페","tel":"031-377-9937","addr":"경기도 오산시 갈곶동 256번지","category":"일반휴게음식 - 일반한식"},{"name":"로드자동차정비공업사","tel":"031-374-8630","addr":"경기도 오산시 갈곶동 256번지","category":"자동차정비 유지 - 자동차정비"}]},{"lat":"37.131141153","long":"127.06872727","items":[{"name":"가장맛있는족발갈곶점","tel":"031-378-2558","addr":"경기도 오산시 갈곶동 162-4번지 1층","category":"일반휴게음식 - 일반한식"},{"name":"칸타타호프","tel":"031-111-1111","addr":"경기도 오산시 갈곶동 162-4번지 1층","category":"일반휴게음식 - 주점"},{"name":"파밀리아당구장","tel":"031-376-3352","addr":"경기도 오산시 갈곶동 162-4번지 2층","category":"레저업소 - 당 구 장"},{"name":"해바라기꽃집","tel":"031-375-7787","addr":"경기도 오산시 갈곶동 162-4번지","category":"문화.취미 - 화원"}]},{"lat":"37.129698074","long":"127.07120179","items":[{"name":"간장에빠진새우","tel":"031-372-3392","addr":"경기도 오산시 갈곶동 259번지 신웅빌딩 1층 106호","category":"일반휴게음식 - 일반한식"},{"name":"김가네닭강정","tel":"031-372-9949","addr":"경기도 오산시 갈곶동 259번지 신웅빌딩 1층 103호","category":"일반휴게음식 - 일반한식"},{"name":"대원문구","tel":"031-377-4486","addr":"경기도 오산시 갈곶동 259, 101","category":"서적문구 - 문구용품"},{"name":"로제타스톤어학원","tel":"031-373-0505","addr":"경기도 오산시 갈곶동 259번지 신웅빌딩 201호","category":"학원 - 외국어학원"},{"name":"불로불러바베큐치킨","tel":"031-378-1006","addr":"경기도 오산시 갈곶동 259번지 신웅빌딩 107호","category":"일반휴게음식 - 주점"},{"name":"얼큰이뚝배기","tel":"031-374-3748","addr":"경기도 오산시 갈곶동 259번지 신웅빌딩 106호","category":"일반휴게음식 - 일반한식"},{"name":"용인대대원타이곤태권도장","tel":"031-376-7677","addr":"경기도 오산시 갈곶동 259번지 신웅빌딩 302호","category":"학원 - 예·체능계학원"},{"name":"쩡클럽다이어트점핑","tel":"","addr":"경기도 오산시 갈곶동 259번지 신웅빌딩 105호","category":"건강식품 - 기타건강식품"},{"name":"코리아헬스","tel":"031-375-2111","addr":"경기도 오산시 갈곶동 259번지 신웅빌딩 3층","category":"회원제형태 - 레져업소"},{"name":"포인트헤어샵","tel":"031-376-7060","addr":"경기도 오산시 갈곶동 259번지 신웅빌딩 102호","category":"보건위생 - 미용원"}]},{"lat":"37.132339209","long":"127.06933602","items":[{"name":"갈곳뜨게방","tel":"031-372-6432","addr":"경기도 오산시 갈곶동 151번지","category":"신변잡화 - 기타잡화"},{"name":"매직원","tel":"031-3766-1986","addr":"경기도 오산시 갈곶동 151번지","category":"자동차정비 유지 - 자동차부품"},{"name":"초가둥지","tel":"031-376-2939","addr":"경기도 오산시 갈곶동 151번지","category":"일반휴게음식 - 일반한식"}]},{"lat":"37.128474611","long":"127.06770091","items":[{"name":"갈곶노래연습장","tel":"031-375-4842","addr":"경기도 오산시 갈곶동 205번지","category":"레저업소 - 노 래 방"},{"name":"갈곶노래연습장","tel":"031-375-4842","addr":"경기도 오산시 갈곶동 205번지 B1층","category":"레저업소 - 노 래 방"},{"name":"갈곶목욕탕","tel":"031-373-3270","addr":"경기도 오산시 갈곶동 205번지","category":"보건위생 - 사우나"}]},{"lat":"37.131753559","long":"127.06927924","items":[{"name":"갈곶속셈독수리체육관","tel":"031-375-8956","addr":"경기도 오산시 갈곶동 152-11번지","category":"레저업소 - 기타레져업소"}]},{"lat":"37.127870957","long":"127.06761037","items":[{"name":"갈곶스포츠용품","tel":"031-375-4780","addr":"경기도 오산시 갈곶동 192번지 1층","category":"레져용품 - 스포츠·레져용품"},{"name":"갈곶야식당","tel":"031-375-4780","addr":"경기도 오산시 갈곶동 192번지 1층","category":"일반휴게음식 - 일반한식"},{"name":"문구라이프 조아","tel":"031-376-3270","addr":"경기도 오산시 갈곶동 192번지","category":"서적문구 - 문구용품"},{"name":"청송골프아카데미","tel":"031-376-6387","addr":"경기도 오산시 갈곶동 192번지 한국유통 1층","category":"레저업소 - 스크린골프"},{"name":"청송상가","tel":"031-375-4780","addr":"경기도 오산시 갈곶동 192번지","category":"자동차정비 유지 - 주차장"},{"name":"필승스크린골프","tel":"031-375-4780","addr":"경기도 오산시 갈곶동 192번지","category":"레저업소 - 스크린골프"}]},{"lat":"37.13350241","long":"127.06780649","items":[{"name":"강강술래","tel":"031-374-3711","addr":"경기도 오산시 갈곶동 110-5번지 우방힐타운상가동 202호","category":"일반휴게음식 - 일반한식"},{"name":"더샵피플","tel":"","addr":"경기도 오산시 갈곶동 110-5번지 상가동 202호, 203호","category":"보건위생 - 화장품"},{"name":"배터지는생돈가스(갈곶동)","tel":"031-373-5989","addr":"경기도 오산시 갈곶동 110-5우방힐타운상가102","category":"일반휴게음식 - 서양음식"},{"name":"온누리한의원","tel":"031-376-2846","addr":"경기도 오산시 갈곶동 110-5우방힐타운상가201호","category":"의원 - 한의원"}]},{"lat":"37.127925198","long":"127.06728408","items":[{"name":"개미떡방앗간","tel":"031-375-2341","addr":"경기도 오산시 갈곶동 192-3번지","category":"음료식품 - 제과점"},{"name":"에스케이(SK)당구클럽","tel":"","addr":"경기도 오산시 갈곶동 192-3번지 2층","category":"레저업소 - 당 구 장"},{"name":"참소망약국","tel":"031-378-6354","addr":"경기도 오산시 갈곶동 192-3번지 1,층 3,4호","category":"약국 - 약국"},{"name":"천년건강원","tel":"031-377-0801","addr":"경기도 오산시 갈곶동 192-3번지","category":"건강식품 - 기타건강식품"},{"name":"코나","tel":"02-1111-1111","addr":"경기도 오산시 갈곶동 192-3번지 1층","category":"일반휴게음식 - 서양음식"}]},{"lat":"37.13200621","long":"127.06863799","items":[{"name":"거기서맏나","tel":"031-377-8930","addr":"경기도 오산시 갈곶동 130-10번지 지하1층","category":"일반휴게음식 - 주점"},{"name":"구피샵 갈곶점","tel":"070-4649-1101","addr":"경기도 오산시 갈곶동 130-10번지 1층","category":"보건위생 - 화장품"},{"name":"참참참","tel":"031-377-8930","addr":"경기도 오산시 갈곶동 130-10번지 지하1층","category":"일반휴게음식 - 주점"},{"name":"청사초롱","tel":"031-376-9005","addr":"경기도 오산시 갈곶동 130-10번지 1층 103호","category":"일반휴게음식 - 일반한식"}]},{"lat":"37.133141438","long":"127.06880778","items":[{"name":"경희오산한의원","tel":"031-372-8875","addr":"경기도 오산시 갈곶동 126-4번지 파리바케트 (갈곶동2층)","category":"의원 - 한의원"},{"name":"명금당","tel":"031-375-7903","addr":"경기도 오산시 갈곶동 126-4번지 명금당","category":"신변잡화 - 시계"},{"name":"수 컬렉션","tel":"031-377-2705","addr":"경기도 오산시 갈곶동 126-4번지 파리바게뜨 101호","category":"의류 - 정장"},{"name":"태화정","tel":"031-376-2309","addr":"경기도 오산시 갈곶동 126-4번지 지하층","category":"일반휴게음식 - 일반한식"},{"name":"파리바게트 갈곶점","tel":"","addr":"경기도 오산시 갈곶동 126-4번지 1층","category":"음료식품 - 제과점"},{"name":"한사랑치과의원","tel":"031-372-2875","addr":"경기도 오산시 갈곶동 126-4번지 4층","category":"의원 - 치과의원"},{"name":"헤어톡(갈곶점)","tel":"031-374-1714","addr":"경기도 오산시 갈곶동 126-4번지 파리바게뜨 201호","category":"보건위생 - 미용원"},{"name":"힐링스","tel":"070-2759-5254","addr":"경기도 오산시 갈곶동 126-4번지 파리바게뜨 2층 201호","category":"보건위생 - 화장품"}]},{"lat":"37.128195756","long":"127.06683418","items":[{"name":"고구려기획","tel":"031-375-0749","addr":"경기도 오산시 갈곶동 184-1번지","category":"용역 서비스 - 종합용역"},{"name":"오산본가왕뼈감자탕","tel":"031-372-3121","addr":"경기도 오산시 갈곶동 184-1번지","category":"일반휴게음식 - 일반한식"},{"name":"현대설비","tel":"070-8260-3322","addr":"경기도 오산시 갈곶동 184-1번지 202호","category":"용역 서비스 - 기타용역서비스"}]},{"lat":"37.131835086","long":"127.0685028","items":[{"name":"공간미학인테리어","tel":"031-611-3982","addr":"경기도 오산시 갈곶동 130-14번지","category":"직물 - 옷감·직물"},{"name":"아이스꾸러미","tel":"","addr":"경기도 오산시 갈곶동 130-14번지 심안빌딩 103호","category":"음료식품 - 기타음료식품"},{"name":"제이에이치헤어","tel":"","addr":"경기도 오산시 갈곶동 130-14번지 1층","category":"보건위생 - 미용원"}]},{"lat":"37.128977143","long":"127.07135868","items":[{"name":"그린물산","tel":"031-372-8892","addr":"경기도 오산시 갈곶동 245번지 1층","category":"의류 - 정장"},{"name":"씨제이올리브네트웍스(주)오산갈곶점","tel":"031-372-2328","addr":"경기도 오산시 갈곶동 245번지 1층","category":"유통업 영리 - 편 의 점"}]},{"lat":"37.128168045","long":"127.06808326","items":[{"name":"그린오토바이","tel":"031-375-2414","addr":"경기도 오산시 갈곶동 197번지 106호 ,107,108호","category":"자동차판매 - 이륜차판매"},{"name":"오산전자","tel":"031-374-2123","addr":"경기도 오산시 갈곶동 197번지","category":"전기제품 - 가전제품"}]},{"lat":"37.134484455","long":"127.06798739","items":[{"name":"그림아이","tel":"","addr":"경기도 오산시 갈곶동 704번지 한솔솔파크 102동 503호","category":"학원 - 기타 교육기관"}]},{"lat":"37.129170323","long":"127.07960759","items":[{"name":"금성 당구장","tel":"02-000-0000","addr":"경기도 오산시 갈곶동 356-1번지 2층","category":"레저업소 - 당 구 장"},{"name":"유워시 셀프세차장","tel":"031-375-2211","addr":"경기도 오산시 갈곶동 356-1번지","category":"자동차정비 유지 - 세차장"},{"name":"유장춘닭개장오산점","tel":"031-377-3563","addr":"경기도 오산시 갈곶동 356-1번지 101호","category":"일반휴게음식 - 일반한식"},{"name":"플래이보이노래연습장","tel":"031-223-5214","addr":"경기도 오산시 갈곶동 356-1번지 2층","category":"레저업소 - 노 래 방"},{"name":"플레이보이노래연습장","tel":"031-375-4193","addr":"경기도 오산시 갈곶동 356-1번지","category":"레저업소 - 노 래 방"}]},{"lat":"37.130501868","long":"127.06789395","items":[{"name":"금성축산","tel":"031-374-5364","addr":"경기도 오산시 갈곶동 168-8번지 새소망교회 101호","category":"음료식품 - 정육점"},{"name":"만두먹고 찐빵먹고","tel":"031-375-9637","addr":"경기도 오산시 갈곶동 168-8번지 1층","category":"일반휴게음식 - 스넥"}]},{"lat":"37.127673251","long":"127.06664243","items":[{"name":"김가네볼태기","tel":"031-373-4118","addr":"경기도 오산시 갈곶동 186번지","category":"일반휴게음식 - 일반한식"},{"name":"윌로펌프산업(주)","tel":"031-377-2224","addr":"경기도 오산시 갈곶동 186번지","category":"건축자재 - 보일러·펌프·샷시"},{"name":"킹콩쭈꾸미","tel":"031-376-7946","addr":"경기도 오산시 갈곶동 186번지 1층","category":"일반휴게음식 - 일반한식"}]},{"lat":"37.131589893","long":"127.07186746","items":[{"name":"김경옥추(  )가마솥추어탕본점","tel":"031-373-8022","addr":"경기도 오산시 갈곶동 273-6,275-1,275-9","category":"일반휴게음식 - 일반한식"}]},{"lat":"37.13269966","long":"127.06928006","items":[{"name":"김성우의원","tel":"031-374-2509","addr":"경기도 오산시 갈곶동 126-23번지","category":"의원 - 의원"},{"name":"머슬림(Muscle Lim) 복싱 Gym","tel":"031-8058-0023","addr":"경기도 오산시 갈곶동 126-23번지 3층","category":"레저업소 - 헬스클럽"},{"name":"페리카나","tel":"031-372-3573","addr":"경기도 오산시 갈곶동 126-23번지","category":"일반휴게음식 - 칵테일바"}]},{"lat":"37.132087023","long":"127.06914448","items":[{"name":"김진경에스테틱","tel":"031-372-1094","addr":"경기도 오산시 갈곶동 152번지 2층","category":"보건위생 - 피부미용실"},{"name":"황금돼지솥뚜껑삼겹살갈곶점","tel":"031-374-4787","addr":"경기도 오산시 갈곶동 152번지 1층","category":"일반휴게음식 - 일반한식"}]},{"lat":"37.133925382","long":"127.06875219","items":[{"name":"깁밥천국 갈곶점","tel":"031-375-1999","addr":"경기도 오산시 갈곶동 675번지 리치타워 102호","category":"일반휴게음식 - 스넥"},{"name":"더스터디갈곶독서실","tel":"031-376-2145","addr":"경기도 오산시 갈곶동 675번지 리치타워 302호","category":"학원 - 독서실"},{"name":"도현텔레콤","tel":"031-374-6442","addr":"경기도 오산시 갈곶동 675번지 리치타워 제 1층 108호","category":"사무통신 - 통신기기"},{"name":"라임치과","tel":"031-376-2868","addr":"경기도 오산시 갈곶동 675번지 리치플라자 305호","category":"의원 - 치과의원"},{"name":"사랑약국","tel":"031-375-6535","addr":"경기도 오산시 갈곶동 675번지 리치빌타워 106호","category":"약국 - 약국"},{"name":"새봄연합의원","tel":"031-375-5321","addr":"경기도 오산시 갈곶동 675번지 리치빌타워 301호","category":"의원 - 의원"},{"name":"신통치킨(갈곶점)","tel":"031-375-5989","addr":"경기도 오산시 갈곶동 675번지 리치빌타워 104호","category":"일반휴게음식 - 스넥"},{"name":"씨엘","tel":"031-375-4739","addr":"경기도 오산시 갈곶동 675번지 리치타워 109호","category":"보건위생 - 미용원"},{"name":"아이스크림에 빠지다","tel":"","addr":"경기도 오산시 갈곶동 675번지 리치타워 1층 110호","category":"음료식품 - 기타음료식품"},{"name":"오렌지음악학원","tel":"031-377-7822","addr":"경기도 오산시 갈곶동 675번지","category":"학원 - 예·체능계학원"},{"name":"오산폰","tel":"031-373-6656","addr":"경기도 오산시 갈곶동 675번지 리치빌타워 105호","category":"사무통신 - 통신기기"},{"name":"이화","tel":"031-375-5321","addr":"경기도 오산시 갈곶동 675번지 리치타워 301호 일부","category":"보건위생 - 화장품"},{"name":"청춘모바일","tel":"031-663-0447","addr":"경기도 오산시 갈곶동 675번지 101호","category":"사무통신 - 통신기기"},{"name":"티칭코칭학원","tel":"031-373-6579","addr":"경기도 오산시 갈곶동 675번지 리치빌타워 403호","category":"학원 - 보습학원"},{"name":"피자스쿨갈곶점","tel":"031-374-3390","addr":"경기도 오산시 갈곶동 675번지 107호","category":"일반휴게음식 - 서양음식"},{"name":"하나로축산","tel":"041-545-0169","addr":"경기도 오산시 갈곶동 675번지 리치타워 103호","category":"음료식품 - 정육점"}]},{"lat":"37.134304448","long":"127.06761585","items":[{"name":"꼬마에밀어린이집[아이행복]","tel":"031-372-0762","addr":"경기도 오산시 갈곶동 704번지 한솔솔파크 103동 101호","category":"학원 - 유아원"}]},{"lat":"37.130924487","long":"127.06946983","items":[{"name":"꽁아도자기공방","tel":"031-375-8814","addr":"경기도 오산시 갈곶동 161번지","category":"문화.취미 - 민예·공예품"}]},{"lat":"37.131834854","long":"127.06891919","items":[{"name":"꿈노래연습장","tel":"031-375-7638","addr":"경기도 오산시 갈곶동 152-6번지","category":"레저업소 - 노 래 방"},{"name":"마포잡부구이","tel":"031-377-1792","addr":"경기도 오산시 갈곶동 152-6번지 1층","category":"일반휴게음식 - 일반한식"},{"name":"헤어팜","tel":"031-372-0321","addr":"경기도 오산시 갈곶동 152-6번지 1층","category":"보건위생 - 미용원"}]},{"lat":"37.131418206","long":"127.07270008","items":[{"name":"나눔중고프라자","tel":"031-377-6466","addr":"경기도 오산시 갈곶동 273-5번지","category":"유통업 영리 - 기타유통업"},{"name":"동네방네","tel":"031-374-9042","addr":"경기도 오산시 갈곶동 273-5번지","category":"일반휴게음식 - 일반한식"},{"name":"소희(    )","tel":"070-4845-3933","addr":"경기도 오산시 갈곶동 273-5번지 외2필지","category":"의류 - 정장"},{"name":"크린토피아코인워시 갈곶동점","tel":"031-375-3259","addr":"경기도 오산시 갈곶동 273-5번지 1층","category":"수리서비스 - 세탁소"}]},{"lat":"37.128754316","long":"127.06700345","items":[{"name":"남원추어탕","tel":"031-378-7877","addr":"경기도 오산시 갈곶동 184번지","category":"일반휴게음식 - 일반한식"},{"name":"델리퀸오산점","tel":"031-374-6631","addr":"경기도 오산시 갈곶동 184번지","category":"음료식품 - 정육점"},{"name":"집현전","tel":"031-374-0848","addr":"경기도 오산시 갈곶동 184번지","category":"용역 서비스 - 사무서비스"}]},{"lat":"37.128502065","long":"127.06692446","items":[{"name":"내고향영양탕","tel":"031-375-3348","addr":"경기도 오산시 갈곶동 184-5번지","category":"일반휴게음식 - 일반한식"},{"name":"무더리아귀찜","tel":"031-375-7706","addr":"경기도 오산시 갈곶동 184-5번지 1층","category":"일반휴게음식 - 일반한식"},{"name":"백년손님","tel":"000-000-0000","addr":"경기도 오산시 갈곶동 184-5번지 1층","category":"일반휴게음식 - 일반한식"},{"name":"불꽃노래방","tel":"031-377-9837","addr":"경기도 오산시 갈곶동 184-5번지","category":"레저업소 - 노 래 방"},{"name":"신창신토리순대","tel":"031-377-0543","addr":"경기도 오산시 갈곶동 184-5번지","category":"일반휴게음식 - 일반한식"},{"name":"열린공간","tel":"031-000-0000","addr":"경기도 오산시 갈곶동 184-5번지 2층","category":"일반휴게음식 - 서양음식"}]},{"lat":"37.132645817","long":"127.06888613","items":[{"name":"네일도맑음","tel":"070-7720-5353","addr":"경기도 오산시 갈곶동 126-18번지 1층","category":"보건위생 - 피부미용실"},{"name":"데일리뉴트리션(DAILY NUTRITION)","tel":"031-375-2063","addr":"경기도 오산시 갈곶동 126-18번지 2층","category":"건강식품 - 기타건강식품"},{"name":"헤어리더","tel":"031-375-1716","addr":"경기도 오산시 갈곶동 126-18번지","category":"보건위생 - 미용원"}]},{"lat":"37.132861881","long":"127.06922394","items":[{"name":"다나약국","tel":"031-374-2878","addr":"경기도 오산시 갈곶동 126-21번지","category":"약국 - 약국"},{"name":"베리굳헤어","tel":"031-377-9960","addr":"경기도 오산시 갈곶동 126-21번지 상가 1층","category":"보건위생 - 미용원"},{"name":"장인치과의원","tel":"031-373-2879","addr":"경기도 오산시 갈곶동 126-21번지 2층","category":"의원 - 치과의원"}]},{"lat":"37.128890962","long":"127.07966358","items":[{"name":"다다복아구찜","tel":"031-663-0447","addr":"경기도 오산시 갈곶동 360번지 1층","category":"일반휴게음식 - 일반한식"}]},{"lat":"37.135313072","long":"127.06861834","items":[{"name":"다본안경(오산점)","tel":"031-373-3771","addr":"경기도 오산시 갈곶동 659-1번지 1층 102호","category":"보건위생 - 안경"},{"name":"단국대석사체육관","tel":"031-375-0205","addr":"경기도 오산시 갈곶동 659-1번지 5층","category":"학원 - 예·체능계학원"},{"name":"방방존","tel":"070-7581-9002","addr":"경기도 오산시 갈곶동 659-1번지 3층","category":"레저업소 - 기타레져업소"},{"name":"방방존","tel":"070-7581-9002","addr":"경기도 오산시 갈곶동 659-1번지 광성빌딩3층전체","category":"레저업소 - 기타레져업소"},{"name":"찬동물병원","tel":"031-374-1275","addr":"경기도 오산시 갈곶동 659-1번지 광성빌딩 101호","category":"기타의료기관 - 동물병원"}]},{"lat":"37.132086916","long":"127.0693358","items":[{"name":"다원미용실","tel":"031-378-7971","addr":"경기도 오산시 갈곶동 152-13번지","category":"보건위생 - 미용원"},{"name":"엄마김밥 갈곶점","tel":"031-372-2948","addr":"경기도 오산시 갈곶동 152-13번지 1층","category":"일반휴게음식 - 일반한식"}]},{"lat":"37.129751463","long":"127.07236094","items":[{"name":"대림인테리어","tel":"031-375-3341","addr":"경기도 오산시 갈곶동 254-3번지","category":"직물 - 카페트,커튼,천막,지물"},{"name":"서린에스엘 푸드","tel":"031-377-4401","addr":"경기도 오산시 갈곶동 254-3번지","category":"음료식품 - 기타음료식품"}]},{"lat":"37.132447631","long":"127.06880718","items":[{"name":"대박노래연습장","tel":"031-378-1462","addr":"경기도 오산시 갈곶동 126-17번지 4층","category":"레저업소 - 노 래 방"},{"name":"복자수산","tel":"031-376-7616","addr":"경기도 오산시 갈곶동 126-17번지 심안빌딩 2층","category":"일반휴게음식 - 일식·회집"},{"name":"오산컴퓨터","tel":"031-373-8444","addr":"경기도 오산시 갈곶동 126-17번지 심안빌딩 1층 2호","category":"사무통신 - 컴퓨터"},{"name":"필체형관리","tel":"070-8170-2003","addr":"경기도 오산시 갈곶동 126-17번지 3층전부","category":"회원제형태 - 기타4"}]},{"lat":"37.130780564","long":"127.06903081","items":[{"name":"대원각","tel":"","addr":"경기도 오산시 갈곶동 212-2번지","category":"일반휴게음식 - 중국식"}]},{"lat":"37.131392098","long":"127.07111328","items":[{"name":"대원벨칸토음악학원","tel":"031-375-9233","addr":"경기도 오산시 갈곶동 270-10번지 1층 좌측 상가","category":"학원 - 예·체능계학원"},{"name":"윤선생영어우리집앞오산대원교습소","tel":"031-377-3047","addr":"경기도 오산시 갈곶동 270-10번지 통문장영어 C동 102호","category":"학원 - 보습학원"},{"name":"윤선생우리집앞영어교습소","tel":"031-377-3047","addr":"경기도 오산시 갈곶동 270-10번지 통문장영어 C동 102호","category":"학원 - 보습학원"}]},{"lat":"37.130446042","long":"127.07103365","items":[{"name":"대원초등학교병설유치원[아이행복]","tel":"031-378-8096","addr":"경기도 오산시 갈곶동 258번지","category":"학원 - 유치원"},{"name":"오산대원초등학교","tel":"","addr":"경기도 오산시 갈곶동 258번지 대원초등학교","category":"학원 - 초중고교육기관"},{"name":"오산대원초등학교_수업료","tel":"","addr":"경기도 오산시 갈곶동 258번지 대원초등학교","category":"학원 - 초중고교육기관"}]},{"lat":"37.12872534","long":"127.07050321","items":[{"name":"대찬짬뽕","tel":"031-375-8250","addr":"경기도 오산시 갈곶동 226-1번지 1층","category":"일반휴게음식 - 중국식"},{"name":"대찬짬뽕","tel":"031-375-8250","addr":"경기도 오산시 갈곶동 226-1번지 명품가구백화점 1층 11호","category":"일반휴게음식 - 중국식"},{"name":"동태한마리","tel":"070-1111-1111","addr":"경기도 오산시 갈곶동 226-1번지","category":"일반휴게음식 - 일반한식"},{"name":"동해바다이야기","tel":"031-374-9932","addr":"경기도 오산시 갈곶동 226-1번지 명품가구백화점 1층","category":"일반휴게음식 - 일반한식"},{"name":"런던바이크(가뫼레저)","tel":"031-667-9797","addr":"경기도 오산시 갈곶동 226-1번지","category":"레져용품 - 스포츠·레져용품"},{"name":"미소짓는한우","tel":"031-376-1455","addr":"경기도 오산시 갈곶동 226-1번지 명품가구백화점","category":"일반휴게음식 - 일반한식"},{"name":"시은이네부대찌개","tel":"031-377-2703","addr":"경기도 오산시 갈곶동 226-1번지 명품가구백화점 1층","category":"일반휴게음식 - 일반한식"},{"name":"옛날집","tel":"031-378-7768","addr":"경기도 오산시 갈곶동 226-1번지 1층","category":"일반휴게음식 - 일반한식"},{"name":"원삼골생오리돌구이","tel":"031-373-9252","addr":"경기도 오산시 갈곶동 226-1번지","category":"일반휴게음식 - 일반한식"},{"name":"원하우스(One House)","tel":"031-373-9595","addr":"경기도 오산시 갈곶동 226-1번지 1층","category":"일반휴게음식 - 서양음식"},{"name":"청호우렁쌈밥","tel":"031-378-8817","addr":"경기도 오산시 갈곶동 226-1외4필지5","category":"일반휴게음식 - 일반한식"},{"name":"하얀씽크","tel":"031-377-0182","addr":"경기도 오산시 갈곶동 226-1번지","category":"주방용구 - 주방용구"},{"name":"힘찬수입농산물주식회사","tel":"031-378-0065","addr":"경기도 오산시 갈곶동 226-1번지 명품가구백화점 1층","category":"음료식품 - 기타음료식품"}]},{"lat":"37.131068331","long":"127.07004389","items":[{"name":"대행","tel":"000-000-0000","addr":"경기도 오산시 갈곶동 159-2번지 우승주택 나동 102호","category":"보건위생 - 기타대인서비스"}]},{"lat":"37.132559455","long":"127.07775412","items":[{"name":"덕성족발","tel":"031-373-0445","addr":"경기도 오산시 갈곶동 333번지 1층","category":"일반휴게음식 - 일반한식"},{"name":"헨코디자인","tel":"","addr":"경기도 오산시 갈곶동 333번지 외 3필지(337, 335-4, 335-6)","category":"가구 - 일반가구"}]},{"lat":"37.129674947","long":"127.07955183","items":[{"name":"돈가네돼지찌개","tel":"031-372-8955","addr":"경기도 오산시 갈곶동 350-1번지","category":"일반휴게음식 - 일반한식"},{"name":"정래공구상사","tel":"031-377-8037","addr":"경기도 오산시 갈곶동 350-1번지","category":"기타 - 기계공구"}]},{"lat":"37.13130689","long":"127.07792169","items":[{"name":"동부대로(GS)주유소","tel":"031-373-5151","addr":"경기도 오산시 갈곶동 338번지","category":"연료판매점 - GS주유소"}]},{"lat":"37.129113667","long":"127.06895058","items":[{"name":"동부세탁소","tel":"031-377-7174","addr":"경기도 오산시 갈곶동 220동부2차A상자101.102호","category":"수리서비스 - 세탁소"}]},{"lat":"37.134335057","long":"127.06069458","items":[{"name":"동산에너지(주)","tel":"031-377-8228","addr":"경기도 오산시 갈곶동 3-1번지","category":"연료판매점 - SK가스충전소"},{"name":"동산에너지(주)","tel":"031-377-8228","addr":"경기도 오산시 갈곶동 3-1번지","category":"유통업 영리 - 편 의 점"},{"name":"동산충전소","tel":"031-377-8228","addr":"경기도 오산시 갈곶동 3-1번지","category":"연료판매점 - SK가스충전소"},{"name":"에스케이 동산충전소","tel":"031-377-8226","addr":"경기도 오산시 갈곶동 3-1번지","category":"연료판매점 - SK가스충전소"}]},{"lat":"37.134532934","long":"127.06141499","items":[{"name":"동산주유소","tel":"031-378-8695","addr":"경기도 오산시 갈곶동 22번지","category":"연료판매점 - 현대정유(오일뱅크)"}]},{"lat":"37.128420732","long":"127.06736327","items":[{"name":"동진상사","tel":"031-372-6562","addr":"경기도 오산시 갈곶동 206-4번지 101호","category":"자동차정비 유지 - 자동차부품"},{"name":"맛고을부대찌개","tel":"031-376-0623","addr":"경기도 오산시 갈곶동 206-4번지","category":"일반휴게음식 - 일반한식"},{"name":"와와노래연습장","tel":"031-372-9912","addr":"경기도 오산시 갈곶동 206-4번지 2층","category":"레저업소 - 노 래 방"}]},{"lat":"37.12929486","long":"127.06716145","items":[{"name":"둥지향토면옥갈곶점","tel":"031-377-3337","addr":"경기도 오산시 갈곶동 180-1번지 정우빌딩 A동 1층","category":"일반휴게음식 - 일반한식"}]},{"lat":"37.130811206","long":"127.07809001","items":[{"name":"디자인외길","tel":"031-372-1454","addr":"경기도 오산시 갈곶동 344번지 4,5호","category":"용역 서비스 - 종합용역"}]},{"lat":"37.131198162","long":"127.07886689","items":[{"name":"뚜레쥬르 오산자이(2)","tel":"031-373-0842","addr":"경기도 오산시 갈곶동 342번지 101,102호","category":"음료식품 - 제과점"},{"name":"라브리지헤어살롱 오산갈곶점","tel":"031-377-6896","addr":"경기도 오산시 갈곶동 342번지 106호 107호","category":"보건위생 - 미용원"},{"name":"라인데코","tel":"031-373-6533","addr":"경기도 오산시 갈곶동 342번지 103호","category":"직물 - 침구·수예점"},{"name":"바농","tel":"031-223-4423","addr":"경기도 오산시 갈곶동 342번지 110호","category":"문화.취미 - 민예·공예품"},{"name":"쏘자오산점","tel":"070-4208-7216","addr":"경기도 오산시 갈곶동 342번지","category":"일반휴게음식 - 주점"},{"name":"오늘밥상","tel":"031-377-3567","addr":"경기도 오산시 갈곶동 342번지 1층","category":"음료식품 - 기타음료식품"},{"name":"자이문구","tel":"031-375-7459","addr":"경기도 오산시 갈곶동 342번지 의연상가 5","category":"서적문구 - 문구용품"},{"name":"자이분식","tel":"031-374-2321","addr":"경기도 오산시 갈곶동 342번지 104호","category":"일반휴게음식 - 스넥"},{"name":"흙꽃도예","tel":"031-611-2491","addr":"경기도 오산시 갈곶동 342번지 11호 , 12 의연상가","category":"주방용구 - 주방용식기"}]},{"lat":"37.129087747","long":"127.06692495","items":[{"name":"리싸이클시티오산갈곳점","tel":"031-378-8425","addr":"경기도 오산시 갈곶동 180외1필지정우빌딩b-102","category":"전기제품 - 가전제품"}]},{"lat":"37.129230947","long":"127.06869186","items":[{"name":"리헤어존","tel":"031-374-4320","addr":"경기도 오산시 갈곶동 220-14번지 동부아파트 상가 112호","category":"보건위생 - 미용원"}]},{"lat":"37.128312484","long":"127.06758824","items":[{"name":"만석골칼국수","tel":"031-375-1665","addr":"경기도 오산시 갈곶동 205-13번지","category":"일반휴게음식 - 일반한식"}]},{"lat":"37.13206113","long":"127.06707376","items":[{"name":"맛닭꼬갈곶점","tel":"031-373-3492","addr":"경기도 오산시 갈곶동 713번지 오산케이씨씨스위첸 상가동 101호","category":"일반휴게음식 - 스넥"},{"name":"벨로체피아노학원","tel":"031-372-3506","addr":"경기도 오산시 갈곶동 713번지 오산케이씨씨스위첸 상가동 201호","category":"학원 - 예·체능계학원"},{"name":"아이원어린이집[아이행복]","tel":"031-8050-7933","addr":"경기도 오산시 갈곶동 713번지","category":"학원 - 유아원"},{"name":"헤어명가","tel":"031-376-2092","addr":"경기도 오산시 갈곶동 713번지 오산케이씨씨스위첸 상가동 102호","category":"보건위생 - 미용원"},{"name":"홍익아트오산지사,오산홍익아트미술교습소","tel":"031-372-1017","addr":"경기도 오산시 갈곶동 713번지 KCC스위첸@상가201호 일부","category":"학원 - 예·체능계학원"}]},{"lat":"37.128700088","long":"127.06730724","items":[{"name":"맥스피드PC방","tel":"070-5099-3931","addr":"경기도 오산시 갈곶동 206-3번지 상가2층","category":"레저업소 - 기타레져업소"}]},{"lat":"37.132537453","long":"127.06931368","items":[{"name":"맥주마트 갈곶점","tel":"031-374-0433","addr":"경기도 오산시 갈곶동 126-25번지 2층","category":"일반휴게음식 - 주점"},{"name":"세븐일레븐오산갈곶대로점","tel":"","addr":"경기도 오산시 갈곶동 126-25번지","category":"유통업 영리 - 편 의 점"},{"name":"카페하나(cafe HaNa)","tel":"031-4108-1205","addr":"경기도 오산시 갈곶동 126-25번지 1층","category":"일반휴게음식 - 서양음식"}]},{"lat":"37.130672047","long":"127.06972844","items":[{"name":"머리와입맞춤","tel":"031-377-9177","addr":"경기도 오산시 갈곶동 215-1번지 1층","category":"보건위생 - 미용원"}]},{"lat":"37.129918099","long":"127.07975464","items":[{"name":"멕시칸치킨청호갈곶점","tel":"031-297-3401","addr":"경기도 오산시 갈곶동 349번지 101호","category":"일반휴게음식 - 스넥"},{"name":"선주갈곶자이점","tel":"031-378-0331","addr":"경기도 오산시 갈곶동 349번지","category":"일반휴게음식 - 일반한식"},{"name":"선주갈곶자이점","tel":"031-373-3329","addr":"경기도 오산시 갈곶동 349번지 1층 103호","category":"일반휴게음식 - 주점"},{"name":"촌놈","tel":"070-8682-6359","addr":"경기도 오산시 갈곶동 349번지 105호","category":"일반휴게음식 - 일반한식"},{"name":"촌놈","tel":"031-666-0518","addr":"경기도 오산시 갈곶동 349번지","category":"일반휴게음식 - 일반한식"},{"name":"키즈음악","tel":"031-377-6786","addr":"경기도 오산시 갈곶동 349번지 102호","category":"학원 - 예·체능계학원"},{"name":"헤어캐슬","tel":"","addr":"경기도 오산시 갈곶동 349번지 1층","category":"보건위생 - 미용원"}]},{"lat":"37.125560804","long":"127.07367369","items":[{"name":"멜로디","tel":"031-373-3684","addr":"경기도 오산시 갈곶동 237-4번지 1층","category":"일반휴게음식 - 일반한식"}]},{"lat":"37.131391968","long":"127.07133835","items":[{"name":"명인학원","tel":"031-372-0123","addr":"경기도 오산시 갈곶동 270-29번지 좋은빌 D동 102호","category":"회원제형태 - 학원"}]},{"lat":"37.130366069","long":"127.06905295","items":[{"name":"미(  )의여신","tel":"031-377-0081","addr":"경기도 오산시 갈곶동 217-10번지 1층 좌측","category":"회원제형태 - 기타4"}]},{"lat":"37.130008495","long":"127.07930459","items":[{"name":"바다향왕코다리","tel":"031-377-8386","addr":"경기도 오산시 갈곶동 350번지 화남빌딩 102호,103호","category":"일반휴게음식 - 일반한식"},{"name":"임대리아구낙지해물찜","tel":"031-377-8386","addr":"경기도 오산시 갈곶동 350번지 화남빌딩 1층","category":"일반휴게음식 - 일반한식"},{"name":"콜벨","tel":"031-424-8733","addr":"경기도 오산시 갈곶동 350번지 화남빌딩 202호","category":"전기제품 - 기타전기제품"},{"name":"화남장례식장","tel":"031-374-2269","addr":"경기도 오산시 갈곶동 350번지","category":"용역 서비스 - 가례서비스업"}]},{"lat":"37.134141634","long":"127.06875238","items":[{"name":"바라던치킨오산점","tel":"031-374-9400","addr":"경기도 오산시 갈곶동 680번지 ,1,2층","category":"일반휴게음식 - 스넥"},{"name":"제이와이오 컴퍼니","tel":"","addr":"경기도 오산시 갈곶동 680번지","category":"보건위생 - 기타대인서비스"}]},{"lat":"37.129453539","long":"127.07333972","items":[{"name":"반찬의여왕","tel":"031-374-7932","addr":"경기도 오산시 갈곶동 715번지 갈곶피오레 상가동 105호","category":"음료식품 - 기타음료식품"},{"name":"반찬의여왕","tel":"031-374-7932","addr":"경기도 오산시 갈곶동 715번지 갈곶피오레 상가동 105호","category":"음료식품 - 기타음료식품"},{"name":"지엘헤어","tel":"031-376-3046","addr":"경기도 오산시 갈곶동 715번지 갈곶피오레 104호","category":"보건위생 - 미용원"}]},{"lat":"37.131114321","long":"127.06836713","items":[{"name":"버블그린염색전문점","tel":"070-8116-6508","addr":"경기도 오산시 갈곶동 163-1번지 동명빌딩 1층","category":"보건위생 - 미용원"},{"name":"한라합기도","tel":"031-372-2558","addr":"경기도 오산시 갈곶동 163-1번지 3층","category":"학원 - 예·체능계학원"}]},{"lat":"37.132168105","long":"127.06916706","items":[{"name":"복자육회","tel":"031-373-0620","addr":"경기도 오산시 갈곶동 150-2번지 2층","category":"일반휴게음식 - 일반한식"},{"name":"지혜약국","tel":"031-375-9882","addr":"경기도 오산시 갈곶동 150-2번지 101호","category":"약국 - 약국"}]},{"lat":"37.128398962","long":"127.07392391","items":[{"name":"브이아이피VIP출장세차","tel":"031-375-3781","addr":"경기도 오산시 갈곶동 291-13번지 근영주택 204호","category":"자동차정비 유지 - 세차장"}]},{"lat":"37.131703409","long":"127.07783205","items":[{"name":"블랙(Black 333)333","tel":"031-376-7982","addr":"경기도 오산시 갈곶동 336번지 1층 2층","category":"일반휴게음식 - 일반한식"}]},{"lat":"37.133114805","long":"127.06808751","items":[{"name":"비 치어스 (Be cheers)","tel":"","addr":"경기도 오산시 갈곶동 112-21번지","category":"서적문구 - 문구용품"}]},{"lat":"37.1314464","long":"127.07069694","items":[{"name":"비에이치씨 원동점","tel":"031-374-9983","addr":"경기도 오산시 갈곶동 272-1번지 1층 일부","category":"일반휴게음식 - 주점"}]},{"lat":"37.131311197","long":"127.07077559","items":[{"name":"사과와토마토어린이집[아이행복]","tel":"031-376-9233","addr":"경기도 오산시 갈곶동 270-1번지","category":"학원 - 유아원"},{"name":"아이마루어린이집[아이행복]","tel":"031-376-9233","addr":"경기도 오산시 갈곶동 270-1번지","category":"학원 - 유아원"},{"name":"현문주음악학원","tel":"031-375-9233","addr":"경기도 오산시 갈곶동 270-1번지","category":"학원 - 예·체능계학원"}]},{"lat":"37.130950887","long":"127.07058396","items":[{"name":"사진찍기좋은날","tel":"02-000-0000","addr":"경기도 오산시 갈곶동 269-3번지","category":"광학제품 - 사진관"},{"name":"씨유오산갈곶소망점","tel":"080-080-3663","addr":"경기도 오산시 갈곶동 269-3번지 1층","category":"유통업 영리 - 편 의 점"},{"name":"장산식당","tel":"031-375-7945","addr":"경기도 오산시 갈곶동 269-3번지 1층","category":"일반휴게음식 - 일반한식"}]},{"lat":"37.132838837","long":"127.07766436","items":[{"name":"삼대째손두부","tel":"031-373-6363","addr":"경기도 오산시 갈곶동 332번지","category":"일반휴게음식 - 일반한식"}]},{"lat":"37.132006297","long":"127.06848044","items":[{"name":"샵헤어","tel":"031-373-0392","addr":"경기도 오산시 갈곶동 130-11 1층","category":"보건위생 - 미용원"}]},{"lat":"37.132754249","long":"127.06833478","items":[{"name":"서가닭발","tel":"031-374-0018","addr":"경기도 오산시 갈곶동 112-28번지 1층","category":"일반휴게음식 - 일반한식"}]},{"lat":"37.132258454","long":"127.06872824","items":[{"name":"서유기 오산갈곶점","tel":"031-352-1673","addr":"경기도 오산시 갈곶동 130-7번지","category":"일반휴게음식 - 주점"},{"name":"소문난생고기","tel":"031-372-0709","addr":"경기도 오산시 갈곶동 130-7번지","category":"일반휴게음식 - 일반한식"},{"name":"신서유기","tel":"031-375-0158","addr":"경기도 오산시 갈곶동 130-7번지 2층","category":"일반휴게음식 - 일반한식"},{"name":"은빛노래연습장","tel":"031-373-5474","addr":"경기도 오산시 갈곶동 130-7번지 지하1층","category":"레저업소 - 노 래 방"}]},{"lat":"37.130727006","long":"127.06811922","items":[{"name":"소문난떡방앗간","tel":"031-376-3356","addr":"경기도 오산시 갈곶동 167-2 외4필지A동(167-3,165-1,165-2,166)","category":"음료식품 - 제과점"},{"name":"슈자이너","tel":"031-378-5528","addr":"경기도 오산시 갈곶동 167-2번지 소문난떡방앗간 102호","category":"의류 - 정장"},{"name":"한가(  )네해물칼국수","tel":"031-111-1111","addr":"경기도 오산시 갈곶동 167-2번지 외4필지 A동","category":"일반휴게음식 - 일반한식"}]},{"lat":"37.130699331","long":"127.06927832","items":[{"name":"수림정숯불갈비","tel":"031-377-5579","addr":"경기도 오산시 갈곶동 214번지","category":"일반휴게음식 - 일반한식"}]},{"lat":"37.13165578","long":"127.06684834","items":[{"name":"스마트현컴","tel":"","addr":"경기도 오산시 갈곶동 713번지 오산케이씨씨스위첸 107동 20층 2호","category":"사무통신 - 컴퓨터"}]},{"lat":"37.135251019","long":"127.06675008","items":[{"name":"시립예일어린이집[아이행복]","tel":"031-376-7200","addr":"경기도 오산시 갈곶동 106","category":"학원 - 유아원"}]},{"lat":"37.127252938","long":"127.0766911","items":[{"name":"시립푸른숲어린이집[아이행복]","tel":"031-831-5752","addr":"경기도 오산시 갈곶동 302-23번지","category":"학원 - 유아원"}]},{"lat":"37.128170151","long":"127.07961783","items":[{"name":"신세기샵","tel":"031-372-5647","addr":"경기도 오산시 갈곶동 364-2번지","category":"자동차정비 유지 - 자동차부품"}]},{"lat":"37.128142019","long":"127.06622646","items":[{"name":"신양철강","tel":"031-373-6356","addr":"경기도 오산시 갈곶동 181-4번지","category":"기타 - 기계공구"}]},{"lat":"37.131140485","long":"127.06992016","items":[{"name":"신통해벌초대행","tel":"","addr":"경기도 오산시 갈곶동 159-3번지","category":"용역 서비스 - 종합용역"}]},{"lat":"37.131754116","long":"127.06827765","items":[{"name":"쏘울편의점포차/(주)디자인그룹소울박스 오","tel":"","addr":"경기도 오산시 갈곶동 149번지 1층 101호","category":"일반휴게음식 - 주점"}]},{"lat":"37.128867508","long":"127.07392435","items":[{"name":"씨유오산피오레점","tel":"031-239-6693","addr":"경기도 오산시 갈곶동 291-9번지 1층","category":"유통업 영리 - 편 의 점"}]},{"lat":"37.131033307","long":"127.06822076","items":[{"name":"아궁이","tel":"031-378-2055","addr":"경기도 오산시 갈곶동 163-2번지","category":"일반휴게음식 - 일반한식"},{"name":"인생옷장","tel":"031-374-4780","addr":"경기도 오산시 갈곶동 163-2번지 1층 102호","category":"의류 - 정장"},{"name":"헤어츄","tel":"031-0000-0000","addr":"경기도 오산시 갈곶동 163-2번지 1층","category":"보건위생 - 미용원"}]},{"lat":"37.127836515","long":"127.08000011","items":[{"name":"아제수산","tel":"031-376-5004","addr":"경기도 오산시 갈곶동 372번지 1층","category":"일반휴게음식 - 일식·회집"}]},{"lat":"37.131312508","long":"127.06844608","items":[{"name":"언니네펫","tel":"031-377-7382","addr":"경기도 오산시 갈곶동 162-2번지 1층 102호","category":"문화.취미 - 애완동물"},{"name":"예삐헤어","tel":"031-372-7794","addr":"경기도 오산시 갈곶동 162-2번지 1층","category":"보건위생 - 미용원"},{"name":"오산열쇠","tel":"031-376-8181","addr":"경기도 오산시 갈곶동 162-2번지","category":"건축자재 - 목재·석재·철물"},{"name":"코디삽","tel":"031-374-8897","addr":"경기도 오산시 갈곶동 162-2번지","category":"의류 - 정장"}]},{"lat":"37.131925636","long":"127.0676926","items":[{"name":"언니커피","tel":"","addr":"경기도 오산시 갈곶동 133-1번지 1층 101호","category":"일반휴게음식 - 서양음식"}]},{"lat":"37.133980316","long":"127.06716541","items":[{"name":"에듀프라임 동탄2지사","tel":"070-8174-9256","addr":"경기도 오산시 갈곶동 704번지 한솔솔파크 104동 404호","category":"서적문구 - 일반서적"}]},{"lat":"37.132033023","long":"127.0690319","items":[{"name":"에이요부라더","tel":"031-377-4787","addr":"경기도 오산시 갈곶동 152-1번지 ,1,2층","category":"일반휴게음식 - 일반한식"}]},{"lat":"37.128725024","long":"127.07105462","items":[{"name":"오산모터스","tel":"031-373-2905","addr":"경기도 오산시 갈곶동 244-4번지","category":"자동차정비 유지 - 자동차정비"}]},{"lat":"37.127537807","long":"127.06717122","items":[{"name":"오산세종병원","tel":"031-1670-8971","addr":"경기도 오산시 갈곶동 190-3번지","category":"병원 - 병원"}]},{"lat":"37.130646251","long":"127.0675002","items":[{"name":"오산인테리어","tel":"031-374-8811","addr":"경기도 오산시 갈곶동 170번지 102호","category":"건축자재 - 인테리어전문"},{"name":"자동차119","tel":"031-374-8911","addr":"경기도 오산시 갈곶동 170번지","category":"자동차정비 유지 - 자동차정비"}]},{"lat":"37.132781019","long":"127.06880747","items":[{"name":"올림피아 당구클럽","tel":"","addr":"경기도 오산시 갈곶동 126-8번지 훼밀리마트 2층","category":"레저업소 - 당 구 장"},{"name":"올림피아당구클럽","tel":"031-375-8009","addr":"경기도 오산시 갈곶동 126-8번지 2층","category":"레저업소 - 당 구 장"},{"name":"정준하순대국","tel":"031-376-7758","addr":"경기도 오산시 갈곶동 126-8번지 훼밀리마트 1층 101호","category":"일반휴게음식 - 일반한식"},{"name":"탐스(TOMS)PC ZONE","tel":"070-8600-7660","addr":"경기도 오산시 갈곶동 126-8번지 지하1층","category":"레저업소 - 기타레져업소"},{"name":"필성종합장식","tel":"031-374-3741","addr":"경기도 오산시 갈곶동 126-8번지","category":"직물 - 카페트,커튼,천막,지물"}]},{"lat":"37.13452968","long":"127.06767232","items":[{"name":"요술지팡이어린이집","tel":"031-377-7961","addr":"경기도 오산시 갈곶동 704번지 한솔솔파크 관리동 1층","category":"학원 - 유치원"},{"name":"요술지팡이어린이집[아이행복]","tel":"031-377-7961","addr":"경기도 오산시 갈곶동 704번지 한솔솔파크 관리동 1층","category":"학원 - 유아원"}]},{"lat":"37.12844689","long":"127.06895","items":[{"name":"우도갈비","tel":"031-377-2323","addr":"경기도 오산시 갈곶동 223-3번지","category":"일반휴게음식 - 일반한식"},{"name":"우도막국수","tel":"031-372-3387","addr":"경기도 오산시 갈곶동 223-3번지 1층","category":"일반휴게음식 - 일반한식"},{"name":"육품(갈곶점)","tel":"","addr":"경기도 오산시 갈곶동 223-3번지 2층","category":"일반휴게음식 - 일반한식"}]},{"lat":"37.130278933","long":"127.07911355","items":[{"name":"우리설렁탕","tel":"031-375-2229","addr":"경기도 오산시 갈곶동 348번지 1층","category":"일반휴게음식 - 일반한식"}]},{"lat":"37.126057547","long":"127.07169364","items":[{"name":"우송편의점","tel":"031-375-0613","addr":"경기도 오산시 갈곶동 236-8번지 104동 103호","category":"유통업 영리 - 편 의 점"}]},{"lat":"37.131447541","long":"127.06867127","items":[{"name":"우정당구장","tel":"031-375-7789","addr":"경기도 오산시 갈곶동 162-1번지 2층","category":"레저업소 - 당 구 장"},{"name":"황제","tel":"031-376-0616","addr":"경기도 오산시 갈곶동 162-1번지","category":"일반휴게음식 - 일반한식"}]},{"lat":"37.129646507","long":"127.06672286","items":[{"name":"이노스당구클럽","tel":"031-376-2506","addr":"경기도 오산시 갈곶동 175번지 화남 상가 301~302호","category":"레저업소 - 당 구 장"}]},{"lat":"37.131473302","long":"127.07092204","items":[{"name":"이엠에이학원","tel":"031-373-4592","addr":"경기도 오산시 갈곶동 270-25번지 EMA학원 1층 2층","category":"학원 - 보습학원"}]},{"lat":"37.128168451","long":"127.06734055","items":[{"name":"인성자동차서비스","tel":"031-376-0177","addr":"경기도 오산시 갈곶동 184-3번지","category":"자동차정비 유지 - 자동차정비"}]},{"lat":"37.131009107","long":"127.07860787","items":[{"name":"자이꽃농원","tel":"031-375-0440","addr":"경기도 오산시 갈곶동 343-2번지","category":"문화.취미 - 화원"},{"name":"휴꽃과자기","tel":"031-373-7430","addr":"경기도 오산시 갈곶동 343-2번지","category":"문화.취미 - 화원"}]},{"lat":"37.131338132","long":"127.07094442","items":[{"name":"장음악학원","tel":"031-372-5550","addr":"경기도 오산시 갈곶동 270번지 1층","category":"학원 - 예·체능계학원"}]},{"lat":"37.130563877","long":"127.06980712","items":[{"name":"정우에어컨","tel":"","addr":"경기도 오산시 갈곶동 216-2번지","category":"용역 서비스 - 기타용역서비스"}]},{"lat":"37.131564615","long":"127.06878391","items":[{"name":"제이살롱","tel":"031-373-1655","addr":"경기도 오산시 갈곶동 162번지 1층 103호","category":"보건위생 - 미용원"}]},{"lat":"37.130980163","long":"127.06653267","items":[{"name":"제이엠엔터테이먼트(JM Entertainment)","tel":"031-376-4906","addr":"경기도 오산시 갈곶동 171번지","category":"용역 서비스 - 종합용역"}]},{"lat":"37.127728571","long":"127.07971867","items":[{"name":"주식회사 미래정보","tel":"031-373-8479","addr":"경기도 오산시 갈곶동 373번지","category":"사무통신 - 사무용 OA기기"}]},{"lat":"37.133335264","long":"127.07630312","items":[{"name":"주식회사융창상사","tel":"02-3486-3107","addr":"경기도 오산시 갈곶동 324번지","category":"의류 - 정장"}]},{"lat":"37.128059206","long":"127.06936604","items":[{"name":"진로마트","tel":"031-378-5881","addr":"경기도 오산시 갈곶동 234번지","category":"유통업 영리 - 슈퍼마켓"}]},{"lat":"37.131285415","long":"127.06855859","items":[{"name":"카이신중국어교실","tel":"031-373-2888","addr":"경기도 오산시 갈곶동 162-3번지 501호","category":"학원 - 외국어학원"}]},{"lat":"37.132952218","long":"127.06880762","items":[{"name":"카프로모터","tel":"031-375-8009","addr":"경기도 오산시 갈곶동 126-7번지","category":"자동차정비 유지 - 자동차정비"}]},{"lat":"37.130952163","long":"127.06831072","items":[{"name":"코스모스","tel":"031-898-7508","addr":"경기도 오산시 갈곶동 165-3번지 1층","category":"의류 - 정장"}]},{"lat":"37.133308302","long":"127.05978222","items":[{"name":"태성골재","tel":"031-373-3900","addr":"경기도 오산시 갈곶동 7-1번지","category":"건축자재 - 기타건축자재"}]},{"lat":"37.132195524","long":"127.06846935","items":[{"name":"투다리(갈곶점)","tel":"031-374-3888","addr":"경기도 오산시 갈곶동 130-6","category":"일반휴게음식 - 주점"}]},{"lat":"37.132366517","long":"127.06884087","items":[{"name":"투썸플레이스오산갈곶점","tel":"031-377-9047","addr":"경기도 오산시 갈곶동 129-6번지 1-2층","category":"일반휴게음식 - 서양음식"}]},{"lat":"37.130924901","long":"127.06872709","items":[{"name":"티바두마리치킨","tel":"031-378-8293","addr":"경기도 오산시 갈곶동 164-4번지 하나지물백화점 1층","category":"일반휴게음식 - 주점"},{"name":"한입 쪽갈비","tel":"031-374-3868","addr":"경기도 오산시 갈곶동 164-4번지 1층","category":"일반휴게음식 - 일반한식"}]},{"lat":"37.12834022","long":"127.06628289","items":[{"name":"프로시스템","tel":"02-1661-6878","addr":"경기도 오산시 갈곶동 181-14번지 B동 401호","category":"전기제품 - 기타전기제품"}]},{"lat":"37.129327319","long":"127.07346339","items":[{"name":"피오레어린이집[아이행복]","tel":"031-377-4017","addr":"경기도 오산시 갈곶동 715번지 갈곶피오레 101동 102호","category":"학원 - 유아원"}]},{"lat":"37.134655344","long":"127.06855025","items":[{"name":"하늘숲어린이집[아이행복]","tel":"070-4137-5653","addr":"경기도 오산시 갈곶동 704번지 한솔솔파크 101동 104호","category":"학원 - 유아원"}]},{"lat":"37.131391747","long":"127.07172098","items":[{"name":"하얀뜰어린이집","tel":"031-376-1101","addr":"경기도 오산시 갈곶동 273-1","category":"학원 - 유아원"},{"name":"하얀뜰어린이집[아이행복]","tel":"031-376-1101","addr":"경기도 오산시 갈곶동 273-1","category":"학원 - 유아원"}]},{"lat":"37.13270003","long":"127.06861608","items":[{"name":"한돈고집","tel":"031-377-0338","addr":"경기도 오산시 갈곶동 126-12번지","category":"일반휴게음식 - 일반한식"}]},{"lat":"37.135457476","long":"127.06819081","items":[{"name":"한솔어린이집[아이행복]","tel":"031-375-8580","addr":"경기도 오산시 갈곶동 704번지 한솔솔파크 109동 101호","category":"학원 - 유아원"}]},{"lat":"37.126173241","long":"127.07413564","items":[{"name":"한흥철강","tel":"031-377-7070","addr":"경기도 오산시 갈곶동 238번지 3동 101호","category":"건축자재 - 목재·석재·철물"}]},{"lat":"37.131614822","long":"127.0753899","items":[{"name":"해성공조","tel":"031-373-5670","addr":"경기도 오산시 갈곶동 317-15번지","category":"자동차정비 유지 - 자동차부품"}]},{"lat":"37.130978669","long":"127.06925605","items":[{"name":"해와달어린이집[아이행복]","tel":"031-374-8718","addr":"경기도 오산시 갈곶동 159-13번지","category":"학원 - 유아원"}]},{"lat":"37.131978714","long":"127.06947075","items":[{"name":"행복한식당","tel":"031-373-0015","addr":"경기도 오산시 갈곶동 152-14번지","category":"일반휴게음식 - 일반한식"}]},{"lat":"37.133533189","long":"127.06055892","items":[{"name":"현대종합정비","tel":"031-377-6422","addr":"경기도 오산시 갈곶동 3-2번지","category":"자동차정비 유지 - 자동차정비"}]},{"lat":"37.12803367","long":"127.06664274","items":[{"name":"희망주택","tel":"031-375-0388","addr":"경기도 오산시 갈곶동 183번지","category":"용역 서비스 - 부동산 중개·임대"}]}]