[{"lat":"37.726297871","long":"127.05340417","items":[{"name":"(주)남유에프엔씨","tel":"070-8959-3580","addr":"경기도 의정부시 장암동 20-14번지 발곡프라자3 3층 312호","category":"건강식품 - 기타건강식품"},{"name":"178닭한마리","tel":"","addr":"경기도 의정부시 장암동 20-14번지 114호","category":"일반휴게음식 - 일반한식"},{"name":"1번가 옛날통닭","tel":"031-877-7279","addr":"경기도 의정부시 장암동 20-14번지 발곡프라자 지하1층 B11호","category":"일반휴게음식 - 스넥"},{"name":"고블린자전거","tel":"070-8677-5418","addr":"경기도 의정부시 장암동 20-14번지 발곡프라자115호 115호","category":"레져용품 - 스포츠·레져용품"},{"name":"글라스스타","tel":"031-878-9008","addr":"경기도 의정부시 장암동 20-14번지","category":"보건위생 - 안경"},{"name":"금룡","tel":"031-879-5115","addr":"경기도 의정부시 장암동 20-14번지 장암동,발곡프라자 414호","category":"회원제형태 - 기타4"},{"name":"김가네","tel":"031-826-4484","addr":"경기도 의정부시 장암동 20-14번지 발곡프라자 107호","category":"일반휴게음식 - 일반한식"},{"name":"나은동물병원","tel":"031-876-7511","addr":"경기도 의정부시 장암동 20-14번지 발곡프라자 1층 제101호,102호","category":"기타의료기관 - 동물병원"},{"name":"대흥금방","tel":"031-826-6677","addr":"경기도 의정부시 장암동 20-14번지 지하 B15호","category":"신변잡화 - 귀금속"},{"name":"더라인 휘트니스(THE LINE FITNESS)","tel":"031-876-1470","addr":"경기도 의정부시 장암동 20-14번지 발곡프라자 402호","category":"레저업소 - 헬스클럽"},{"name":"듀엣","tel":"031-826-8869","addr":"경기도 의정부시 장암동 20-14번지 발곡프라자 1층 126호","category":"보건위생 - 미용원"},{"name":"듀엣","tel":"","addr":"경기도 의정부시 장암동 20-14번지 1층 126호","category":"보건위생 - 피부미용실"},{"name":"또와 마카롱","tel":"","addr":"경기도 의정부시 장암동 20-14번지 발곡프라자 1층 121호","category":"일반휴게음식 - 서양음식"},{"name":"라인모바일(Line Mobile)","tel":"031-877-1011","addr":"경기도 의정부시 장암동 20-14번지 발곡프라자 지층 9호 비","category":"사무통신 - 통신기기"},{"name":"라임약국","tel":"031-825-1100","addr":"경기도 의정부시 장암동 20-14번지 발곡프라자 109동 110호","category":"약국 - 약국"},{"name":"렛츠네일(Let's Nail)","tel":"031-871-8062","addr":"경기도 의정부시 장암동 20-14번지 발곡프라자 2층 213호","category":"보건위생 - 피부미용실"},{"name":"맑은 한의원","tel":"031-855-7575","addr":"경기도 의정부시 장암동 20-14번지 발곡프라자 1층 120호","category":"의원 - 한의원"},{"name":"멘토수학학원","tel":"031-876-1237","addr":"경기도 의정부시 장암동 20-14번지 211호","category":"학원 - 보습학원"},{"name":"멜라니 플레이스","tel":"","addr":"경기도 의정부시 장암동 20-14번지 발곡프라자 1층 124호","category":"의류 - 정장"},{"name":"발곡서울이비인후과의원","tel":"031-855-0822","addr":"경기도 의정부시 장암동 20-14번지 발곡프라자 2층 207호,208호","category":"의원 - 의원"},{"name":"설렘헤어샬롱","tel":"031-871-7778","addr":"경기도 의정부시 장암동 20-14번지 발곡프라자 2층 205호","category":"보건위생 - 미용원"},{"name":"세상에서가장맛있는삼겹살육꼬집플러스","tel":"031-871-2822","addr":"경기도 의정부시 장암동 20-14번지 116동 118호","category":"일반휴게음식 - 일반한식"},{"name":"셀렉토커피 발곡역점","tel":"031-837-1088","addr":"경기도 의정부시 장암동 20-14번지 발곡프라자 1층 111호","category":"일반휴게음식 - 서양음식"},{"name":"소소아이","tel":"070-7812-0333","addr":"경기도 의정부시 장암동 20-14번지 발곡프라자 122호","category":"신변잡화 - 시계"},{"name":"쎈영수학원","tel":"031-878-4708","addr":"경기도 의정부시 장암동 20-14번지 별곡프라자 3층 309호","category":"학원 - 보습학원"},{"name":"어반도그(Urban Dog)","tel":"031-877-8323","addr":"경기도 의정부시 장암동 20-14번지 1층 113호","category":"문화.취미 - 애완동물"},{"name":"여울목소곱창","tel":"031-877-6951","addr":"경기도 의정부시 장암동 20-14번지 발곡프라자 1층 125호","category":"일반휴게음식 - 일반한식"},{"name":"연세씨엠(CM)수학학원","tel":"031-826-7188","addr":"경기도 의정부시 장암동 20-14번지 발곡프라자 303호","category":"학원 - 보습학원"},{"name":"오늘반찬","tel":"031-826-0089","addr":"경기도 의정부시 장암동 20-14번지 지층 B19호","category":"음료식품 - 기타음료식품"},{"name":"우리국어논술학원","tel":"031-826-0033","addr":"경기도 의정부시 장암동 20-14번지 발곡프라자 412호","category":"회원제형태 - 학원"},{"name":"윤선영언어심리발달센터","tel":"02-6340-5385","addr":"경기도 의정부시 장암동 20-14번지 310호","category":"보건위생 - 기타대인서비스"},{"name":"윤헤어(Yun Hair)","tel":"031-877-1283","addr":"경기도 의정부시 장암동 20-14번지 발곡프라자 122호","category":"보건위생 - 미용원"},{"name":"윤홍영어전문학원","tel":"031-823-9986","addr":"경기도 의정부시 장암동 20-14번지 407호","category":"회원제형태 - 학원"},{"name":"의정부해법학원","tel":"031-877-4800","addr":"경기도 의정부시 장암동 20-14번지 발곡프라자 2층 206호","category":"학원 - 보습학원"},{"name":"이디야커피(발곡프라자점)","tel":"031-826-5085","addr":"경기도 의정부시 장암동 20-14번지 발곡프라자 지층 B16호","category":"일반휴게음식 - 서양음식"},{"name":"이버이버","tel":"031-871-7731","addr":"경기도 의정부시 장암동 20-14번지 112호","category":"의류 - 정장"},{"name":"임플라인치과의원 의정부점","tel":"031-877-2080","addr":"경기도 의정부시 장암동 20-14번지 301,302호","category":"의원 - 치과의원"},{"name":"자연밥상&브런치카페소반","tel":"031-875-6690","addr":"경기도 의정부시 장암동 20-14번지 발곡프라자 110호","category":"일반휴게음식 - 서양음식"},{"name":"장암몬스터영수학원","tel":"031-823-9507","addr":"경기도 의정부시 장암동 20-14번지 발곡프라자 4층 406호","category":"학원 - 보습학원"},{"name":"장암성모병원","tel":"031-877-4230","addr":"경기도 의정부시 장암동 20-14번지 3층 305호 306","category":"의원 - 의원"},{"name":"장현준영어전문학원","tel":"031-877-0414","addr":"경기도 의정부시 장암동 20-14번지 발곡프라자 4층 410호","category":"학원 - 보습학원"},{"name":"조이게임","tel":"","addr":"경기도 의정부시 장암동 20-14번지 발곡프라자 지층 B-12-2호","category":"서적문구 - 완구점"},{"name":"치킨매니아","tel":"031-876-9255","addr":"경기도 의정부시 장암동 20-14번지","category":"일반휴게음식 - 스넥"},{"name":"카페쿠아","tel":"031-879-7608","addr":"경기도 의정부시 장암동 20-14번지 발곡프라자 지층 B20호","category":"일반휴게음식 - 서양음식"},{"name":"큰집닭강정","tel":"031-855-7421","addr":"경기도 의정부시 장암동 20-14번지 발곡프라자 지하1층 B18호","category":"일반휴게음식 - 일반한식"},{"name":"클로이샘영어교습소","tel":"031-842-1272","addr":"경기도 의정부시 장암동 20-14번지 발곡프라자 314호","category":"회원제형태 - 학원"},{"name":"티앤에스 보습학원","tel":"031-879-6888","addr":"경기도 의정부시 장암동 20-14번지 발곡프라자 4층 411호","category":"학원 - 보습학원"},{"name":"팡뜨네","tel":"031-7507-9660","addr":"경기도 의정부시 장암동 20-14번지 발곡프라자 1층 103호","category":"음료식품 - 제과점"},{"name":"펫클럽(장암2호점)","tel":"031-855-1745","addr":"경기도 의정부시 장암동 20-14번지 발곡프라자 1층 108호","category":"문화.취미 - 애완동물"},{"name":"폰쇼핑 장암점","tel":"031-877-2743","addr":"경기도 의정부시 장암동 20-14번지 외3필지발곡프라자 1층 107호","category":"사무통신 - 통신기기"},{"name":"피자애 장암점","tel":"031-872-2200","addr":"경기도 의정부시 장암동 20-14번지 발곡프라자 113호","category":"일반휴게음식 - 서양음식"},{"name":"피자피플","tel":"031-878-9595","addr":"경기도 의정부시 장암동 20-14번지 발곡프라자 8층 9호","category":"일반휴게음식 - 서양음식"},{"name":"해법스마트중국어교습소","tel":"031-875-2888","addr":"경기도 의정부시 장암동 20-14번지 313호","category":"회원제형태 - 학원"},{"name":"호암검도관","tel":"031-855-2671","addr":"경기도 의정부시 장암동 20-14번지 209호,210호","category":"학원 - 예·체능계학원"}]},{"lat":"37.698268449","long":"127.0546551","items":[{"name":"(주)더드림(THE DREAM)","tel":"031-873-9777","addr":"경기도 의정부시 장암동 219-3번지","category":"레져용품 - 스포츠·레져용품"}]},{"lat":"37.698215063","long":"127.05310164","items":[{"name":"(주)명성엠에스","tel":"031-826-7431","addr":"경기도 의정부시 장암동 254-7번지","category":"건축자재 - 기타건축자재"}]},{"lat":"37.708738719","long":"127.05209944","items":[{"name":"(주)베이비플러스 의정부점","tel":"031-876-2800","addr":"경기도 의정부시 장암동 135-41번지","category":"의류 - 아동의류"},{"name":"궁명원","tel":"031-876-0046","addr":"경기도 의정부시 장암동 135-41번지 2층","category":"일반휴게음식 - 중국식"},{"name":"늘봄","tel":"031-872-1598","addr":"경기도 의정부시 장암동 135-41번지 외1필지","category":"일반휴게음식 - 일반한식"},{"name":"파파스차이나","tel":"031-877-8289","addr":"경기도 의정부시 장암동 135-41번지 2층","category":"일반휴게음식 - 중국식"}]},{"lat":"37.706682299","long":"127.05717846","items":[{"name":"(주)숯겹살집","tel":"031-1588-6797","addr":"경기도 의정부시 장암동 99-15번지 2층 103호","category":"용역 서비스 - 사무서비스"},{"name":"무봉리토종순대국","tel":"031-878-6107","addr":"경기도 의정부시 장암동 99-15번지","category":"일반휴게음식 - 일반한식"},{"name":"수락골 남원추어탕","tel":"031-855-5540","addr":"경기도 의정부시 장암동 99-15번지 1층,2층","category":"일반휴게음식 - 일반한식"},{"name":"유림밀면닭칼국수","tel":"031-871-1650","addr":"경기도 의정부시 장암동 99-15번지 장암상가 2층","category":"일반휴게음식 - 일반한식"}]},{"lat":"37.705745079","long":"127.05765406","items":[{"name":"(주)피트","tel":"031-876-4417","addr":"경기도 의정부시 장암동 101번지","category":"용역 서비스 - 사무서비스"}]},{"lat":"37.726270361","long":"127.05451578","items":[{"name":"(주)황제홍삼스파","tel":"031-876-6110","addr":"경기도 의정부시 장암동 20-9번지 장암골드프라자 201호","category":"음료식품 - 기타음료식품"},{"name":"(주)황제홍삼스파","tel":"031-876-6110","addr":"경기도 의정부시 장암동 20-9번지 장암골드프라자 201호","category":"보건위생 - 사우나"},{"name":"개성손만두 요리전문점","tel":"031-878-9977","addr":"경기도 의정부시 장암동 20-9번지 장암골드프라자 108호 ,112,113,111-2호","category":"일반휴게음식 - 일반한식"},{"name":"만덕이가 명가순대국","tel":"031-837-9969","addr":"경기도 의정부시 장암동 20-9번지 골드프라자 104호","category":"일반휴게음식 - 일반한식"},{"name":"면학독서실","tel":"031-876-2336","addr":"경기도 의정부시 장암동 20-9번지 장암골드프라자 3층 304호","category":"학원 - 독서실"},{"name":"미니스톱의정부장암점","tel":"031-1577-9621","addr":"경기도 의정부시 장암동 20-9번지 골드프라자 지층 101호","category":"유통업 영리 - 편 의 점"},{"name":"바다향기","tel":"031-873-5282","addr":"경기도 의정부시 장암동 20-9번지 골드프라자 103호","category":"일반휴게음식 - 일반한식"},{"name":"봄약국","tel":"031-872-0691","addr":"경기도 의정부시 장암동 20-9번지 장암골드프라자 109호","category":"약국 - 약국"},{"name":"서비스119닷컴","tel":"031-871-2077","addr":"경기도 의정부시 장암동 20-9번지 골드프라자 110호","category":"사무통신 - 컴퓨터"},{"name":"서울선치과의원","tel":"031-879-7528","addr":"경기도 의정부시 장암동 20-9번지 골드프라자상가 303호","category":"의원 - 치과의원"},{"name":"세인트폴외괴의원","tel":"031-842-7033","addr":"경기도 의정부시 장암동 20-9번지 2층 203,204호","category":"의원 - 의원"},{"name":"싱그런한내과의원","tel":"031-841-8416","addr":"경기도 의정부시 장암동 20-9번지 장암골드프라자 3층 302호","category":"의원 - 의원"},{"name":"온리원영어교습소","tel":"070-4409-6642","addr":"경기도 의정부시 장암동 20-9번지 골드프라자 1층 106호","category":"회원제형태 - 학원"},{"name":"우리반찬","tel":"031-837-5770","addr":"경기도 의정부시 장암동 20-9번지 골드프라자 105호","category":"음료식품 - 기타음료식품"},{"name":"의정부사랑마루","tel":"031-826-1141","addr":"경기도 의정부시 장암동 20-9번지 골드프라자 4층","category":"기타의료기관 - 기타의료기관 및 기타"},{"name":"이레스파","tel":"","addr":"경기도 의정부시 장암동 20-9번지","category":"보건위생 - 기타대인서비스"},{"name":"이엔아이음악학원","tel":"031-874-7555","addr":"경기도 의정부시 장암동 20-9번지 장암골드프라자 202호","category":"학원 - 예·체능계학원"},{"name":"인테리어 홈펀","tel":"031-840-8232","addr":"경기도 의정부시 장암동 20-9번지 장암골드프라자 1층 101호","category":"건축자재 - 인테리어전문"},{"name":"지혜의숲학원","tel":"031-877-3209","addr":"경기도 의정부시 장암동 20-9번지 장암골드프라자 3층 305호","category":"학원 - 보습학원"},{"name":"행복한고기마을","tel":"031-873-6662","addr":"경기도 의정부시 장암동 20-9번지 골드프라자 B동 101호","category":"음료식품 - 정육점"},{"name":"허준한의원","tel":"031-878-7606","addr":"경기도 의정부시 장암동 20-9번지 골드프라자 3층 301호","category":"의원 - 한의원"},{"name":"헤어바라기","tel":"031-877-4534","addr":"경기도 의정부시 장암동 20-9번지 장암골드프라자 102호","category":"보건위생 - 미용원"}]},{"lat":"37.726015179","long":"127.06078832","items":[{"name":"7단지 수학공부방","tel":"031-878-2506","addr":"경기도 의정부시 장암동 17-32번지 장암주공7단지 705동 104호","category":"학원 - 기타 교육기관"}]},{"lat":"37.690826159","long":"127.05540956","items":[{"name":"CARAUDIODC","tel":"031-836-2272","addr":"경기도 의정부시 장암동 380-3번지","category":"전기제품 - 기타전기제품"},{"name":"레인보우 카시트","tel":"031-874-0606","addr":"경기도 의정부시 장암동 380-3번지 지하1층","category":"자동차정비 유지 - 자동차시트·타이어"}]},{"lat":"37.701737033","long":"127.05492966","items":[{"name":"GS25의정장암IC점","tel":"","addr":"경기도 의정부시 장암동 175-3번지 라동","category":"유통업 영리 - 편 의 점"},{"name":"장암복지카센타","tel":"031-879-6604","addr":"경기도 의정부시 장암동 175-3번지","category":"자동차정비 유지 - 자동차정비"}]},{"lat":"37.726293981","long":"127.06178673","items":[{"name":"GS25장암주공점","tel":"","addr":"경기도 의정부시 장암동 17-33번지 장암주공7단지 상가동 101호","category":"유통업 영리 - 편 의 점"},{"name":"가드락","tel":"031-837-1323","addr":"경기도 의정부시 장암동 17-33번지 장암주공7단지 상가동 1층 103호","category":"수리서비스 - 기타수리서비스"},{"name":"디엔케이홈시큐리티","tel":"070-7559-1324","addr":"경기도 의정부시 장암동 17-33번지 장암주공7단지 상가 103호","category":"건축자재 - 목재·석재·철물"},{"name":"은아미용실","tel":"031-837-3379","addr":"경기도 의정부시 장암동 17-33번지 장암주공7단지 102호 상가","category":"보건위생 - 미용원"}]},{"lat":"37.723990081","long":"127.05643112","items":[{"name":"H헤어","tel":"031-826-4172","addr":"경기도 의정부시 장암동 37-4번지 외1필지장암푸르지오2차상가 101동 102호","category":"보건위생 - 미용원"}]},{"lat":"37.724792272","long":"127.05568307","items":[{"name":"J헤어","tel":"031-872-3690","addr":"경기도 의정부시 장암동 24-1번지","category":"보건위생 - 미용원"},{"name":"경희대 동암태권도","tel":"031-836-7890","addr":"경기도 의정부시 장암동 24-1번지 장암빌딩 2층","category":"학원 - 예·체능계학원"},{"name":"미스터 빈","tel":"031-875-2014","addr":"경기도 의정부시 장암동 24-1번지 1층 좌측","category":"일반휴게음식 - 서양음식"},{"name":"백두산당구장","tel":"031-876-8885","addr":"경기도 의정부시 장암동 24-1번지 장암빌딩 3층","category":"레저업소 - 당 구 장"},{"name":"산텔레콤","tel":"","addr":"경기도 의정부시 장암동 24-1번지 장암빌딩 1층","category":"사무통신 - 통신기기"},{"name":"슈노래연습장","tel":"031-877-0201","addr":"경기도 의정부시 장암동 24-1번지 2층","category":"레저업소 - 노 래 방"},{"name":"아동복쇼핑목무야무야","tel":"070-7814-8544","addr":"경기도 의정부시 장암동 24-1번지 지층","category":"의류 - 아동의류"},{"name":"파리바게뜨","tel":"031-877-8203","addr":"경기도 의정부시 장암동 24-1번지 장암빌딩 1층","category":"음료식품 - 제과점"},{"name":"피씨(PC)나인","tel":"","addr":"경기도 의정부시 장암동 24-1번지 외1필지 지하1층","category":"레저업소 - 기타레져업소"}]},{"lat":"37.725311721","long":"127.06221699","items":[{"name":"SH시스템","tel":"031-1566-5096","addr":"경기도 의정부시 장암동 14-126번지 삼환나우빌 101동 505호","category":"용역 서비스 - 기타용역서비스"}]},{"lat":"37.724348228","long":"127.06115","items":[{"name":"T.Q","tel":"031-851-7433","addr":"경기도 의정부시 장암동 14-27번지 우성 상가 지층 2호","category":"전기제품 - 기타전기제품"},{"name":"미헤어","tel":"031-876-6490","addr":"경기도 의정부시 장암동 14-27번지 상가동 제2층 202-1호","category":"보건위생 - 미용원"},{"name":"스타공인중개사사무소","tel":"031-879-4901","addr":"경기도 의정부시 장암동 14-27번지 우성상가 107호","category":"용역 서비스 - 부동산 중개·임대"},{"name":"아모르샵","tel":"","addr":"경기도 의정부시 장암동 14-27번지 제상가동 204-2호","category":"의류 - 내의판매"}]},{"lat":"37.699494264","long":"127.05348803","items":[{"name":"yes자재","tel":"070-8864-8553","addr":"경기도 의정부시 장암동 244-6번지","category":"신변잡화 - 기타잡화"}]},{"lat":"37.701709054","long":"127.05703876","items":[{"name":"가람화원","tel":"031-879-4168","addr":"경기도 의정부시 장암동 192-4번지","category":"문화.취미 - 화원"},{"name":"갑산원","tel":"031-876-8988","addr":"경기도 의정부시 장암동 192-4번지","category":"문화.취미 - 화원"},{"name":"다솔화원","tel":"031-871-0118","addr":"경기도 의정부시 장암동 192-4번지 장암화훼단지 193-1","category":"문화.취미 - 화원"},{"name":"다육산방","tel":"031-837-4653","addr":"경기도 의정부시 장암동 192-4번지","category":"문화.취미 - 화원"},{"name":"딸기네다육마당","tel":"031-878-0305","addr":"경기도 의정부시 장암동 192-4번지","category":"문화.취미 - 화원"},{"name":"복성꽃농원","tel":"031-874-4988","addr":"경기도 의정부시 장암동 192-4번지","category":"문화.취미 - 화원"},{"name":"상록수화원","tel":"031-873-1615","addr":"경기도 의정부시 장암동 192-4번지 외2필지","category":"문화.취미 - 화원"},{"name":"야생초 이야기","tel":"031-839-6787","addr":"경기도 의정부시 장암동 192-4번지","category":"문화.취미 - 화원"},{"name":"의정부조경","tel":"031-876-0707","addr":"경기도 의정부시 장암동 192-4번지","category":"문화.취미 - 화원"},{"name":"작은풍경","tel":"031-876-2744","addr":"경기도 의정부시 장암동 192-4번지","category":"문화.취미 - 화원"},{"name":"제주돌문화","tel":"031-826-6060","addr":"경기도 의정부시 장암동 192-4번지","category":"문화.취미 - 화원"},{"name":"지산원","tel":"031-872-0809","addr":"경기도 의정부시 장암동 192-4번지","category":"문화.취미 - 화원"},{"name":"진달래꽃화원","tel":"031-874-2190","addr":"경기도 의정부시 장암동 192-4번지","category":"문화.취미 - 화원"},{"name":"케이가든","tel":"031-872-1737","addr":"경기도 의정부시 장암동 192-4번지 외2필지","category":"문화.취미 - 화원"},{"name":"해성농원","tel":"031-876-3055","addr":"경기도 의정부시 장암동 192-4번지","category":"문화.취미 - 화원"},{"name":"훈이네꽃집","tel":"031-1111-1111","addr":"경기도 의정부시 장암동 192-4번지 외2필지","category":"문화.취미 - 화원"}]},{"lat":"37.724963368","long":"127.05587602","items":[{"name":"경기떡집","tel":"031-826-0701","addr":"경기도 의정부시 장암동 26-6번지","category":"음료식품 - 제과점"},{"name":"유니아트미술학원","tel":"070-4048-0507","addr":"경기도 의정부시 장암동 26-6번지 2층","category":"학원 - 예·체능계학원"},{"name":"해피헤어","tel":"031-876-8877","addr":"경기도 의정부시 장암동 26-6번지","category":"보건위생 - 미용원"}]},{"lat":"37.725179674","long":"127.05570603","items":[{"name":"고고점핑다이어트","tel":"031-861-8832","addr":"경기도 의정부시 장암동 17-8번지 3층","category":"레저업소 - 헬스클럽"},{"name":"샤갈의즐거운상상","tel":"031-871-8009","addr":"경기도 의정부시 장암동 17-8번지 2층","category":"학원 - 예·체능계학원"},{"name":"열공학원","tel":"031-878-0715","addr":"경기도 의정부시 장암동 17-8 2층","category":"학원 - 보습학원"},{"name":"장암최강체육관","tel":"031-872-8454","addr":"경기도 의정부시 장암동 17-8 ,9 3층","category":"학원 - 예·체능계학원"},{"name":"훌랄라치킨바베큐","tel":"031-836-8644","addr":"경기도 의정부시 장암동 17-8번지 외1필지지상 1층","category":"일반휴게음식 - 주점"}]},{"lat":"37.724873046","long":"127.05637505","items":[{"name":"골목0620","tel":"070-7569-3722","addr":"경기도 의정부시 장암동 26-11번지 1층 지상 1층","category":"일반휴게음식 - 서양음식"},{"name":"화이트 옷 수선집","tel":"031-1111-1111","addr":"경기도 의정부시 장암동 26-11번지","category":"수리서비스 - 세탁소"}]},{"lat":"37.699682885","long":"127.05482617","items":[{"name":"골프사랑","tel":"031-872-7288","addr":"경기도 의정부시 장암동 214-21번지 1층","category":"레져용품 - 골프용품 전문점"}]},{"lat":"37.707743634","long":"127.06095555","items":[{"name":"공주집","tel":"031-874-4133","addr":"경기도 의정부시 장암동 97-50번지 1층","category":"일반휴게음식 - 일반한식"}]},{"lat":"37.699827371","long":"127.05406655","items":[{"name":"굿쿼테이션서비스","tel":"031-572-6327","addr":"경기도 의정부시 장암동 160-9번지 마니와빌딩","category":"건축자재 - 기타건축자재"},{"name":"로셀(Laussel) 김이윤 산전산후 홈케어","tel":"","addr":"경기도 의정부시 장암동 160-9번지 마니와빌딩 2층","category":"보건위생 - 기타대인서비스"},{"name":"백두설렁탕","tel":"031-872-6653","addr":"경기도 의정부시 장암동 160-9번지 마니와빌딩 1층","category":"일반휴게음식 - 일반한식"},{"name":"세진과학","tel":"070-4530-1312","addr":"경기도 의정부시 장암동 160-9번지 마니와빌딩 2층 A09호","category":"서적문구 - 과학기자재"},{"name":"씨앤에스테크(주)","tel":"031-221-2005","addr":"경기도 의정부시 장암동 160-9번지 마니와빌딩 12호","category":"자동차정비 유지 - 자동차부품"},{"name":"아츠팩토리","tel":"02-3477-1995","addr":"경기도 의정부시 장암동 160-9번지 마니와빌딩","category":"용역 서비스 - 종합용역"},{"name":"정다운오피스","tel":"031-879-5052","addr":"경기도 의정부시 장암동 160-9번지 마니와빌딩 2층 B5호","category":"사무통신 - 기타 사무용품"},{"name":"주식회사 더캄","tel":"031-879-5052","addr":"경기도 의정부시 장암동 160-9번지 마니와빌딩 2층 216호","category":"의류 - 정장"},{"name":"주식회사 비즈피스","tel":"031-879-5052","addr":"경기도 의정부시 장암동 160-9번지 2층","category":"용역 서비스 - 부동산 중개·임대"}]},{"lat":"37.707987659","long":"127.05937944","items":[{"name":"김미미 도예 공방","tel":"031-837-3072","addr":"경기도 의정부시 장암동 97-14번지","category":"문화.취미 - 문화취미기타"}]},{"lat":"37.705573975","long":"127.05748383","items":[{"name":"김여사드라이브","tel":"031-879-9966","addr":"경기도 의정부시 장암동 117-1번지 B동","category":"자동차정비 유지 - 자동차부품"},{"name":"두부마을양반밥상","tel":"031-877-8295","addr":"경기도 의정부시 장암동 117-1","category":"일반휴게음식 - 일반한식"},{"name":"주식회사제일산업개발","tel":"031-837-8677","addr":"경기도 의정부시 장암동 117-1","category":"레져용품 - 스포츠·레져용품"}]},{"lat":"37.699241814","long":"127.0539074","items":[{"name":"까스텔바작","tel":"","addr":"경기도 의정부시 장암동 243-1번지 나동 1층","category":"의류 - 스포츠의류"},{"name":"한국아이템디자인연구소","tel":"031-873-7855","addr":"경기도 의정부시 장암동 243-1번지 가동,나동","category":"학원 - 기타 교육기관"}]},{"lat":"37.722519782","long":"127.06012774","items":[{"name":"꽃다지","tel":"031-872-5780","addr":"경기도 의정부시 장암동 산13-5번지","category":"문화.취미 - 화원"},{"name":"인터내셔널모스토피아","tel":"031-875-8757","addr":"경기도 의정부시 장암동 산13-5번지","category":"건축자재 - 인테리어전문"},{"name":"중앙화원","tel":"031-846-1577","addr":"경기도 의정부시 장암동 산13-5번지","category":"문화.취미 - 화원"}]},{"lat":"37.694880448","long":"127.05551446","items":[{"name":"나들목화분","tel":"031-829-2121","addr":"경기도 의정부시 장암동 350-4,9,32","category":"문화.취미 - 화원"}]},{"lat":"37.721961066","long":"127.06037684","items":[{"name":"나라플라워","tel":"031-826-0038","addr":"경기도 의정부시 장암동 산15-11번지","category":"문화.취미 - 화원"},{"name":"루시","tel":"070-4799-2800","addr":"경기도 의정부시 장암동 산15-11번지 1층","category":"신변잡화 - 기타잡화"},{"name":"루시플라워","tel":"","addr":"경기도 의정부시 장암동 산15-11번지","category":"문화.취미 - 화원"},{"name":"산야초","tel":"031-876-5952","addr":"경기도 의정부시 장암동 산15-11번지","category":"문화.취미 - 화원"},{"name":"의정부화원","tel":"031-829-5667","addr":"경기도 의정부시 장암동 산15-11번지","category":"문화.취미 - 화원"},{"name":"작은숲","tel":"031-837-8376","addr":"경기도 의정부시 장암동 산15-11번지 세송이플라워","category":"문화.취미 - 화원"}]},{"lat":"37.724909523","long":"127.05539958","items":[{"name":"낙지집","tel":"031-874-0454","addr":"경기도 의정부시 장암동 19-5번지 1층","category":"일반휴게음식 - 일반한식"},{"name":"아야(Aya)","tel":"031-877-4308","addr":"경기도 의정부시 장암동 19-5번지 1층 외1필지","category":"일반휴게음식 - 일반한식"},{"name":"장암삼성영어학원","tel":"031-826-9950","addr":"경기도 의정부시 장암동 19-5번지 2층","category":"학원 - 외국어학원"}]},{"lat":"37.708014742","long":"127.05926605","items":[{"name":"내고향식당","tel":"031-872-2684","addr":"경기도 의정부시 장암동 97-13번지","category":"일반휴게음식 - 일반한식"}]},{"lat":"37.699376647","long":"127.05462186","items":[{"name":"내비앤블랙","tel":"02-3492-8400","addr":"경기도 의정부시 장암동 214-14번지 102호","category":"자동차정비 유지 - 자동차부품"}]},{"lat":"37.724792109","long":"127.05604604","items":[{"name":"네일앤젤(Nail n gel)","tel":"031-855-6441","addr":"경기도 의정부시 장암동 26-9번지 태진아트홈 1층","category":"보건위생 - 화장품"},{"name":"한돈","tel":"031-855-7685","addr":"경기도 의정부시 장암동 26-9번지 1층","category":"일반휴게음식 - 일반한식"}]},{"lat":"37.70240918","long":"127.06248222","items":[{"name":"노강산장","tel":"031-872-9845","addr":"경기도 의정부시 장암동 산146-1","category":"음료식품 - 기타음료식품"},{"name":"산골산장","tel":"031-829-7737","addr":"경기도 의정부시 장암동 산146-1번지","category":"음료식품 - 기타음료식품"}]},{"lat":"37.706961581","long":"127.05721269","items":[{"name":"농협또래오래 강북지사","tel":"02-3493-5999","addr":"경기도 의정부시 장암동 99-12번지","category":"용역 서비스 - 종합용역"}]},{"lat":"37.699186449","long":"127.05684416","items":[{"name":"느티나무","tel":"031-876-3090","addr":"경기도 의정부시 장암동 207-20번지","category":"일반휴게음식 - 일반한식"}]},{"lat":"37.699294704","long":"127.05653809","items":[{"name":"느티나무슈퍼","tel":"031-876-3090","addr":"경기도 의정부시 장암동 209-16번지","category":"음료식품 - 기타음료식품"}]},{"lat":"37.690808625","long":"127.05430978","items":[{"name":"다성유통","tel":"031-3392-3662","addr":"경기도 의정부시 장암동 412번지 수락리버시티2단지 204동 704호","category":"회원제형태 - 기타4"}]},{"lat":"37.702546729","long":"127.05751563","items":[{"name":"다스 다육갤러리","tel":"","addr":"경기도 의정부시 장암동 198번지","category":"문화.취미 - 화원"}]},{"lat":"37.725377834","long":"127.0558196","items":[{"name":"닭발상회","tel":"031-877-9979","addr":"경기도 의정부시 장암동 17-15번지 대현빌딩 109호","category":"일반휴게음식 - 일반한식"},{"name":"라온헤어","tel":"070-7728-1442","addr":"경기도 의정부시 장암동 17-15번지 대현빌딩 1층 107호","category":"보건위생 - 미용원"},{"name":"싱싱한의원","tel":"031-855-7553","addr":"경기도 의정부시 장암동 17-15번지 대현건물 202호","category":"의원 - 한의원"},{"name":"우리의원","tel":"031-879-0120","addr":"경기도 의정부시 장암동 17-15번지 대현빌딩 201호","category":"의원 - 의원"},{"name":"유니온 스토리 영어수학학원","tel":"031-876-0595","addr":"경기도 의정부시 장암동 17-15번지 3층","category":"학원 - 보습학원"},{"name":"장암꽈배기","tel":"031-928-5845","addr":"경기도 의정부시 장암동 17-15번지 대현빌딩 104호","category":"일반휴게음식 - 일반한식"},{"name":"크린토피아","tel":"031-836-2846","addr":"경기도 의정부시 장암동 17-15번지 대현빌딩 108호","category":"수리서비스 - 세탁소"}]},{"lat":"37.726212004","long":"127.06354485","items":[{"name":"대광카에어콘","tel":"031-874-2041","addr":"경기도 의정부시 장암동 14-78번지","category":"자동차정비 유지 - 자동차부품"},{"name":"데굴데굴타이어","tel":"031-877-2234","addr":"경기도 의정부시 장암동 14-78번지","category":"자동차정비 유지 - 자동차시트·타이어"}]},{"lat":"37.725152446","long":"127.05614839","items":[{"name":"대구유통","tel":"031-846-4788","addr":"경기도 의정부시 장암동 17-17번지","category":"음료식품 - 농·축·수산품"},{"name":"도로시","tel":"031-852-6913","addr":"경기도 의정부시 장암동 17-17번지 동막골종합상가 102동 1502호","category":"음료식품 - 기타음료식품"},{"name":"돈마지","tel":"031-855-0888","addr":"경기도 의정부시 장암동 17-17","category":"일반휴게음식 - 일반한식"},{"name":"명진닭집","tel":"031-872-5605","addr":"경기도 의정부시 장암동 17-17.1층","category":"음료식품 - 농·축·수산품"},{"name":"뮤엠영어교습소","tel":"031-824-3756","addr":"경기도 의정부시 장암동 17-17번지 피카소의꿈 A동 1층 일부","category":"학원 - 외국어학원"},{"name":"반찬친구","tel":"031-878-7984","addr":"경기도 의정부시 장암동 17-17번지 장암종합재래시장 A동 8호","category":"음료식품 - 기타음료식품"},{"name":"소돌곱창구이","tel":"031-878-5288","addr":"경기도 의정부시 장암동 17-17번지 피카소의꿈 B동 1층","category":"일반휴게음식 - 일반한식"},{"name":"시장방아간","tel":"031-872-5555","addr":"경기도 의정부시 장암동 17-17번지 장암종합 상가","category":"음료식품 - 제과점"},{"name":"오예스(oh-yes)포차","tel":"031-111-1111","addr":"경기도 의정부시 장암동 17-17번지 장암종합재래시장 A동 1층","category":"일반휴게음식 - 주점"},{"name":"유경갈비","tel":"031-836-5255","addr":"경기도 의정부시 장암동 17-17번지 장암종합재래시장 A동 2층 3호","category":"일반휴게음식 - 일반한식"},{"name":"의정부닭발","tel":"031-826-2324","addr":"경기도 의정부시 장암동 17-17번지 장암종합재래시장 A동 1층","category":"일반휴게음식 - 일반한식"},{"name":"전주영양탕","tel":"031-877-8823","addr":"경기도 의정부시 장암동 17-17번지 장암종합재래시장 A동 1층","category":"일반휴게음식 - 일반한식"}]},{"lat":"37.703628087","long":"127.05707418","items":[{"name":"대명","tel":"","addr":"경기도 의정부시 장암동 126번지","category":"용역 서비스 - 종합용역"}]},{"lat":"37.698187412","long":"127.05454166","items":[{"name":"대박","tel":"031-873-3235","addr":"경기도 의정부시 장암동 219-4번지","category":"음료식품 - 기타음료식품"},{"name":"모노마트 의정부점","tel":"031-871-1231","addr":"경기도 의정부시 장암동 219-4번지 1층","category":"유통업 영리 - 슈퍼마켓"}]},{"lat":"37.723351036","long":"127.05501283","items":[{"name":"대우세탁소","tel":"031-878-9476","addr":"경기도 의정부시 장암동 37 대우프르지오상가 103호","category":"수리서비스 - 세탁소"},{"name":"씨유장암대우점","tel":"080-080-3663","addr":"경기도 의정부시 장암동 37번지 장암1차푸르지오 상가동 105, 106호","category":"유통업 영리 - 편 의 점"}]},{"lat":"37.726294615","long":"127.06050496","items":[{"name":"더겐스포츠","tel":"031-572-4242","addr":"경기도 의정부시 장암동 17-32번지 장암주공7단지 707동 1102호","category":"레져용품 - 스포츠·레져용품"}]},{"lat":"37.68974601","long":"127.05309593","items":[{"name":"더오름교육","tel":"070-8941-4347","addr":"경기도 의정부시 장암동 413번지 수락리버시티1단지 상가 205호","category":"서적문구 - 일반서적"},{"name":"숲속음악교습소","tel":"02-933-7729","addr":"경기도 의정부시 장암동 413번지 수락리버시티1단지 상가동 1층 104호","category":"학원 - 예·체능계학원"}]},{"lat":"37.701493511","long":"127.05551913","items":[{"name":"동심원잔디","tel":"031-876-0707","addr":"경기도 의정부시 장암동 180-1","category":"문화.취미 - 화원"}]},{"lat":"37.725045349","long":"127.0538457","items":[{"name":"동아수영장","tel":"031-836-4844","addr":"경기도 의정부시 장암동 20","category":"회원제형태 - 레져업소"},{"name":"미스킨앤바디","tel":"031-671-2489","addr":"경기도 의정부시 장암동 20번지 장암동아아파트 상가동 201호","category":"회원제형태 - 기타4"},{"name":"미스파마","tel":"031-878-3624","addr":"경기도 의정부시 장암동 20번지 동아상가 2-202호","category":"보건위생 - 미용원"}]},{"lat":"37.707771736","long":"127.05873288","items":[{"name":"두리목재","tel":"031-876-4400","addr":"경기도 의정부시 장암동 97-66번지","category":"건축자재 - 목재·석재·철물"}]},{"lat":"37.696711279","long":"127.05112771","items":[{"name":"두성가설재 주식회사","tel":"031-876-7749","addr":"경기도 의정부시 장암동 273-3번지","category":"건축자재 - 기타건축자재"}]},{"lat":"37.701187541","long":"127.05471383","items":[{"name":"들길따라서","tel":"031-875-2990","addr":"경기도 의정부시 장암동 177-1번지","category":"문화.취미 - 화원"}]},{"lat":"37.723658122","long":"127.05326627","items":[{"name":"로이드밤 롯데마트장암점","tel":"031-877-0377","addr":"경기도 의정부시 장암동 38-10번지 3층","category":"보건위생 - 미용원"},{"name":"르망안경","tel":"031-872-0337","addr":"경기도 의정부시 장암동 38-10번지 롯데마트장암지상","category":"보건위생 - 안경"},{"name":"미플(스킨살롱)","tel":"031-826-2528","addr":"경기도 의정부시 장암동 38-10번지 롯데마트장암점","category":"회원제형태 - 기타4"},{"name":"블럭버스 장안점","tel":"031-837-0246","addr":"경기도 의정부시 장암동 38-10번지 3층","category":"레저업소 - 기타레져업소"},{"name":"소나무약국","tel":"070-4214-3902","addr":"경기도 의정부시 장암동 38-10번지 롯데마트장암점 2층","category":"약국 - 약국"},{"name":"이윤정쑥쑥소아청소년과","tel":"031-829-0026","addr":"경기도 의정부시 장암동 38-10번지 롯데마트 3층","category":"회원제형태 - 건강식품"},{"name":"이윤정쑥쑥소아청소년과의원","tel":"031-829-0026","addr":"경기도 의정부시 장암동 38-10번지 3층","category":"의원 - 의원"},{"name":"전국열쇠 롯데마트 장암점","tel":"031-872-1304","addr":"경기도 의정부시 장암동 38-10번지 2층 열쇠도장코너 롯데마트장암점","category":"건축자재 - 목재·석재·철물"},{"name":"크린토피아","tel":"031-871-8977","addr":"경기도 의정부시 장암동 38-10번지","category":"수리서비스 - 세탁소"},{"name":"클린조이주식회사장암점","tel":"031-877-3341","addr":"경기도 의정부시 장암동 38-10번지 1층 스팀세차코너","category":"자동차정비 유지 - 세차장"}]},{"lat":"37.689934818","long":"127.0540144","items":[{"name":"롤뜨개&편집샵","tel":"02-952-3013","addr":"경기도 의정부시 장암동 412번지 수락리버시티2단지 상가 101호","category":"직물 - 침구·수예점"},{"name":"바가지머리","tel":"02-952-5665","addr":"경기도 의정부시 장암동 412수락리버시티2단지상가 204","category":"보건위생 - 미용원"},{"name":"안지민헤어샵","tel":"02-3392-3999","addr":"경기도 의정부시 장암동 412번지 수락리버시티2단지 1층 102호","category":"보건위생 - 미용원"},{"name":"예원시티공인중개사사무소","tel":"02-934-8924","addr":"경기도 의정부시 장암동 412수락리버시티2단지상가동102호","category":"용역 서비스 - 부동산 중개·임대"},{"name":"유니팝미술교습소","tel":"","addr":"경기도 의정부시 장암동 412번지 수락리버시티2단지 상가동 2층 202호","category":"학원 - 예·체능계학원"},{"name":"치킨매니아수락리버시티점","tel":"02-952-5992","addr":"경기도 의정부시 장암동 412번지 수락리버시티2단지 103호","category":"일반휴게음식 - 스넥"},{"name":"피아노마스터음악교습소","tel":"02-932-5267","addr":"경기도 의정부시 장암동 412번지 수락리버시티2단지 상가 201호","category":"학원 - 예·체능계학원"}]},{"lat":"37.691772014","long":"127.0557617","items":[{"name":"매월정","tel":"031-871-4588","addr":"경기도 의정부시 장암동 380-44번지 1층2층","category":"일반휴게음식 - 일반한식"}]},{"lat":"37.698879762","long":"127.05762633","items":[{"name":"명가오리숯불구이","tel":"031-855-9277","addr":"경기도 의정부시 장암동 207-9번지 1층","category":"일반휴게음식 - 일반한식"}]},{"lat":"37.707321421","long":"127.05838099","items":[{"name":"모네의정원","tel":"031-877-8930","addr":"경기도 의정부시 장암동 97-39번지","category":"문화.취미 - 화원"}]},{"lat":"37.707546614","long":"127.05848322","items":[{"name":"무아피씽","tel":"031-866-7777","addr":"경기도 의정부시 장암동 97-65번지","category":"레져용품 - 스포츠·레져용품"},{"name":"진달래화원","tel":"031-873-1419","addr":"경기도 의정부시 장암동 97-65번지 외1필지","category":"문화.취미 - 화원"}]},{"lat":"37.724710976","long":"127.05614807","items":[{"name":"문혜경 헤어아트","tel":"031-876-6315","addr":"경기도 의정부시 장암동 26-13번지 2층","category":"보건위생 - 미용원"},{"name":"부어치킨 장암점","tel":"031-875-3746","addr":"경기도 의정부시 장암동 26-13번지","category":"일반휴게음식 - 주점"},{"name":"은지애견","tel":"031-837-8979","addr":"경기도 의정부시 장암동 26-13번지","category":"문화.취미 - 애완동물"}]},{"lat":"37.726014485","long":"127.06218352","items":[{"name":"바다전기조명","tel":"02-975-6676","addr":"경기도 의정부시 장암동 17-32번지 장암주공7단지 702동 1704호","category":"회원제형태 - 기타2"},{"name":"키즈유토피아","tel":"","addr":"경기도 의정부시 장암동 17-32번지 장암주공7단지 702동 1005호","category":"학원 - 예·체능계학원"}]},{"lat":"37.725269719","long":"127.05581953","items":[{"name":"바하어드벤처음악학원","tel":"031-827-3670","addr":"경기도 의정부시 장암동 17-7번지 2층","category":"학원 - 예·체능계학원"}]},{"lat":"37.699078052","long":"127.05745639","items":[{"name":"밤나무집","tel":"031-872-8549","addr":"경기도 의정부시 장암동 207-1번지 1층","category":"일반휴게음식 - 일반한식"},{"name":"장암골","tel":"031-873-5959","addr":"경기도 의정부시 장암동 207-1번지 1층","category":"일반휴게음식 - 일반한식"}]},{"lat":"37.707077888","long":"127.05895916","items":[{"name":"베일리수","tel":"","addr":"경기도 의정부시 장암동 99-19번지","category":"광학제품 - 사진관"}]},{"lat":"37.691934147","long":"127.05585251","items":[{"name":"블룸(BLOOM)","tel":"031-851-8700","addr":"경기도 의정부시 장암동 380-42번지 2층","category":"신변잡화 - 기타잡화"}]},{"lat":"37.70076618","long":"127.04971294","items":[{"name":"산들야생화","tel":"031-876-7967","addr":"경기도 의정부시 장암동 299-1번지","category":"문화.취미 - 화원"}]},{"lat":"37.709378538","long":"127.05177099","items":[{"name":"삼오칼국수","tel":"031-826-7788","addr":"경기도 의정부시 장암동 135-34번지 ,1,2층","category":"일반휴게음식 - 일반한식"}]},{"lat":"37.695799702","long":"127.05490283","items":[{"name":"상일가구","tel":"031-826-2808","addr":"경기도 의정부시 장암동 221-6번지","category":"가구 - 일반가구"}]},{"lat":"37.696908297","long":"127.0539625","items":[{"name":"샘소나이트장암점","tel":"031-852-0204","addr":"경기도 의정부시 장암동 348-10번지 1층","category":"레져용품 - 스포츠·레져용품"}]},{"lat":"37.706049382","long":"127.06185009","items":[{"name":"서울승마클럽","tel":"031-872-2700","addr":"경기도 의정부시 장암동 98-1번지","category":"레저업소 - 기타레져업소"},{"name":"서울승마클럽","tel":"031-872-2700","addr":"경기도 의정부시 장암동 98-1번지 2층","category":"레저업소 - 기타레져업소"}]},{"lat":"37.702376545","long":"127.05531565","items":[{"name":"선희꽃화원","tel":"031-829-4055","addr":"경기도 의정부시 장암동 181-4번지 1층","category":"문화.취미 - 화원"},{"name":"우리도재","tel":"02-974-8311","addr":"경기도 의정부시 장암동 181-4번지","category":"기타 - 기타 전문점"},{"name":"플로라","tel":"031-871-7807","addr":"경기도 의정부시 장암동 181-4번지 2호집","category":"문화.취미 - 화원"},{"name":"향원이네다육","tel":"","addr":"경기도 의정부시 장암동 181-4번지","category":"문화.취미 - 화원"}]},{"lat":"37.725296824","long":"127.0556494","items":[{"name":"세리노래연습장","tel":"031-871-3436","addr":"경기도 의정부시 장암동 17-11번지 2층","category":"레저업소 - 노 래 방"},{"name":"육곳간","tel":"031-877-0677","addr":"경기도 의정부시 장암동 17-11번지 1층","category":"음료식품 - 정육점"}]},{"lat":"37.722348572","long":"127.06018432","items":[{"name":"세송이","tel":"031-872-7226","addr":"경기도 의정부시 장암동 산13-1","category":"문화.취미 - 화원"},{"name":"예란꽃방","tel":"031-837-0155","addr":"경기도 의정부시 장암동 산13-1","category":"문화.취미 - 화원"}]},{"lat":"37.699213551","long":"127.05668544","items":[{"name":"송산","tel":"031-877-4902","addr":"경기도 의정부시 장암동 209-17번지","category":"일반휴게음식 - 일반한식"},{"name":"송산편의점","tel":"031-877-4902","addr":"경기도 의정부시 장암동 209-17번지","category":"유통업 영리 - 편 의 점"}]},{"lat":"37.699628199","long":"127.05623218","items":[{"name":"수다하우스","tel":"031-855-4152","addr":"경기도 의정부시 장암동 211번지 1층","category":"유통업 영리 - 슈퍼마켓"}]},{"lat":"37.699745867","long":"127.05501898","items":[{"name":"수락산숯불닭갈비","tel":"031-875-3455","addr":"경기도 의정부시 장암동 212-3번지 1층","category":"일반휴게음식 - 일반한식"}]},{"lat":"37.699518271","long":"127.06009871","items":[{"name":"수락산장","tel":"031-873-4089","addr":"경기도 의정부시 장암동 202-1번지 나동","category":"일반휴게음식 - 일반한식"}]},{"lat":"37.707293864","long":"127.05949231","items":[{"name":"수락산편백원","tel":"031-876-0004","addr":"경기도 의정부시 장암동 97-22번지","category":"보건위생 - 사우나"},{"name":"오혜숙 생활단식 홍익지사","tel":"031-829-5897","addr":"경기도 의정부시 장암동 97-22번지","category":"건강식품 - 기타건강식품"},{"name":"오혜숙생활단식솔향지사","tel":"070-4406-0005","addr":"경기도 의정부시 장암동 97-22번지","category":"건강식품 - 기타건강식품"}]},{"lat":"37.699466072","long":"127.05613001","items":[{"name":"수락상회","tel":"000-000-0000","addr":"경기도 의정부시 장암동 210-8번지","category":"음료식품 - 기타음료식품"}]},{"lat":"37.707628166","long":"127.05748534","items":[{"name":"수락정","tel":"031-826-6100","addr":"경기도 의정부시 장암동 90-13","category":"일반휴게음식 - 일반한식"}]},{"lat":"37.724998215","long":"127.05846223","items":[{"name":"순희산약초","tel":"031-872-5908","addr":"경기도 의정부시 장암동 5번지 장암1단지주공.장암2단지주공아파트 205동 1405호","category":"음료식품 - 농·축·수산품"}]},{"lat":"37.698547517","long":"127.05517688","items":[{"name":"신대동공사","tel":"031-829-2277","addr":"경기도 의정부시 장암동 212-24,219-3","category":"기타 - 기타 전문점"}]},{"lat":"37.7237928","long":"127.05434392","items":[{"name":"신한종합기획","tel":"02-908-1985","addr":"경기도 의정부시 장암동 37번지 의정부장암1차푸르지오 101동 905호","category":"용역 서비스 - 종합용역"}]},{"lat":"37.699132578","long":"127.05643592","items":[{"name":"싸다유통","tel":"031-837-7110","addr":"경기도 의정부시 장암동 209-11번지","category":"음료식품 - 농·축·수산품"}]},{"lat":"37.699800293","long":"127.05417993","items":[{"name":"씨유의정부장암역점","tel":"031-878-6392","addr":"경기도 의정부시 장암동 160-2번지","category":"유통업 영리 - 편 의 점"},{"name":"착한식당","tel":"070-8849-4213","addr":"경기도 의정부시 장암동 160-2번지","category":"일반휴게음식 - 일반한식"}]},{"lat":"37.724014233","long":"127.06243147","items":[{"name":"씨크릿가든","tel":"031-837-2007","addr":"경기도 의정부시 장암동 14-114번지","category":"문화.취미 - 화원"},{"name":"캠프306부대찌개","tel":"031-837-2007","addr":"경기도 의정부시 장암동 14-114번지","category":"일반휴게음식 - 서양음식"}]},{"lat":"37.704493088","long":"127.05690471","items":[{"name":"아이들세상","tel":"031-851-7790","addr":"경기도 의정부시 장암동 130-5번지 지층,1층","category":"서적문구 - 완구점"}]},{"lat":"37.698574811","long":"127.05457594","items":[{"name":"에스티코 의정부아이씨지점","tel":"031-879-6315","addr":"경기도 의정부시 장암동 214-12번지","category":"의류 - 스포츠의류"}]},{"lat":"37.723492861","long":"127.06003774","items":[{"name":"연세장암태권스쿨","tel":"031-826-8733","addr":"경기도 의정부시 장암동 14-13번지 주공2단지상가동지 지하층","category":"학원 - 예·체능계학원"}]},{"lat":"37.725206849","long":"127.05537711","items":[{"name":"연인테리어","tel":"031-874-3040","addr":"경기도 의정부시 장암동 19-1번지","category":"직물 - 카페트,커튼,천막,지물"},{"name":"장암보수","tel":"031-876-7774","addr":"경기도 의정부시 장암동 19-1번지","category":"전기제품 - 가전제품"}]},{"lat":"37.706934489","long":"127.05734875","items":[{"name":"연정","tel":"031-874-6868","addr":"경기도 의정부시 장암동 99-13번지","category":"일반휴게음식 - 중국식"}]},{"lat":"37.705239809","long":"127.05920725","items":[{"name":"오크힐빵공장","tel":"031-876-3654","addr":"경기도 의정부시 장암동 102-9번지 1층","category":"일반휴게음식 - 서양음식"}]},{"lat":"37.700493332","long":"127.05576789","items":[{"name":"우리나라","tel":"031-000-0000","addr":"경기도 의정부시 장암동 179-20번지","category":"일반휴게음식 - 일반한식"}]},{"lat":"37.706016625","long":"127.05487595","items":[{"name":"우리땅갈비","tel":"031-877-9293","addr":"경기도 의정부시 장암동 118-4번지","category":"일반휴게음식 - 일반한식"}]},{"lat":"37.698574222","long":"127.05590259","items":[{"name":"우정상사","tel":"031-829-7840","addr":"경기도 의정부시 장암동 213번지","category":"별도관리 - 자체물품대금"},{"name":"원앤컴퍼니","tel":"070-4680-3377","addr":"경기도 의정부시 장암동 213번지 1층","category":"레져용품 - 스포츠·레져용품"}]},{"lat":"37.707375871","long":"127.05754185","items":[{"name":"웰쿡프라임","tel":"","addr":"경기도 의정부시 장암동 90-11번지 1층","category":"주방용구 - 주방용구"}]},{"lat":"37.724657052","long":"127.05585312","items":[{"name":"유솔","tel":"031-875-6893","addr":"경기도 의정부시 장암동 31-3번지 외1필지","category":"신변잡화 - 기타잡화"},{"name":"치킨명작(장암점)","tel":"031-878-9202","addr":"경기도 의정부시 장암동 31-3번지 1층","category":"일반휴게음식 - 일반한식"}]},{"lat":"37.699213844","long":"127.05603912","items":[{"name":"유창수산","tel":"031-1111-1111","addr":"경기도 의정부시 장암동 209-1번지","category":"음료식품 - 농·축·수산품"},{"name":"주식회사 파인에이디에스","tel":"031-878-9003","addr":"경기도 의정부시 장암동 209-1번지","category":"기타 - 기계공구"}]},{"lat":"37.726275534","long":"127.06263745","items":[{"name":"윤후네","tel":"031-000-0000","addr":"경기도 의정부시 장암동 17-32번지 장암주공7단지 701동 1102호","category":"음료식품 - 농·축·수산품"}]},{"lat":"37.701015454","long":"127.0567321","items":[{"name":"이포트","tel":"031-875-6235","addr":"경기도 의정부시 장암동 193-6","category":"문화.취미 - 민예·공예품"}]},{"lat":"37.707439001","long":"127.05740582","items":[{"name":"인피니티(INFINITI)","tel":"031-855-2228","addr":"경기도 의정부시 장암동 90-14","category":"건축자재 - 기타건축자재"}]},{"lat":"37.700043139","long":"127.05512124","items":[{"name":"일이삼사","tel":"070-4110-3261","addr":"경기도 의정부시 장암동 162-4번지","category":"유통업 영리 - 기타유통업"},{"name":"차사랑카케어","tel":"","addr":"경기도 의정부시 장암동 162-4번지","category":"자동차정비 유지 - 카인테리어"}]},{"lat":"37.69477218","long":"127.05585453","items":[{"name":"작은숲","tel":"070-4239-1633","addr":"경기도 의정부시 장암동 산186-6번지","category":"문화.취미 - 화원"},{"name":"하눌타리","tel":"031-875-2081","addr":"경기도 의정부시 장암동 산186-6번지","category":"문화.취미 - 화원"}]},{"lat":"37.726103906","long":"127.06351073","items":[{"name":"장암골흑염소","tel":"031-855-2252","addr":"경기도 의정부시 장암동 14-79번지 1층","category":"일반휴게음식 - 일반한식"}]},{"lat":"37.726297533","long":"127.05418685","items":[{"name":"장암동주민자치위원회","tel":"031-828-4155","addr":"경기도 의정부시 장암동 20-10 시세과","category":"문화.취미 - 문화취미기타"}]},{"lat":"37.713351928","long":"127.05139934","items":[{"name":"장암매점","tel":"031-872-7190","addr":"경기도 의정부시 장암동 78-2번지 스포츠센터 2층","category":"유통업 영리 - 편 의 점"}]},{"lat":"37.71001829","long":"127.0516013","items":[{"name":"장암장작구이","tel":"031-836-0020","addr":"경기도 의정부시 장암동 79-3번지","category":"일반휴게음식 - 일반한식"}]},{"lat":"37.724737071","long":"127.05817847","items":[{"name":"장암종합사회복지관","tel":"031-874-8081","addr":"경기도 의정부시 장암동 5","category":"문화.취미 - 문화취미기타"},{"name":"조은인테리어","tel":"031-878-0040","addr":"경기도 의정부시 장암동 5번지 장암1단지주공.장암2단지주공아파트 105호","category":"건축자재 - 인테리어전문"}]},{"lat":"37.704042659","long":"127.05679099","items":[{"name":"장암중기","tel":"031-872-2952","addr":"경기도 의정부시 장암동 129-5번지","category":"자동차정비 유지 - 자동차정비"}]},{"lat":"37.69707948","long":"127.05396262","items":[{"name":"장재울토종순대국","tel":"031-876-7733","addr":"경기도 의정부시 장암동 222-4번지","category":"일반휴게음식 - 일반한식"}]},{"lat":"37.725932637","long":"127.06368074","items":[{"name":"전주곰탕","tel":"031-876-9829","addr":"경기도 의정부시 장암동 14-94번지","category":"일반휴게음식 - 일반한식"}]},{"lat":"37.725753722","long":"127.0611511","items":[{"name":"제이공부방","tel":"070-8031-4038","addr":"경기도 의정부시 장암동 17-32번지 장암주공7단지 704동 1306호","category":"학원 - 기타 교육기관"}]},{"lat":"37.707879781","long":"127.05888038","items":[{"name":"제일에너지","tel":"031-872-7500","addr":"경기도 의정부시 장암동 97-21번지","category":"연료판매점 - 기타연료"}]},{"lat":"37.698962205","long":"127.05462157","items":[{"name":"주식회사 폴제페토 경기북부지점","tel":"031-826-0023","addr":"경기도 의정부시 장암동 214-13번지","category":"레져용품 - 악기점"}]},{"lat":"37.723062649","long":"127.05519411","items":[{"name":"차일드유장암영어교실","tel":"031-876-0762","addr":"경기도 의정부시 장암동 37번지 의정부장암1차푸르지오 104동 102호","category":"회원제형태 - 학원"}]},{"lat":"37.707132648","long":"127.05746229","items":[{"name":"천안옛날호두과자","tel":"031-872-0446","addr":"경기도 의정부시 장암동 90-19번지","category":"음료식품 - 제과점"}]},{"lat":"37.707627023","long":"127.05990082","items":[{"name":"충남집","tel":"031-872-3909","addr":"경기도 의정부시 장암동 97-23번지 충남집","category":"일반휴게음식 - 일반한식"}]},{"lat":"37.707042049","long":"127.05853955","items":[{"name":"카페 아를","tel":"031-837-1717","addr":"경기도 의정부시 장암동 97-28번지","category":"일반휴게음식 - 일반한식"}]},{"lat":"37.704852761","long":"127.05843585","items":[{"name":"커스텀","tel":"070-8292-7998","addr":"경기도 의정부시 장암동 108-2번지","category":"자동차정비 유지 - 자동차부품"}]},{"lat":"37.724873236","long":"127.05595536","items":[{"name":"커피에반하다(발곡점)","tel":"031-855-6624","addr":"경기도 의정부시 장암동 26-7번지","category":"일반휴게음식 - 서양음식"},{"name":"현대왕족발","tel":"031-877-7034","addr":"경기도 의정부시 장암동 26-7번지 1층","category":"일반휴게음식 - 일반한식"}]},{"lat":"37.725378032","long":"127.05537723","items":[{"name":"코스모스 토탈 인테리어","tel":"031-873-0482","addr":"경기도 의정부시 장암동 18-5번지 지층","category":"건축자재 - 인테리어전문"},{"name":"한일밧데리","tel":"031-875-0951","addr":"경기도 의정부시 장암동 18-5번지","category":"건축자재 - 조명기구"}]},{"lat":"37.724851986","long":"127.06270437","items":[{"name":"콘소프트 (CORNSOFT)","tel":"070-8899-2392","addr":"경기도 의정부시 장암동 14-126번지 삼환나우빌 102동 1101호","category":"용역 서비스 - 소프트웨어"}]},{"lat":"37.696773128","long":"127.0540191","items":[{"name":"탑골프","tel":"031-877-1819","addr":"경기도 의정부시 장암동 348-11번지 1층","category":"레져용품 - 골프용품 전문점"}]},{"lat":"37.707825567","long":"127.05920921","items":[{"name":"퇴촌매운탕","tel":"031-878-2662","addr":"경기도 의정부시 장암동 97-16번지","category":"일반휴게음식 - 일반한식"}]},{"lat":"37.706656948","long":"127.05340218","items":[{"name":"트윈스 BBQ","tel":"041-548-6778","addr":"경기도 의정부시 장암동 135번지 아일랜드캐슬 A동 지상1층 120호","category":"일반휴게음식 - 서양음식"},{"name":"호암캐슬","tel":"031-111-1111","addr":"경기도 의정부시 장암동 135번지 아일랜드캐슬 지하2층","category":"보건위생 - 기타대인서비스"}]},{"lat":"37.699077634","long":"127.05835217","items":[{"name":"파인드론","tel":"031-878-9003","addr":"경기도 의정부시 장암동 206-14번지","category":"학원 - 기타 교육기관"}]},{"lat":"37.706130936","long":"127.06090893","items":[{"name":"파크프리베(Parc Pr ive)","tel":"031-873-9200","addr":"경기도 의정부시 장암동 98-23번지 2층3층 192번길 28-41 지상 1~2층","category":"일반휴게음식 - 일반한식"}]},{"lat":"37.690619741","long":"127.0535727","items":[{"name":"푸른유통","tel":"","addr":"경기도 의정부시 장암동 412번지 수락리버시티2단지 203동 1202호","category":"음료식품 - 농·축·수산품"}]},{"lat":"37.724044093","long":"127.05653325","items":[{"name":"플랜트아트센터","tel":"","addr":"경기도 의정부시 장암동 37-4번지 의정부장암2차푸르지오 202동 801호","category":"문화.취미 - 민예·공예품"}]},{"lat":"37.724630696","long":"127.05433316","items":[{"name":"한국바이오초크북부사업소","tel":"02`-975-5568","addr":"경기도 의정부시 장암동 20번지 장암동아아파트 115동 1904호","category":"보건위생 - 미용재료"}]},{"lat":"37.722072293","long":"127.05359413","items":[{"name":"한울타리","tel":"","addr":"경기도 의정부시 장암동 37-36번지","category":"음료식품 - 정육점"},{"name":"한울타리","tel":"","addr":"경기도 의정부시 장암동 37-36번지 1층","category":"일반휴게음식 - 일반한식"}]},{"lat":"37.702295169","long":"127.05596194","items":[{"name":"해동난농원","tel":"031-829-7660","addr":"경기도 의정부시 장암동 181-6번지","category":"문화.취미 - 화원"}]},{"lat":"37.700042616","long":"127.05628917","items":[{"name":"해물이네","tel":"031-873-8603","addr":"경기도 의정부시 장암동 196-5번지","category":"일반휴게음식 - 일반한식"}]},{"lat":"37.696241113","long":"127.0550392","items":[{"name":"화성냉동","tel":"031-826-7801","addr":"경기도 의정부시 장암동 221-5번지","category":"전기제품 - 냉열기기"}]}]