[{"lat":"37.275973249","long":"127.61586654","items":[{"name":"(주)대륜디자인건설","tel":"031-881-0482","addr":"경기도 여주시 가업동 55번지","category":"건축자재 - 인테리어전문"},{"name":"오송 농수산물","tel":"070-7529-8843","addr":"경기도 여주시 가업동 55번지 B동","category":"음료식품 - 농·축·수산품"},{"name":"오송가든","tel":"031-885-5289","addr":"경기도 여주시 가업동 55번지 1층","category":"일반휴게음식 - 일반한식"}]},{"lat":"37.269942082","long":"127.61303294","items":[{"name":"가야자동차","tel":"031-885-0982","addr":"경기도 여주시 가업동 191-2번지","category":"자동차정비 유지 - 자동차정비"}]},{"lat":"37.268355469","long":"127.62014524","items":[{"name":"구곡양봉원","tel":"031-886-3411","addr":"경기도 여주시 가업동 176-1번지","category":"건강식품 - 기타건강식품"}]},{"lat":"37.271053456","long":"127.6211143","items":[{"name":"남한강황토불한증막","tel":"031-883-2614","addr":"경기도 여주시 가업동 122번지","category":"보건위생 - 사우나"},{"name":"매좀식당","tel":"031-111-1111","addr":"경기도 여주시 가업동 122번지 4동","category":"일반휴게음식 - 일반한식"},{"name":"여주세종센타","tel":"031-885-1919","addr":"경기도 여주시 가업동 122번지","category":"건강식품 - 기타건강식품"}]},{"lat":"37.276361963","long":"127.61735801","items":[{"name":"누마스타","tel":"031-883-8449","addr":"경기도 여주시 가업동 50-1번지","category":"주방용구 - 주방용구"}]},{"lat":"37.266223027","long":"127.62816589","items":[{"name":"별이내","tel":"","addr":"경기도 여주시 가업동 165-13번지","category":"일반휴게음식 - 일반한식"},{"name":"엄마손칼국수","tel":"031-882-8553","addr":"경기도 여주시 가업동 165-13번지","category":"일반휴게음식 - 일반한식"}]},{"lat":"37.26597367","long":"127.62761142","items":[{"name":"세종윤활유","tel":"033-645-8551","addr":"경기도 여주시 가업동 159-1번지","category":"자동차정비 유지 - 윤활유 전문 판매"}]},{"lat":"37.27969323","long":"127.61783611","items":[{"name":"에이스 표고버섯 농원","tel":"031-881-5124","addr":"경기도 여주시 가업동 40번지 ,41","category":"음료식품 - 농·축·수산품"}]},{"lat":"37.265747534","long":"127.62777866","items":[{"name":"여주타이어 오일타운","tel":"031-884-5133","addr":"경기도 여주시 가업동 159-7번지","category":"자동차정비 유지 - 자동차시트·타이어"}]},{"lat":"37.273723909","long":"127.61872335","items":[{"name":"예문방","tel":"031-883-9471","addr":"경기도 여주시 가업동 71번지","category":"문화.취미 - 민예·공예품"}]},{"lat":"37.275472513","long":"127.61686595","items":[{"name":"웅골보리밥","tel":"031-882-1115","addr":"경기도 여주시 가업동 79-2번지 1층","category":"일반휴게음식 - 일반한식"}]},{"lat":"37.266834293","long":"127.62672791","items":[{"name":"카카오 골프","tel":"031-882-0753","addr":"경기도 여주시 가업동 158-6번지","category":"레져용품 - 골프용품 전문점"}]},{"lat":"37.265724811","long":"127.62866908","items":[{"name":"행복한 한길 밥상","tel":"031-883-5595","addr":"경기도 여주시 가업동 165-7번지 1층","category":"일반휴게음식 - 일반한식"}]}]