[{"lat":"38.121300207","long":"127.25598102","items":[{"name":"SC건설","tel":"031-532-1031","addr":"경기도 포천시 관인면 사정리 89, 89-2","category":"음료식품 - 기타음료식품"}]},{"lat":"38.124745858","long":"127.24543238","items":[{"name":"동일냉동","tel":"031-111-1111","addr":"경기도 포천시 관인면 사정리 810-1번지","category":"수리서비스 - 가정용품수리"}]},{"lat":"38.112975218","long":"127.25209821","items":[{"name":"뗏마루쉼터","tel":"031-534-1158","addr":"경기도 포천시 관인면 사정리 52번지","category":"음료식품 - 기타음료식품"}]},{"lat":"38.131077414","long":"127.25481721","items":[{"name":"벚골 도토리막국수","tel":"031-533-1810","addr":"경기도 포천시 관인면 사정리 308-3번지","category":"일반휴게음식 - 일반한식"}]},{"lat":"38.131021278","long":"127.25578648","items":[{"name":"벚골관광농원","tel":"031-534-1820","addr":"경기도 포천시 관인면 사정리 312번지","category":"숙박업 - 여관/기타숙박업"}]},{"lat":"38.125967356","long":"127.26398039","items":[{"name":"애플아일랜드","tel":"070-8821-8495","addr":"경기도 포천시 관인면 사정리 8-7","category":"학원 - 기타 교육기관"},{"name":"애플아일랜드","tel":"","addr":"경기도 포천시 관인면 사정리 8-7번지","category":"제조업 - 농산물.빵,떡류"}]},{"lat":"38.125582377","long":"127.26289558","items":[{"name":"애플아일랜드","tel":"","addr":"경기도 포천시 관인면 사정리 9-1번지","category":"음료식품 - 농·축·수산품"}]},{"lat":"38.136497693","long":"127.26040211","items":[{"name":"용담대물낚시터","tel":"031-531-9791","addr":"경기도 포천시 관인면 사정리 380번지","category":"레저업소 - 기타레져업소"}]},{"lat":"38.108280537","long":"127.25257254","items":[{"name":"자연벨리관광농원","tel":"031-534-5656","addr":"경기도 포천시 관인면 사정리 38번지","category":"숙박업 - 여관/기타숙박업"}]},{"lat":"38.126966574","long":"127.23879073","items":[{"name":"주식회사 보주방","tel":"031-342-2996","addr":"경기도 포천시 관인면 사정리 829-1번지","category":"음료식품 - 기타음료식품"}]},{"lat":"38.136965293","long":"127.24817613","items":[{"name":"포천겸손의집","tel":"031-531-3657","addr":"경기도 포천시 관인면 사정리 410-2번지","category":"기타의료기관 - 기타의료기관 및 기타"}]},{"lat":"38.130886072","long":"127.25160022","items":[{"name":"한탄강화적연 농업회사법인주식회사","tel":"031-111-1111","addr":"경기도 포천시 관인면 사정리 439-2번지","category":"음료식품 - 기타음료식품"}]}]