[{"lat":"37.3909440740","long":"126.9946159244","imageIndex":7,"items":[{"name":"모닝마트","tel":"031-423-1020","addr":"경기도 의왕시 청계동 986-1번지","indutype":"유통업 영리 - 슈퍼마켓","category":"mart"}]},{"lat":"37.4056102836","long":"127.0272218206","imageIndex":7,"items":[{"name":"산사가는길","tel":"031-426-1515","addr":"경기도 의왕시 청계동 70번지","indutype":"유통업 영리 - 슈퍼마켓","category":"mart"}]},{"lat":"37.3901694615","long":"127.0000814744","imageIndex":7,"items":[{"name":"주공할인마트","tel":"031-425-3397","addr":"경기도 의왕시 청계동 980번지 휴먼시아청계마을 101호","indutype":"유통업 영리 - 슈퍼마켓","category":"mart"}]},{"lat":"37.4009455150","long":"127.0063378926","imageIndex":7,"items":[{"name":"청계마트","tel":"070-4108-6774","addr":"경기도 의왕시 청계동 600-1번지","indutype":"유통업 영리 - 슈퍼마켓","category":"mart"}]},{"lat":"37.3923048437","long":"126.9996409832","imageIndex":7,"items":[{"name":"청계할인마트","tel":"031-422-2234","addr":"경기도 의왕시 청계동 972번지 휴먼시아 청계마을 101,102호","indutype":"유통업 영리 - 슈퍼마켓","category":"mart"}]},{"lat":"37.3934761921","long":"127.0014477773","imageIndex":7,"items":[{"name":"휴먼시아할인마트","tel":"031-384-8189","addr":"경기도 의왕시 청계동 966 청계마을휴먼시아4차상가 104","indutype":"유통업 영리 - 슈퍼마켓","category":"mart"}]}]