[{"lat":"37.35598058","long":"127.3850193","items":[{"name":"(주)평산","tel":"031-761-6272","addr":"경기도 광주시 곤지암읍 오향리 7번지","category":"건축자재 - 목재·석재·철물"}]},{"lat":"37.35740428","long":"127.3765272","items":[{"name":"(주)폴라스","tel":"02-3426-9165","addr":"경기도 광주시 곤지암읍 오향리 405-4번지 1층","category":"서적문구 - 과학기자재"}]},{"lat":"37.35859763","long":"127.3723793","items":[{"name":"1급열미검사정비","tel":"070-3154-8368","addr":"경기도 광주시 곤지암읍 오향리 422-3번지","category":"자동차정비 유지 - 자동차정비"}]},{"lat":"37.36070253","long":"127.3763516","items":[{"name":"GS25광주광여로점","tel":"","addr":"경기도 광주시 곤지암읍 오향리 395-5번지 외1필지","category":"유통업 영리 - 상품권전문판매"},{"name":"GS25광주광여로점","tel":"","addr":"경기도 광주시 곤지암읍 오향리 395-5번지 외1필지","category":"유통업 영리 - 편 의 점"},{"name":"아낌없이주는나무","tel":"031-761-5807","addr":"경기도 광주시 곤지암읍 오향리 395-5번지 오향그린빌 1층","category":"건축자재 - 기타건축자재"},{"name":"지앤씨","tel":"","addr":"경기도 광주시 곤지암읍 오향리 395-5번지 오향그린빌 1층 3호","category":"레져용품 - 골프용품 전문점"}]},{"lat":"37.35962268","long":"127.3730503","items":[{"name":"가족회관 안방찻집","tel":"031-766-7786","addr":"경기도 광주시 곤지암읍 오향리 339-6번지","category":"일반휴게음식 - 일반한식"}]},{"lat":"37.35995659","long":"127.3757497","items":[{"name":"경성불고기","tel":"031-764-8111","addr":"경기도 광주시 곤지암읍 오향리 371-2번지","category":"일반휴게음식 - 일반한식"},{"name":"샛강회매운탕","tel":"031-764-7994","addr":"경기도 광주시 곤지암읍 오향리 371-2번지","category":"일반휴게음식 - 일반한식"}]},{"lat":"37.35881644","long":"127.3744347","items":[{"name":"곤지암돌짜장","tel":"031-762-7447","addr":"경기도 광주시 곤지암읍 오향리 368-16번지","category":"일반휴게음식 - 중국식"}]},{"lat":"37.364401","long":"127.3806595","items":[{"name":"광주종합가구","tel":"031-762-7226","addr":"경기도 광주시 곤지암읍 오향리 91-2번지 (창고)","category":"가구 - 일반가구"}]},{"lat":"37.35862581","long":"127.3748852","items":[{"name":"김주위 웨딩컨설팅","tel":"031-797-3467","addr":"경기도 광주시 곤지암읍 오향리 412-8","category":"회원제형태 - 기타4"},{"name":"팔당칼국수와수제비","tel":"031-761-0119","addr":"경기도 광주시 곤지암읍 오향리 412-8번지 1층","category":"일반휴게음식 - 일반한식"}]},{"lat":"37.35845594","long":"127.3744668","items":[{"name":"나그네여쉬어가시게나","tel":"031-763-5886","addr":"경기도 광주시 곤지암읍 오향리 415-3번지","category":"일반휴게음식 - 일반한식"}]},{"lat":"37.36792536","long":"127.3773808","items":[{"name":"내쇼날LS","tel":"070-8957-2633","addr":"경기도 광주시 곤지암읍 오향리 124-2","category":"유통업 영리 - 기타유통업"}]},{"lat":"37.36367595","long":"127.3791658","items":[{"name":"다손","tel":"031-798-0801","addr":"경기도 광주시 곤지암읍 오향리 76번지","category":"건축자재 - 인테리어전문"}]},{"lat":"37.35859169","long":"127.3742755","items":[{"name":"대원파크","tel":"031-764-1810","addr":"경기도 광주시 곤지암읍 오향리 415-8번지 9","category":"숙박업 - 여관/기타숙박업"},{"name":"코코파크","tel":"031-764-1810","addr":"경기도 광주시 곤지암읍 오향리 415-8번지","category":"숙박업 - 여관/기타숙박업"}]},{"lat":"37.35537305","long":"127.3862126","items":[{"name":"더 파이프","tel":"031-763-0187","addr":"경기도 광주시 곤지암읍 오향리 453-18번지","category":"가구 - 기타가구"},{"name":"태산에너지","tel":"","addr":"경기도 광주시 곤지암읍 오향리 453-18번지","category":"연료판매점 - 유류판매"},{"name":"태산에너지","tel":"","addr":"경기도 광주시 곤지암읍 오향리 453-18번지","category":"연료판매점 - 유류판매"}]},{"lat":"37.35517895","long":"127.382137","items":[{"name":"마리(Mari)","tel":"","addr":"경기도 광주시 곤지암읍 오향리 21-8번지","category":"문화.취미 - 애완동물"}]},{"lat":"37.35600815","long":"127.3820509","items":[{"name":"만민종합공사","tel":"031-626-6128","addr":"경기도 광주시 곤지암읍 오향리 42-10번지","category":"건축자재 - 인테리어전문"}]},{"lat":"37.35962436","long":"127.3753868","items":[{"name":"메밀골막국수","tel":"031-762-9292","addr":"경기도 광주시 곤지암읍 오향리 368-26번지","category":"일반휴게음식 - 일반한식"}]},{"lat":"37.35737368","long":"127.3832994","items":[{"name":"부활동산추모공원","tel":"031-769-4213","addr":"경기도 광주시 곤지암읍 오향리 10-15번지","category":"용역 서비스 - 가례서비스업"}]},{"lat":"37.35515391","long":"127.3815161","items":[{"name":"삼성가스텍","tel":"","addr":"경기도 광주시 곤지암읍 오향리 21-7번지 2층 203호","category":"연료판매점 - 기타연료"}]},{"lat":"37.35584915","long":"127.3866552","items":[{"name":"성진 알루미늄","tel":"031-798-4133","addr":"경기도 광주시 곤지암읍 오향리 453-16번지","category":"건축자재 - 기타건축자재"}]},{"lat":"37.3604245","long":"127.3759439","items":[{"name":"시골맛밥상","tel":"031-762-6652","addr":"경기도 광주시 곤지암읍 오향리 372-3번지 1층","category":"일반휴게음식 - 일반한식"}]},{"lat":"37.35598018","long":"127.3738225","items":[{"name":"애완동물테마파크","tel":"031-764-4423","addr":"경기도 광주시 곤지암읍 오향리 442-4번지","category":"문화.취미 - 애완동물"}]},{"lat":"37.35867934","long":"127.3750548","items":[{"name":"양평해장국","tel":"031-765-1562","addr":"경기도 광주시 곤지암읍 오향리 412-1번지","category":"일반휴게음식 - 일반한식"}]},{"lat":"37.36054002","long":"127.3792969","items":[{"name":"오색향농원","tel":"031-761-0306","addr":"경기도 광주시 곤지암읍 오향리 59-2","category":"음료식품 - 농·축·수산품"}]},{"lat":"37.36370437","long":"127.3758811","items":[{"name":"오향상회","tel":"031-762-6769","addr":"경기도 광주시 곤지암읍 오향리 274-5","category":"신변잡화 - 기타잡화"},{"name":"오향식당","tel":"031-762-6769","addr":"경기도 광주시 곤지암읍 오향리 274-5번지","category":"일반휴게음식 - 일반한식"}]},{"lat":"37.35942823","long":"127.3747199","items":[{"name":"오향제분소","tel":"031-762-6659","addr":"경기도 광주시 곤지암읍 오향리 368-11","category":"음료식품 - 기타음료식품"}]},{"lat":"37.35793114","long":"127.3836634","items":[{"name":"오향중흥교회","tel":"031-764-4005","addr":"경기도 광주시 곤지암읍 오향리 산 2번지","category":"용역 서비스 - 가례서비스업"}]},{"lat":"37.36384796","long":"127.3789071","items":[{"name":"오향휴게소","tel":"031-766-6681","addr":"경기도 광주시 곤지암읍 오향리 74","category":"음료식품 - 기타음료식품"},{"name":"주머니","tel":"070-2891-4376","addr":"경기도 광주시 곤지암읍 오향리 74번지","category":"의류 - 내의판매"}]},{"lat":"37.3617022","long":"127.376492","items":[{"name":"외할머니집","tel":"031-769-6222","addr":"경기도 광주시 곤지암읍 오향리 394-1번지","category":"일반휴게음식 - 일반한식"}]},{"lat":"37.36964648","long":"127.3773216","items":[{"name":"욜리 (yolly)","tel":"070-8031-4038","addr":"경기도 광주시 곤지암읍 오향리 257-8번지","category":"음료식품 - 기타음료식품"}]},{"lat":"37.37503877","long":"127.3702132","items":[{"name":"유진석재","tel":"031-769-4506","addr":"경기도 광주시 곤지암읍 오향리 161-5번지","category":"건축자재 - 목재·석재·철물"}]},{"lat":"37.35762009","long":"127.3766637","items":[{"name":"율진하이테크","tel":"031-764-1722","addr":"경기도 광주시 곤지암읍 오향리 401번지","category":"용역 서비스 - 기타용역서비스"}]},{"lat":"37.36120683","long":"127.3764331","items":[{"name":"이지상사","tel":"031-1111-1111","addr":"경기도 광주시 곤지암읍 오향리 394-3번지","category":"광학제품 - 기타광학제품"},{"name":"주연상사삼화페인트","tel":"031-797-7011","addr":"경기도 광주시 곤지암읍 오향리 394-3번지","category":"용역 서비스 - 기타용역서비스"},{"name":"주연종합주택수리전문","tel":"031-769-1144","addr":"경기도 광주시 곤지암읍 오향리 394-3번지","category":"용역 서비스 - 기타용역서비스"}]},{"lat":"37.36642774","long":"127.3722709","items":[{"name":"제이알루버앤셔터","tel":"031-769-0870","addr":"경기도 광주시 곤지암읍 오향리 323-1번지","category":"건축자재 - 기타건축자재"}]},{"lat":"37.35654147","long":"127.37869","items":[{"name":"주식회사 그린에너지솔루션","tel":"031-798-0088","addr":"경기도 광주시 곤지암읍 오향리 46-2번지","category":"전기제품 - 냉열기기"}]},{"lat":"37.35817461","long":"127.3751088","items":[{"name":"주식회사 더씨앤디","tel":"031-1833-6875","addr":"경기도 광주시 곤지암읍 오향리 410-5번지","category":"음료식품 - 기타음료식품"}]},{"lat":"37.36529076","long":"127.3756857","items":[{"name":"주식회사 무한에너지","tel":"031-798-1237","addr":"경기도 광주시 곤지암읍 오향리 306번지","category":"농업 - 비료,사료,종자"}]},{"lat":"37.35717824","long":"127.3767744","items":[{"name":"주식회사 피지마켓","tel":"031-797-6557","addr":"경기도 광주시 곤지암읍 오향리 405-6번지","category":"농업 - 비료,사료,종자"}]},{"lat":"37.3783393","long":"127.3721938","items":[{"name":"클럽하우스","tel":"02-3397-6176","addr":"경기도 광주시 곤지암읍 오향리 156-1번지","category":"일반휴게음식 - 일반한식"}]},{"lat":"37.36361811","long":"127.3803508","items":[{"name":"타로","tel":"031-764-6324","addr":"경기도 광주시 곤지암읍 오향리 60-8번지","category":"용역 서비스 - 보관및 창고업"}]},{"lat":"37.35965252","long":"127.3750258","items":[{"name":"토바기","tel":"031-762-7710","addr":"경기도 광주시 곤지암읍 오향리 368-7","category":"일반휴게음식 - 일반한식"}]},{"lat":"37.35632088","long":"127.3856644","items":[{"name":"평산특수목재","tel":"031-761-6272","addr":"경기도 광주시 곤지암읍 오향리 6번지","category":"건축자재 - 기타건축자재"}]},{"lat":"37.35903896","long":"127.3753049","items":[{"name":"황제코다리냉면","tel":"031-1800-5318","addr":"경기도 광주시 곤지암읍 오향리 482-5번지","category":"일반휴게음식 - 일반한식"}]}]