[{"lat":"37.686637546","long":"127.21008956","items":[{"name":"\"8899\"목천섬김","tel":"070-8250-4152","addr":"경기도 남양주시 오남읍 오남리 604-8번지","category":"기타의료기관 - 기타의료기관 및 기타"}]},{"lat":"37.694074949","long":"127.21266135","items":[{"name":"(주) 화승","tel":"031-571-6304","addr":"경기도 남양주시 오남읍 오남리 132번지 가동","category":"음료식품 - 농·축·수산품"},{"name":"푸르타스","tel":"031-573-9002","addr":"경기도 남양주시 오남읍 오남리 132번지 다동 일부호","category":"음료식품 - 기타음료식품"}]},{"lat":"37.68896452","long":"127.20866752","items":[{"name":"(주)단아데코","tel":"031-572-8382","addr":"경기도 남양주시 오남읍 오남리 634번지","category":"직물 - 침구·수예점"}]},{"lat":"37.684523544","long":"127.20822446","items":[{"name":"(주)비케이퍼니처","tel":"031-529-3810","addr":"경기도 남양주시 오남읍 오남리 547번지 1층","category":"가구 - 일반가구"}]},{"lat":"37.685158493","long":"127.20575478","items":[{"name":"(주)오남중고차","tel":"031-572-7550","addr":"경기도 남양주시 오남읍 오남리 572-1번지","category":"자동차판매 - 중고자동차판매"},{"name":"3마일커스텀남양주점","tel":"070-7447-3371","addr":"경기도 남양주시 오남읍 오남리 572-1번지","category":"자동차정비 유지 - 세차장"},{"name":"가족나들이","tel":"031-529-6389","addr":"경기도 남양주시 오남읍 오남리 572-1번지 나동 1층","category":"일반휴게음식 - 일반한식"},{"name":"개똥이네 남양주점","tel":"031-529-2989","addr":"경기도 남양주시 오남읍 오남리 572-1번지 가동 101호","category":"서적문구 - 일반서적"},{"name":"낙지한마리 수제비","tel":"031-527-7181","addr":"경기도 남양주시 오남읍 오남리 572-1번지 나동 1층","category":"일반휴게음식 - 일반한식"},{"name":"남녀공학","tel":"031-528-7089","addr":"경기도 남양주시 오남읍 오남리 572-1번지 가동 201호","category":"용역 서비스 - 사무서비스"},{"name":"레저붐","tel":"070-8163-3303","addr":"경기도 남양주시 오남읍 오남리 572-1번지 차동 1층 102호","category":"레져용품 - 스포츠·레져용품"},{"name":"범퍼카프로","tel":"031-571-7333","addr":"경기도 남양주시 오남읍 오남리 572-1번지","category":"자동차정비 유지 - 자동차정비"},{"name":"사계절반점","tel":"031-528-7840","addr":"경기도 남양주시 오남읍 오남리 572-1번지 나동 2층","category":"일반휴게음식 - 중국식"},{"name":"스타락볼링센타","tel":"031-575-0834","addr":"경기도 남양주시 오남읍 오남리 572-1번지 외1필지","category":"레저업소 - 볼 링 장"},{"name":"오리나무토론논술학원","tel":"070-8253-3233","addr":"경기도 남양주시 오남읍 오남리 572-1번지 가동 2층","category":"학원 - 보습학원"},{"name":"오마이 쭈꾸미","tel":"031-529-3719","addr":"경기도 남양주시 오남읍 오남리 572-1번지 가동 101호","category":"일반휴게음식 - 일반한식"},{"name":"온아이디","tel":"070-7863-6512","addr":"경기도 남양주시 오남읍 오남리 572-1번지 나동 1층 101호","category":"직물 - 카페트,커튼,천막,지물"},{"name":"옷까페","tel":"","addr":"경기도 남양주시 오남읍 오남리 572-1번지 가동 2층","category":"의류 - 정장"},{"name":"호아창","tel":"031-557-2244","addr":"경기도 남양주시 오남읍 오남리 572-1번지 가동 201호","category":"직물 - 카페트,커튼,천막,지물"}]},{"lat":"37.683021701","long":"127.21177998","items":[{"name":"(주)제이엔케이","tel":"031-555-5460","addr":"경기도 남양주시 오남읍 오남리 353-1번지 1층","category":"건축자재 - 건축용 요업제품"}]},{"lat":"37.682664023","long":"127.20505646","items":[{"name":"(주)퓨어그린","tel":"031-527-9923","addr":"경기도 남양주시 오남읍 오남리 570-1번지","category":"음료식품 - 기타음료식품"},{"name":"애커먼","tel":"070-8152-0716","addr":"경기도 남양주시 오남읍 오남리 570-1번지","category":"자동차정비 유지 - 자동차정비"}]},{"lat":"37.68752423","long":"127.2079493","items":[{"name":"1급신영공업사","tel":"031-571-9939","addr":"경기도 남양주시 오남읍 오남리 618번지","category":"자동차정비 유지 - 자동차정비"}]},{"lat":"37.678635632","long":"127.21086081","items":[{"name":"87구공탄","tel":"070-8869-2694","addr":"경기도 남양주시 오남읍 오남리 414번지 1층","category":"일반휴게음식 - 일반한식"},{"name":"돌쇠마님곱창 남대감댁물회","tel":"031-512-9786","addr":"경기도 남양주시 오남읍 오남리 414번지","category":"일반휴게음식 - 일반한식"},{"name":"모닉(monique)","tel":"","addr":"경기도 남양주시 오남읍 오남리 414번지","category":"의류 - 정장"},{"name":"바른피티 퍼스널트레이닝센터","tel":"","addr":"경기도 남양주시 오남읍 오남리 414번지 104호","category":"레저업소 - 헬스클럽"},{"name":"성학유통","tel":"031-528-6263","addr":"경기도 남양주시 오남읍 오남리 414번지 105호","category":"음료식품 - 농·축·수산품"},{"name":"헤어더유라","tel":"031-528-4560","addr":"경기도 남양주시 오남읍 오남리 414번지 101호","category":"보건위생 - 미용원"}]},{"lat":"37.694442096","long":"127.21392093","items":[{"name":"AA+무한케어노인복지센터","tel":"031-528-7488","addr":"경기도 남양주시 오남읍 오남리 134-10번지 오남프라자 204호","category":"기타의료기관 - 기타의료기관 및 기타"},{"name":"KING 당구클럽","tel":"031-512-2626","addr":"경기도 남양주시 오남읍 오남리 134-10번지 오남프라자 4층","category":"레저업소 - 당 구 장"},{"name":"남양빈대떡","tel":"031-528-9285","addr":"경기도 남양주시 오남읍 오남리 134-10번지 오남프라자","category":"일반휴게음식 - 일반한식"},{"name":"뉴오남고시텔","tel":"031-891-0015","addr":"경기도 남양주시 오남읍 오남리 134-10번지 오남프라자 3층","category":"학원 - 독서실"},{"name":"두리두리김밥천국","tel":"031-592-2771","addr":"경기도 남양주시 오남읍 오남리 134-10번지 오남프라자 1층 102호","category":"일반휴게음식 - 스넥"},{"name":"뺑코  닭발","tel":"031-527-9269","addr":"경기도 남양주시 오남읍 오남리 134-10번지 오남프라자 1층 110,111호","category":"일반휴게음식 - 일반한식"},{"name":"사라","tel":"070-8959-5379","addr":"경기도 남양주시 오남읍 오남리 134-10번지 오남프라자 106호","category":"의류 - 정장"},{"name":"소영이네식당","tel":"031-528-4254","addr":"경기도 남양주시 오남읍 오남리 134-10번지 오남프라자 1층 101호","category":"일반휴게음식 - 일반한식"},{"name":"소영이네식당","tel":"031-528-9337","addr":"경기도 남양주시 오남읍 오남리 134-10번지 오남프라자 1층 101호","category":"일반휴게음식 - 일반한식"},{"name":"오남고시원","tel":"031-575-5950","addr":"경기도 남양주시 오남읍 오남리 134-10번지 2층,3층","category":"학원 - 독서실"},{"name":"오남사우나(피부관리실)","tel":"031-000-0000","addr":"경기도 남양주시 오남읍 오남리 134-10번지 오남프라자 비01.02호","category":"보건위생 - 피부미용실"},{"name":"오남장작불한증막사우나","tel":"031-575-1009","addr":"경기도 남양주시 오남읍 오남리 134-10번지 오남프라자","category":"일반휴게음식 - 일반한식"},{"name":"이현지헤어","tel":"031-575-8653","addr":"경기도 남양주시 오남읍 오남리 134-10번지 오남프라자 1층 105호","category":"보건위생 - 미용원"},{"name":"지도리치킨","tel":"031-527-6815","addr":"경기도 남양주시 오남읍 오남리 134-10번지 오남프라자 1층 107호","category":"일반휴게음식 - 스넥"},{"name":"청담타이","tel":"070-4404-2252","addr":"경기도 남양주시 오남읍 오남리 134-10번지 오남프라자 4층","category":"신변잡화 - 기타잡화"}]},{"lat":"37.687832399","long":"127.21203155","items":[{"name":"AACE(더블에이스)","tel":"031-529-5290","addr":"경기도 남양주시 오남읍 오남리 246-5","category":"사무통신 - 컴퓨터"},{"name":"벌통포차","tel":"031-527-4252","addr":"경기도 남양주시 오남읍 오남리 246-5번지 1층 1호 좌측","category":"일반휴게음식 - 일반한식"},{"name":"조희미용실","tel":"031-575-1331","addr":"경기도 남양주시 오남읍 오남리 246-5번지","category":"보건위생 - 미용원"},{"name":"칠공팔공","tel":"031-528-0580","addr":"경기도 남양주시 오남읍 오남리 246-5번지 지층","category":"일반휴게음식 - 주점"}]},{"lat":"37.685771203","long":"127.20572243","items":[{"name":"BY메디칼","tel":"031-564-1171","addr":"경기도 남양주시 오남읍 오남리 591-24 나동3층","category":"보건위생 - 의료용품"},{"name":"주식회사 보아스","tel":"031-564-1170","addr":"경기도 남양주시 오남읍 오남리 591-24번지 나동 1층","category":"가구 - 일반가구"}]},{"lat":"37.685383056","long":"127.21131045","items":[{"name":"B필라테스앤요가","tel":"031-512-9685","addr":"경기도 남양주시 오남읍 오남리 265-2번지","category":"레저업소 - 헬스클럽"},{"name":"남양주복싱태권도","tel":"031-573-0405","addr":"경기도 남양주시 오남읍 오남리 265-2번지 3층","category":"레저업소 - 헬스클럽"}]},{"lat":"37.679167597","long":"127.21063558","items":[{"name":"CK리틀석사체육관","tel":"031-529-3327","addr":"경기도 남양주시 오남읍 오남리 413-4번지 2층 4호","category":"학원 - 예·체능계학원"},{"name":"강아지야","tel":"031-575-3551","addr":"경기도 남양주시 오남읍 오남리 413-4번지 부일빌딩 1층 5호","category":"문화.취미 - 애완동물"},{"name":"수라","tel":"","addr":"경기도 남양주시 오남읍 오남리 413-4번지 104호","category":"문화.취미 - 문화취미기타"},{"name":"하얀달베이커리","tel":"031-572-2787","addr":"경기도 남양주시 오남읍 오남리 413-4번지 (1호~3호)","category":"음료식품 - 제과점"},{"name":"한방전주콩나물국밥","tel":"031-575-4194","addr":"경기도 남양주시 오남읍 오남리 413-4번지 부일빌딩 1층6,7호","category":"일반휴게음식 - 일반한식"}]},{"lat":"37.693827105","long":"127.21522307","items":[{"name":"COTRO","tel":"02-2202-0344","addr":"경기도 남양주시 오남읍 오남리 129-2번지 3층","category":"레져용품 - 스포츠·레져용품"},{"name":"기쁘미주야간보호센터","tel":"031-571-9070","addr":"경기도 남양주시 오남읍 오남리 129-2번지 아세아빌딩 3층","category":"기타의료기관 - 기타의료기관 및 기타"},{"name":"더브릭","tel":"031-573-7771","addr":"경기도 남양주시 오남읍 오남리 129-2번지 1층 102호","category":"일반휴게음식 - 스넥"},{"name":"두모리해장국","tel":"031-575-0153","addr":"경기도 남양주시 오남읍 오남리 129-2번지","category":"일반휴게음식 - 일반한식"},{"name":"타이거앤제이태권도","tel":"031-575-1011","addr":"경기도 남양주시 오남읍 오남리 129-2번지 201호","category":"학원 - 예·체능계학원"},{"name":"호식이두마리치킨(오남점)","tel":"031-572-0622","addr":"경기도 남양주시 오남읍 오남리 129-2번지 101호","category":"일반휴게음식 - 스넥"}]},{"lat":"37.694860426","long":"127.20658623","items":[{"name":"CnJ가죽공방","tel":"031-529-2336","addr":"경기도 남양주시 오남읍 오남리 732-1번지","category":"신변잡화 - 가방"},{"name":"경희콜렉션","tel":"031-575-3209","addr":"경기도 남양주시 오남읍 오남리 732-1번지","category":"신변잡화 - 가방"},{"name":"불타는연탄구이","tel":"031-574-7992","addr":"경기도 남양주시 오남읍 오남리 732-1번지","category":"일반휴게음식 - 일반한식"},{"name":"비에이치씨(bhc) 양지점","tel":"031-571-9907","addr":"경기도 남양주시 오남읍 오남리 732-1번지","category":"일반휴게음식 - 스넥"},{"name":"오남식당","tel":"031-1111-1111","addr":"경기도 남양주시 오남읍 오남리 732-1번지 1층","category":"일반휴게음식 - 일반한식"}]},{"lat":"37.691494359","long":"127.21480826","items":[{"name":"GOON","tel":"031-529-8082","addr":"경기도 남양주시 오남읍 오남리 203-3.","category":"레져용품 - 스포츠·레져용품"}]},{"lat":"37.679025733","long":"127.20933156","items":[{"name":"GS25오남동명점","tel":"","addr":"경기도 남양주시 오남읍 오남리 476-10번지 동명프라자 104호","category":"유통업 영리 - 편 의 점"},{"name":"경희이현진한의원","tel":"031-528-9956","addr":"경기도 남양주시 오남읍 오남리 476-10번지 201호","category":"의원 - 한의원"},{"name":"나이스가이","tel":"","addr":"경기도 남양주시 오남읍 오남리 476-10번지 103호","category":"보건위생 - 미용원"},{"name":"드림약국","tel":"031-574-8116","addr":"경기도 남양주시 오남읍 오남리 476-10번지 108호","category":"약국 - 약국"},{"name":"또봉이통닭 오남점","tel":"031-571-5953","addr":"경기도 남양주시 오남읍 오남리 476-10번지 1층 일부","category":"일반휴게음식 - 스넥"},{"name":"뚜레쥬르 남양주오남신우(4)","tel":"031-574-7999","addr":"경기도 남양주시 오남읍 오남리 476-10번지 동명프라자 105호","category":"음료식품 - 제과점"},{"name":"로웰PC Cafe","tel":"","addr":"경기도 남양주시 오남읍 오남리 476-10번지 3층","category":"레저업소 - 기타레져업소"},{"name":"백남옥달인손만두","tel":"070-0000-0000","addr":"경기도 남양주시 오남읍 오남리 476-10번지 107호","category":"일반휴게음식 - 일반한식"},{"name":"서울떡집","tel":"031-575-1020","addr":"경기도 남양주시 오남읍 오남리 476-10번지 동명프라자 109호","category":"음료식품 - 제과점"},{"name":"에스제이","tel":"031-572-7373","addr":"경기도 남양주시 오남읍 오남리 476-10번지 동명프라자 112호","category":"사무통신 - 통신기기"},{"name":"유명한튀김집","tel":"031-246-4664","addr":"경기도 남양주시 오남읍 오남리 476-10번지 동명프라자 111호","category":"일반휴게음식 - 스넥"},{"name":"피자마루 오남점","tel":"031-571-1082","addr":"경기도 남양주시 오남읍 오남리 476-10번지 102호","category":"일반휴게음식 - 서양음식"},{"name":"헤어끌림","tel":"","addr":"경기도 남양주시 오남읍 오남리 476-10번지 동영프라자 207호","category":"보건위생 - 미용원"}]},{"lat":"37.68266338","long":"127.21061132","items":[{"name":"GS25오남상일점","tel":"02-2006-2485","addr":"경기도 남양주시 오남읍 오남리 344-1번지 1층 102호","category":"유통업 영리 - 편 의 점"},{"name":"강호체육관","tel":"031-528-1009","addr":"경기도 남양주시 오남읍 오남리 344-1번지 202호","category":"회원제형태 - 레져업소"},{"name":"뉴엘리트학원","tel":"031-528-7865","addr":"경기도 남양주시 오남읍 오남리 344-1번지 2층","category":"학원 - 보습학원"},{"name":"다원피아노음악교습소","tel":"031-574-0106","addr":"경기도 남양주시 오남읍 오남리 344-1번지 1층 일부","category":"학원 - 예·체능계학원"},{"name":"라이온즈태권도장","tel":"031-575-2242","addr":"경기도 남양주시 오남읍 오남리 344-1번지 상일빌딩 4층","category":"학원 - 예·체능계학원"},{"name":"라인아트창의미술교습소","tel":"031-572-7865","addr":"경기도 남양주시 오남읍 오남리 344-1번지 1층 5호","category":"학원 - 예·체능계학원"},{"name":"로얄당구장","tel":"031-575-4941","addr":"경기도 남양주시 오남읍 오남리 344-1번지 상일빌딩 지하1층","category":"레저업소 - 당 구 장"},{"name":"오남GNB영어학원","tel":"031-572-0533","addr":"경기도 남양주시 오남읍 오남리 344-1번지 3층 일부","category":"학원 - 보습학원"},{"name":"코델리아","tel":"031-528-1610","addr":"경기도 남양주시 오남읍 오남리 344-1번지","category":"의류 - 정장"}]},{"lat":"37.695466574","long":"127.19980752","items":[{"name":"GS25오남푸르지오점","tel":"","addr":"경기도 남양주시 오남읍 오남리 889번지 남양주오남푸르지오 상가동 B101, B102, B105, B106호","category":"유통업 영리 - 편 의 점"},{"name":"아름다운생활","tel":"031-529-1689","addr":"경기도 남양주시 오남읍 오남리 889번지 푸르지오상가B104호","category":"직물 - 침구·수예점"}]},{"lat":"37.689521872","long":"127.20416807","items":[{"name":"H&H 자동차정비","tel":"031-575-3236","addr":"경기도 남양주시 오남읍 오남리 811-20번지","category":"자동차정비 유지 - 자동차정비"}]},{"lat":"37.682079112","long":"127.20983882","items":[{"name":"I.헤어토크","tel":"031-529-6428","addr":"경기도 남양주시 오남읍 오남리 525번지","category":"보건위생 - 미용원"},{"name":"김밥공간","tel":"031-572-0090","addr":"경기도 남양주시 오남읍 오남리 525번지 1동 102호","category":"일반휴게음식 - 스넥"},{"name":"데빌김(DEVIL KIM)","tel":"031-529-2344","addr":"경기도 남양주시 오남읍 오남리 525번지 2층","category":"레저업소 - 헬스클럽"},{"name":"라벨르(La belle)","tel":"031-575-3831","addr":"경기도 남양주시 오남읍 오남리 525번지 나동 103호","category":"의류 - 정장"},{"name":"시크플라워","tel":"031-575-9994","addr":"경기도 남양주시 오남읍 오남리 525번지","category":"의류 - 정장"},{"name":"썸네일#","tel":"031-523-8243","addr":"경기도 남양주시 오남읍 오남리 525번지 104호","category":"보건위생 - 피부미용실"},{"name":"앙샹떼","tel":"031-527-0435","addr":"경기도 남양주시 오남읍 오남리 525번지 주건축물 1동 101호","category":"음료식품 - 제과점"},{"name":"유진엔젤헤어","tel":"031-575-3631","addr":"경기도 남양주시 오남읍 오남리 525번지 1층 105호","category":"보건위생 - 미용원"},{"name":"커피니 오남점","tel":"031-000-0000","addr":"경기도 남양주시 오남읍 오남리 525번지 1층","category":"일반휴게음식 - 서양음식"},{"name":"한국체대바른태권도","tel":"031-529-8112","addr":"경기도 남양주시 오남읍 오남리 525번지 2층","category":"학원 - 예·체능계학원"}]},{"lat":"37.698048774","long":"127.21233238","items":[{"name":"J.B 솔루션","tel":"031-574-6190","addr":"경기도 남양주시 오남읍 오남리 101-11번지 다동 202호","category":"사무통신 - 기타 사무용품"},{"name":"주식회사잉크24","tel":"031-574-1923","addr":"경기도 남양주시 오남읍 오남리 101-11번지 라동 2층","category":"사무통신 - 기타 사무용품"}]},{"lat":"37.678884149","long":"127.2078575","items":[{"name":"KOREA MOTORS","tel":"031-575-9904","addr":"경기도 남양주시 오남읍 오남리 474-5","category":"자동차정비 유지 - 자동차정비"}]},{"lat":"37.69713186","long":"127.19525378","items":[{"name":"KT한국통상","tel":"070-4064-5899","addr":"경기도 남양주시 오남읍 오남리 886-1번지 양오빌딩 나동 401호","category":"신변잡화 - 액세서리"},{"name":"스타","tel":"031-575-9079","addr":"경기도 남양주시 오남읍 오남리 886-1번지 나동 203호","category":"전기제품 - 기타전기제품"}]},{"lat":"37.689299349","long":"127.21294267","items":[{"name":"L&K헤이샵","tel":"031-573-9958","addr":"경기도 남양주시 오남읍 오남리 201번지 (B동6호)","category":"보건위생 - 미용원"},{"name":"거시기포차","tel":"031-528-4331","addr":"경기도 남양주시 오남읍 오남리 201번지 상가 B동 105호","category":"일반휴게음식 - 일반한식"},{"name":"멋진남자","tel":"031-575-5031","addr":"경기도 남양주시 오남읍 오남리 201번지 A동 1층 3호","category":"보건위생 - 미용원"},{"name":"불고기와 지짐이","tel":"070-4127-1206","addr":"경기도 남양주시 오남읍 오남리 201번지 A동 104호","category":"일반휴게음식 - 일반한식"},{"name":"애플팩토리","tel":"031-529-4062","addr":"경기도 남양주시 오남읍 오남리 201번지 B동","category":"수리서비스 - 사무·통신기기수리"},{"name":"제일오토바이","tel":"031-575-1889","addr":"경기도 남양주시 오남읍 오남리 201번지 C동 5호","category":"수리서비스 - 레져용품수리"},{"name":"쭈노치킨가게 오남점","tel":"031-572-2073","addr":"경기도 남양주시 오남읍 오남리 201번지","category":"일반휴게음식 - 스넥"},{"name":"테이크텐","tel":"031-527-9788","addr":"경기도 남양주시 오남읍 오남리 201번지","category":"일반휴게음식 - 서양음식"},{"name":"펫클럽(오남점)","tel":"031-516-2888","addr":"경기도 남양주시 오남읍 오남리 201번지","category":"문화.취미 - 애완동물"},{"name":"핸드폰가게 오남","tel":"031-574-3622","addr":"경기도 남양주시 오남읍 오남리 201번지 1층 4호","category":"사무통신 - 통신기기"}]},{"lat":"37.687048223","long":"127.21222208","items":[{"name":"LABIANA/주식회사 동인가","tel":"02-794-3388","addr":"경기도 남양주시 오남읍 오남리 248번지","category":"음료식품 - 기타음료식품"},{"name":"농업회사법인 동인시대 주식회사","tel":"080-080-0999","addr":"경기도 남양주시 오남읍 오남리 248번지 1층","category":"음료식품 - 기타음료식품"},{"name":"동인학당","tel":"031-575-0007","addr":"경기도 남양주시 오남읍 오남리 248번지","category":"서적문구 - 출판 및 인쇄물"},{"name":"주식회사 동인바이오","tel":"031-575-6754","addr":"경기도 남양주시 오남읍 오남리 248","category":"음료식품 - 기타음료식품"},{"name":"주식회사동인바이오","tel":"031-575-6754","addr":"경기도 남양주시 오남읍 오남리 248번지","category":"음료식품 - 기타음료식품"}]},{"lat":"37.678832802","long":"127.21145083","items":[{"name":"NAAMU(나무)","tel":"031-595-4600","addr":"경기도 남양주시 오남읍 오남리 415-1번지 109호","category":"일반휴게음식 - 서양음식"},{"name":"미엘헤어","tel":"031-574-1388","addr":"경기도 남양주시 오남읍 오남리 415-1번지 위너스프라자 102호","category":"보건위생 - 미용원"},{"name":"백마크리닝(남양주11호점)","tel":"","addr":"경기도 남양주시 오남읍 오남리 415-1번지 위너스프라자 1층 3호","category":"수리서비스 - 세탁소"},{"name":"비에이치씨오남점","tel":"031-571-9982","addr":"경기도 남양주시 오남읍 오남리 415-1번지 105","category":"일반휴게음식 - 스넥"},{"name":"셀라미술교습소","tel":"031-516-8558","addr":"경기도 남양주시 오남읍 오남리 415-1번지 위너스프라자 104호","category":"학원 - 예·체능계학원"},{"name":"셀라실용음악학원","tel":"070-7555-3533","addr":"경기도 남양주시 오남읍 오남리 415-1번지","category":"회원제형태 - 학원"}]},{"lat":"37.688055723","long":"127.21310922","items":[{"name":"Perfect Skin&Body","tel":"031-553-1127","addr":"경기도 남양주시 오남읍 오남리 235-1번지 상가 나동 2층 201호","category":"보건위생 - 피부미용실"},{"name":"가세미용실","tel":"070-8225-9304","addr":"경기도 남양주시 오남읍 오남리 235-1번지 동남마트 106호","category":"보건위생 - 미용원"},{"name":"금채","tel":"031-527-7785","addr":"경기도 남양주시 오남읍 오남리 235-1번지 동남상가 1층 일부","category":"일반휴게음식 - 일반한식"},{"name":"조은반찬","tel":"031-571-5043","addr":"경기도 남양주시 오남읍 오남리 235-1번지 동남마트 나동","category":"음료식품 - 기타음료식품"}]},{"lat":"37.694052793","long":"127.21497427","items":[{"name":"Puppy yard(강아지마당)","tel":"031-574-9621","addr":"경기도 남양주시 오남읍 오남리 135-23번지","category":"일반휴게음식 - 일반한식"}]},{"lat":"37.679245104","long":"127.20752975","items":[{"name":"SH경정비","tel":"031-528-2003","addr":"경기도 남양주시 오남읍 오남리 501-2번지","category":"자동차정비 유지 - 자동차정비"},{"name":"와이에스자동차외형복원","tel":"031-575-5394","addr":"경기도 남양주시 오남읍 오남리 501-2번지","category":"자동차정비 유지 - 자동차정비"}]},{"lat":"37.678382963","long":"127.21108683","items":[{"name":"WOONICLAY도자기공방","tel":"031-528-0624","addr":"경기도 남양주시 오남읍 오남리 414-3","category":"문화.취미 - 민예·공예품"},{"name":"궁전돈우돌판구이","tel":"031-527-9484","addr":"경기도 남양주시 오남읍 오남리 414-3번지","category":"일반휴게음식 - 일반한식"},{"name":"백조세탁소","tel":"031-575-8811","addr":"경기도 남양주시 오남읍 오남리 414-3번지","category":"수리서비스 - 세탁소"},{"name":"쉼미용실","tel":"","addr":"경기도 남양주시 오남읍 오남리 414-3번지 1층","category":"보건위생 - 미용원"}]},{"lat":"37.679611654","long":"127.20916314","items":[{"name":"YOU HAIR (유헤어)","tel":"02-572-1056","addr":"경기도 남양주시 오남읍 오남리 496-1번지 106호","category":"보건위생 - 미용원"},{"name":"국가대표송기석퍼스널트레이닝","tel":"031-572-9682","addr":"경기도 남양주시 오남읍 오남리 496-1번지 2층","category":"레저업소 - 헬스클럽"},{"name":"김규리아트센터체험미술학원","tel":"031-571-5005","addr":"경기도 남양주시 오남읍 오남리 496-1번지 강남상가 302호","category":"학원 - 예·체능계학원"},{"name":"네일공주","tel":"031-574-6042","addr":"경기도 남양주시 오남읍 오남리 496-1번지 강남상가 204호","category":"보건위생 - 피부미용실"},{"name":"롯데리아 오남어람점","tel":"","addr":"경기도 남양주시 오남읍 오남리 496-1번지 105호","category":"일반휴게음식 - 서양음식"},{"name":"메디칼약손약국","tel":"031-528-9100","addr":"경기도 남양주시 오남읍 오남리 496-1번지 108호","category":"약국 - 약국"},{"name":"본죽 오남점","tel":"031-528-6287","addr":"경기도 남양주시 오남읍 오남리 496-1번지 강남상가 107호","category":"일반휴게음식 - 일반한식"},{"name":"신통치킨","tel":"031-572-5582","addr":"경기도 남양주시 오남읍 오남리 496-1번지 101호","category":"일반휴게음식 - 스넥"},{"name":"오대오포차(오남점)","tel":"031-575-7953","addr":"경기도 남양주시 오남읍 오남리 496-1번지 1층","category":"일반휴게음식 - 일반한식"},{"name":"짱 퍼스널 트레이닝 스튜디오","tel":"031-572-9682","addr":"경기도 남양주시 오남읍 오남리 496-1번지 강남상가 205호","category":"레저업소 - 헬스클럽"},{"name":"찰떡궁합","tel":"031-572-5009","addr":"경기도 남양주시 오남읍 오남리 496-1번지 102호","category":"음료식품 - 제과점"},{"name":"청년백정","tel":"031-000-0000","addr":"경기도 남양주시 오남읍 오남리 496-1번지 104호","category":"음료식품 - 정육점"},{"name":"청어람보습학원","tel":"031-574-0009","addr":"경기도 남양주시 오남읍 오남리 496-1번지 강남상가 301,303호","category":"학원 - 보습학원"},{"name":"청어람주니어학원","tel":"031-574-0009","addr":"경기도 남양주시 오남읍 오남리 496-1번지 강남상가 301호","category":"학원 - 보습학원"},{"name":"키다리 당구클럽","tel":"","addr":"경기도 남양주시 오남읍 오남리 496-1번지 201호","category":"레저업소 - 당 구 장"},{"name":"푸라닭 오남점","tel":"031-529-9658","addr":"경기도 남양주시 오남읍 오남리 496-1번지 외1필지","category":"일반휴게음식 - 일반한식"},{"name":"홍고막소고깃집","tel":"031-574-9589","addr":"경기도 남양주시 오남읍 오남리 496-1번지 1층 111호","category":"일반휴게음식 - 일반한식"}]},{"lat":"37.685610276","long":"127.20499643","items":[{"name":"i필름","tel":"031-528-0046","addr":"경기도 남양주시 오남읍 오남리 572-6번지","category":"건축자재 - 기타건축자재"}]},{"lat":"37.693574592","long":"127.21535841","items":[{"name":"가마로509","tel":"031-528-9394","addr":"경기도 남양주시 오남읍 오남리 129-7번지 101호","category":"일반휴게음식 - 일반한식"}]},{"lat":"37.690355881","long":"127.20114318","items":[{"name":"가메골손왕만두","tel":"031-527-1741","addr":"경기도 남양주시 오남읍 오남리 820","category":"음료식품 - 기타음료식품"}]},{"lat":"37.696608107","long":"127.20669305","items":[{"name":"가온유통","tel":"031-528-8883","addr":"경기도 남양주시 오남읍 오남리 755번지","category":"신변잡화 - 기타잡화"}]},{"lat":"37.678664952","long":"127.20955727","items":[{"name":"가온자리한의원","tel":"031-573-5607","addr":"경기도 남양주시 오남읍 오남리 476-2번지 3층 302호","category":"의원 - 한의원"},{"name":"고향당구장","tel":"031-575-0240","addr":"경기도 남양주시 오남읍 오남리 476-2번지 2층","category":"레저업소 - 당 구 장"},{"name":"브레이니영어학원","tel":"031-575-5220","addr":"경기도 남양주시 오남읍 오남리 476-2번지 동방프라자 3층","category":"회원제형태 - 학원"},{"name":"아뜰헤어살롱","tel":"031-513-9740","addr":"경기도 남양주시 오남읍 오남리 476-2번지 외1필지","category":"보건위생 - 미용원"},{"name":"엠에스(MS)노래뮤비방","tel":"031-527-3784","addr":"경기도 남양주시 오남읍 오남리 476-2번지 지층 101호","category":"용역 서비스 - 종합용역"},{"name":"줌 매점","tel":"031-527-3784","addr":"경기도 남양주시 오남읍 오남리 476-2번지","category":"음료식품 - 기타음료식품"},{"name":"중국성","tel":"031-527-6625","addr":"경기도 남양주시 오남읍 오남리 476-2번지 1층 202호","category":"일반휴게음식 - 중국식"},{"name":"코만도바베큐","tel":"031-527-1592","addr":"경기도 남양주시 오남읍 오남리 476-2번지 101호","category":"일반휴게음식 - 스넥"},{"name":"횡성생고기","tel":"031-528-4492","addr":"경기도 남양주시 오남읍 오남리 476-2번지 외1필지","category":"일반휴게음식 - 일반한식"}]},{"lat":"37.679888565","long":"127.21052423","items":[{"name":"가위나라","tel":"031-515-2255","addr":"경기도 남양주시 오남읍 오남리 408번지 1동 101호","category":"보건위생 - 미용원"}]},{"lat":"37.687608383","long":"127.21133935","items":[{"name":"가족노래방","tel":"031-574-7539","addr":"경기도 남양주시 오남읍 오남리 245-3번지","category":"레저업소 - 노 래 방"},{"name":"빛과그림사진관","tel":"031-574-1005","addr":"경기도 남양주시 오남읍 오남리 245-3번지","category":"광학제품 - 사진관"},{"name":"씽씽공조","tel":"070-8197-1010","addr":"경기도 남양주시 오남읍 오남리 245-3번지 1층","category":"전기제품 - 냉열기기"},{"name":"한양수도설비누수탐지화장실공사","tel":"031-527-3504","addr":"경기도 남양주시 오남읍 오남리 245-3번지","category":"수리서비스 - 기타수리서비스"}]},{"lat":"37.686356992","long":"127.21080301","items":[{"name":"간판없는 삼겹살","tel":"031-528-6263","addr":"경기도 남양주시 오남읍 오남리 261번지 105호","category":"일반휴게음식 - 일반한식"},{"name":"눈맞은 짝태 앤 노가리","tel":"031-572-7492","addr":"경기도 남양주시 오남읍 오남리 261번지 1층 106호","category":"일반휴게음식 - 주점"},{"name":"미랜드미용재료","tel":"031-527-1213","addr":"경기도 남양주시 오남읍 오남리 261번지 104호","category":"보건위생 - 미용재료"}]},{"lat":"37.695184868","long":"127.20653042","items":[{"name":"강천냉면푸드","tel":"031-528-7321","addr":"경기도 남양주시 오남읍 오남리 741번지","category":"일반휴게음식 - 일반한식"},{"name":"개미식당","tel":"031-696-5047","addr":"경기도 남양주시 오남읍 오남리 741번지","category":"일반휴게음식 - 일반한식"},{"name":"까꼬뽀꼬","tel":"031-573-7055","addr":"경기도 남양주시 오남읍 오남리 741번지","category":"보건위생 - 미용원"},{"name":"더 한끼","tel":"031-575-9455","addr":"경기도 남양주시 오남읍 오남리 741번지","category":"일반휴게음식 - 일반한식"},{"name":"친구네","tel":"031-528-0042","addr":"경기도 남양주시 오남읍 오남리 741번지 1층","category":"일반휴게음식 - 일반한식"}]},{"lat":"37.690416193","long":"127.21313856","items":[{"name":"개그스토리마트","tel":"031-528-7254","addr":"경기도 남양주시 오남읍 오남리 205-18번지","category":"유통업 영리 - 편 의 점"},{"name":"딜리스윗도넛","tel":"031-528-0221","addr":"경기도 남양주시 오남읍 오남리 205-18번지 101호","category":"일반휴게음식 - 서양음식"},{"name":"메디참빛약국","tel":"031-575-9944","addr":"경기도 남양주시 오남읍 오남리 205-18번지 102호","category":"약국 - 약국"},{"name":"모아정보통신","tel":"031-528-0911","addr":"경기도 남양주시 오남읍 오남리 205-18번지","category":"사무통신 - 컴퓨터"},{"name":"세븐일레븐오남우성타워점","tel":"031-1577-0711","addr":"경기도 남양주시 오남읍 오남리 205-18번지 1층 103,104호","category":"유통업 영리 - 편 의 점"},{"name":"오남연세의원","tel":"031-528-2001","addr":"경기도 남양주시 오남읍 오남리 205-18번지 1동 301호","category":"의원 - 의원"},{"name":"온아치과의원","tel":"031-528-2815","addr":"경기도 남양주시 오남읍 오남리 205-18번지 2층","category":"의원 - 치과의원"},{"name":"지인마취통증의학과의원","tel":"031-529-7579","addr":"경기도 남양주시 오남읍 오남리 205-18번지 5층 6층 외2필지","category":"의원 - 의원"},{"name":"진주열쇠설비","tel":"","addr":"경기도 남양주시 오남읍 오남리 205-18번지 방범초소옆","category":"수리서비스 - 신변잡화수리"}]},{"lat":"37.693302892","long":"127.21613996","items":[{"name":"건강한유통","tel":"031-529-5285","addr":"경기도 남양주시 오남읍 오남리 44-7","category":"음료식품 - 농·축·수산품"},{"name":"소머리국밥에반하다","tel":"031-000-0000","addr":"경기도 남양주시 오남읍 오남리 44-7번지 1층 일부호","category":"일반휴게음식 - 일반한식"},{"name":"채심촌 산약초건강원","tel":"031-542-6587","addr":"경기도 남양주시 오남읍 오남리 44-7번지 1층 일부","category":"건강식품 - 기타건강식품"}]},{"lat":"37.686356011","long":"127.21135852","items":[{"name":"건웅철물건재앵글","tel":"031-528-3859","addr":"경기도 남양주시 오남읍 오남리 264-1번지","category":"건축자재 - 목재·석재·철물"},{"name":"미정한방족발","tel":"031-528-0890","addr":"경기도 남양주시 오남읍 오남리 264-1번지 103호","category":"일반휴게음식 - 일반한식"}]},{"lat":"37.680219658","long":"127.21180613","items":[{"name":"경강사","tel":"","addr":"경기도 남양주시 오남읍 오남리 398번지 에메랄드연립주택 304호","category":"농업 - 농기계"},{"name":"디캐쳐(D.catcher)","tel":"031-573-2753","addr":"경기도 남양주시 오남읍 오남리 398번지 에메랄드연립주택 103호","category":"회원제형태 - 사무서비스"}]},{"lat":"37.689220377","long":"127.21175201","items":[{"name":"경기떡방앗간","tel":"031-575-0600","addr":"경기도 남양주시 오남읍 오남리 683-7 진주상가 지하2호","category":"음료식품 - 제과점"},{"name":"곽내과","tel":"031-529-7582","addr":"경기도 남양주시 오남읍 오남리 683-7번지 진주종합상가 2층 218호","category":"의원 - 의원"},{"name":"굿모닝베이커리","tel":"031-528-0075","addr":"경기도 남양주시 오남읍 오남리 683-7번지 진주상가 상가 142호","category":"음료식품 - 제과점"},{"name":"그리그리식당","tel":"031-527-6570","addr":"경기도 남양주시 오남읍 오남리 683-7번지 진주상가 지하 7호","category":"일반휴게음식 - 일반한식"},{"name":"그린호프","tel":"031-574-5589","addr":"경기도 남양주시 오남읍 오남리 683-7번지 진주상가 217호","category":"일반휴게음식 - 주점"},{"name":"기성문구","tel":"031-575-5723","addr":"경기도 남양주시 오남읍 오남리 683-7번지 진주상가 128호","category":"서적문구 - 문구용품"},{"name":"김밥나라","tel":"031-575-2599","addr":"경기도 남양주시 오남읍 오남리 683-7번지 진주상가 110호","category":"일반휴게음식 - 스넥"},{"name":"내방","tel":"031-575-8301","addr":"경기도 남양주시 오남읍 오남리 683-7번지 진주상가 132호","category":"보건위생 - 화장품"},{"name":"더사랑 뷰티샵","tel":"","addr":"경기도 남양주시 오남읍 오남리 683-7번지 진주상가 105-2호","category":"보건위생 - 피부미용실"},{"name":"델리명과","tel":"031-575-1787","addr":"경기도 남양주시 오남읍 오남리 683-7번지 진주상가 135호","category":"음료식품 - 제과점"},{"name":"로즈앤카라","tel":"070-4090-4277","addr":"경기도 남양주시 오남읍 오남리 683-7번지 2층 215-1호","category":"의류 - 정장"},{"name":"마이닷컴","tel":"031-527-9113","addr":"경기도 남양주시 오남읍 오남리 683-7 진주종합상가 142-3","category":"사무통신 - 컴퓨터"},{"name":"명가","tel":"031-574-2627","addr":"경기도 남양주시 오남읍 오남리 683-7번지 진주상가 지층 37호","category":"일반휴게음식 - 일반한식"},{"name":"물놀이집","tel":"031-575-3692","addr":"경기도 남양주시 오남읍 오남리 683-7","category":"일반휴게음식 - 일반한식"},{"name":"미드림아트센터","tel":"031-574-7829","addr":"경기도 남양주시 오남읍 오남리 683-7번지 진주상가 136호","category":"회원제형태 - 기타4"},{"name":"미소","tel":"031-573-8091","addr":"경기도 남양주시 오남읍 오남리 683-7번지 진주상가 114호","category":"의류 - 정장"},{"name":"박광수치과의원","tel":"031-575-2828","addr":"경기도 남양주시 오남읍 오남리 683-7번지 진주종합상가 216호","category":"의원 - 치과의원"},{"name":"반찬세상","tel":"031-575-8114","addr":"경기도 남양주시 오남읍 오남리 683-7번지 진주상가 B01호","category":"음료식품 - 기타음료식품"},{"name":"백세약국","tel":"031-575-7766","addr":"경기도 남양주시 오남읍 오남리 683-7번지 진주상가 140호","category":"약국 - 약국"},{"name":"빛나는 네일","tel":"070-8805-8407","addr":"경기도 남양주시 오남읍 오남리 683-7번지 진주상가 1층 129호","category":"보건위생 - 피부미용실"},{"name":"성훈종합설비","tel":"031-575-0312","addr":"경기도 남양주시 오남읍 오남리 683-7번지 진주종합상가","category":"건축자재 - 보일러·펌프·샷시"},{"name":"세나헤어","tel":"","addr":"경기도 남양주시 오남읍 오남리 683-7번지 진주상가 106호 우측","category":"보건위생 - 미용원"},{"name":"슴슴이네","tel":"000-1877-7668","addr":"경기도 남양주시 오남읍 오남리 683-7번지 진주상가 지하 23호","category":"음료식품 - 기타음료식품"},{"name":"신동화영어교습소","tel":"031-574-5559","addr":"경기도 남양주시 오남읍 오남리 683-7번지 진주상가 2층 206호","category":"회원제형태 - 학원"},{"name":"써니네일","tel":"","addr":"경기도 남양주시 오남읍 오남리 683-7번지 진주상가 1층 117호","category":"보건위생 - 피부미용실"},{"name":"아이러브피아노음악학원","tel":"031-513-7478","addr":"경기도 남양주시 오남읍 오남리 683-7번지 진주상가 207호","category":"학원 - 예·체능계학원"},{"name":"엘리스","tel":"031-528-6263","addr":"경기도 남양주시 오남읍 오남리 683-7번지 진주상가 1층 121호","category":"신변잡화 - 신발"},{"name":"옛맷돌즉석두부","tel":"031-574-3251","addr":"경기도 남양주시 오남읍 오남리 683-7 진주상가 지하17","category":"음료식품 - 기타음료식품"},{"name":"오드리","tel":"031-527-1146","addr":"경기도 남양주시 오남읍 오남리 683-7번지 진주상가 2층 217호","category":"보건위생 - 화장품"},{"name":"용인대 백호태권도장","tel":"031-529-3880","addr":"경기도 남양주시 오남읍 오남리 683-7번지 204~205호","category":"학원 - 예·체능계학원"},{"name":"우리명품죽","tel":"031-572-3433","addr":"경기도 남양주시 오남읍 오남리 683-7번지 진주상가 지층 8호","category":"일반휴게음식 - 일반한식"},{"name":"월드컴","tel":"031-575-4936","addr":"경기도 남양주시 오남읍 오남리 683-7번지 진주상가 1동 139호","category":"사무통신 - 컴퓨터"},{"name":"이신우헤어컬렉션(collection)","tel":"070-8118-0199","addr":"경기도 남양주시 오남읍 오남리 683-7번지 진주상가 1층 105호","category":"보건위생 - 미용원"},{"name":"주문진식당","tel":"031-575-1077","addr":"경기도 남양주시 오남읍 오남리 683-7번지 진주상가 지하 20호","category":"일반휴게음식 - 일반한식"},{"name":"진주메리야스","tel":"031-575-5568","addr":"경기도 남양주시 오남읍 오남리 683-7번지 진주상가 진주메리야스 127호","category":"의류 - 내의판매"},{"name":"진주설비","tel":"031-575-0088","addr":"경기도 남양주시 오남읍 오남리 683-7번지 1층 진주상가","category":"용역 서비스 - 종합용역"},{"name":"진주쌀상회","tel":"031-575-0101","addr":"경기도 남양주시 오남읍 오남리 683-7 진주상가지하1호","category":"음료식품 - 미곡상"},{"name":"진주쌀상회","tel":"031-575-0101","addr":"경기도 남양주시 오남읍 오남리 683-7번지 진주상가 지하 1호","category":"음료식품 - 기타음료식품"},{"name":"진주약국","tel":"031-575-4974","addr":"경기도 남양주시 오남읍 오남리 683-7번지 진주상가 143호","category":"약국 - 약국"},{"name":"진주중앙마트","tel":"031-575-6419","addr":"경기도 남양주시 오남읍 오남리 683-7번지 진주종합상가 123호","category":"유통업 영리 - 슈퍼마켓"},{"name":"진주헤어미용실","tel":"031-572-6535","addr":"경기도 남양주시 오남읍 오남리 683-7번지","category":"보건위생 - 미용원"},{"name":"캥거루점프팡팡키즈카페","tel":"031-529-3880","addr":"경기도 남양주시 오남읍 오남리 683-7번지 진주상가 202호","category":"레저업소 - 기타레져업소"},{"name":"쿠키빈","tel":"","addr":"경기도 남양주시 오남읍 오남리 683-7번지 진주상가 1층 130호","category":"서적문구 - 문구용품"},{"name":"하이하이","tel":"031-551-1957","addr":"경기도 남양주시 오남읍 오남리 683-7번지 진주상가 109호","category":"의류 - 정장"},{"name":"행복을여는의원","tel":"031-557-6134","addr":"경기도 남양주시 오남읍 오남리 683-7번지 진주사아 103동 104호","category":"의원 - 의원"},{"name":"헤어매니저","tel":"031-527-0360","addr":"경기도 남양주시 오남읍 오남리 683-7번지 진주상가 136호","category":"보건위생 - 미용원"},{"name":"현대슈퍼","tel":"031-575-2255","addr":"경기도 남양주시 오남읍 오남리 683-7번지 진주상가 135호","category":"유통업 영리 - 슈퍼마켓"}]},{"lat":"37.693855722","long":"127.21433878","items":[{"name":"경기오토자동차공업사","tel":"031-574-1186","addr":"경기도 남양주시 오남읍 오남리 131-4번지","category":"자동차정비 유지 - 자동차정비"},{"name":"맛깔집","tel":"031-529-0312","addr":"경기도 남양주시 오남읍 오남리 131-4번지","category":"일반휴게음식 - 일반한식"},{"name":"안나헤어스킨","tel":"031-574-0267","addr":"경기도 남양주시 오남읍 오남리 131-4번지 2층","category":"보건위생 - 미용원"},{"name":"용성태권도장","tel":"031-575-7854","addr":"경기도 남양주시 오남읍 오남리 131-4번지 3층","category":"학원 - 예·체능계학원"}]},{"lat":"37.692297269","long":"127.21422097","items":[{"name":"경춘짜장","tel":"031-575-7330","addr":"경기도 남양주시 오남읍 오남리 216-3번지 101,102호","category":"일반휴게음식 - 중국식"},{"name":"아이아울렛안경","tel":"031-528-9280","addr":"경기도 남양주시 오남읍 오남리 216-3번지 103호","category":"보건위생 - 안경"}]},{"lat":"37.678049027","long":"127.21141463","items":[{"name":"경희세계로학원","tel":"031-575-9442","addr":"경기도 남양주시 오남읍 오남리 435번지 2층","category":"학원 - 보습학원"},{"name":"수헤어","tel":"031-527-2147","addr":"경기도 남양주시 오남읍 오남리 435번지 204 신우아이딜상가2층204호~206호","category":"보건위생 - 미용원"}]},{"lat":"37.694131488","long":"127.22122184","items":[{"name":"경희스포츠클리닉센터","tel":"031-528-1544","addr":"경기도 남양주시 오남읍 오남리 30-5번지 1층","category":"보건위생 - 기타대인서비스"},{"name":"금항아리","tel":"031-527-8023","addr":"경기도 남양주시 오남읍 오남리 30-5번지 B1층 은항아리스파랜드 여탕 매점코너","category":"음료식품 - 기타음료식품"},{"name":"은항아리스파랜드","tel":"031-527-0048","addr":"경기도 남양주시 오남읍 오남리 30-5번지 외7필지","category":"회원제형태 - 기타4"},{"name":"플러스 시원해","tel":"031-529-8807","addr":"경기도 남양주시 오남읍 오남리 30-5번지","category":"보건위생 - 피부미용실"}]},{"lat":"37.685220161","long":"127.21171812","items":[{"name":"경희어린이집","tel":"031-528-6288","addr":"경기도 남양주시 오남읍 오남리 321-2번지 대광빌딩 3층","category":"학원 - 유치원"},{"name":"남양주우유종합대리점","tel":"031-574-7437","addr":"경기도 남양주시 오남읍 오남리 321-2번지 109호","category":"음료식품 - 기타음료식품"},{"name":"씨유오남대한점","tel":"031-510-0597","addr":"경기도 남양주시 오남읍 오남리 321-2번지 106호","category":"유통업 영리 - 편 의 점"},{"name":"피누트리","tel":"031-573-1810","addr":"경기도 남양주시 오남읍 오남리 321-2번지","category":"신변잡화 - 기타잡화"}]},{"lat":"37.694721126","long":"127.20897822","items":[{"name":"고기마루정육식당","tel":"031-574-5690","addr":"경기도 남양주시 오남읍 오남리 749-14번지","category":"일반휴게음식 - 일반한식"},{"name":"고기마루정육점","tel":"031-574-5690","addr":"경기도 남양주시 오남읍 오남리 749-14번지","category":"음료식품 - 정육점"},{"name":"김서방닭갈비해물떡찜","tel":"031-529-0013","addr":"경기도 남양주시 오남읍 오남리 749-14","category":"일반휴게음식 - 일반한식"},{"name":"하가네포장마차","tel":"031-528-9668","addr":"경기도 남양주시 오남읍 오남리 749-14번지 2호","category":"일반휴게음식 - 일반한식"}]},{"lat":"37.678492994","long":"127.20999889","items":[{"name":"고량진미","tel":"031-574-7464","addr":"경기도 남양주시 오남읍 오남리 454-10","category":"일반휴게음식 - 일반한식"},{"name":"글샘어린이논술학원","tel":"031-574-9584","addr":"경기도 남양주시 오남읍 오남리 454-10번지 청구행복프라자 204호 204호~206호","category":"학원 - 보습학원"},{"name":"망우리오징어집","tel":"031-516-3636","addr":"경기도 남양주시 오남읍 오남리 454-10번지 107호","category":"일반휴게음식 - 일반한식"},{"name":"빨간모자얼큰이불닭발","tel":"031-527-9285","addr":"경기도 남양주시 오남읍 오남리 454-10번지 103호","category":"일반휴게음식 - 일반한식"},{"name":"세천사애드","tel":"031-571-3405","addr":"경기도 남양주시 오남읍 오남리 454-10번지 207호","category":"용역 서비스 - 종합용역"},{"name":"엠토영어수학학원","tel":"031-574-7905","addr":"경기도 남양주시 오남읍 오남리 454-10번지 2층 일부","category":"학원 - 보습학원"},{"name":"여우네","tel":"","addr":"경기도 남양주시 오남읍 오남리 454-10번지 청구행복프라자 102호","category":"수리서비스 - 세탁소"},{"name":"용성종합체육관","tel":"031-527-8498","addr":"경기도 남양주시 오남읍 오남리 454-10번지 청구행복프라자 208동 209호","category":"학원 - 예·체능계학원"},{"name":"이슈헤어샵","tel":"031-573-1359","addr":"경기도 남양주시 오남읍 오남리 454-10번지 청구행복프라자 1층","category":"보건위생 - 미용원"}]},{"lat":"37.688908503","long":"127.2045859","items":[{"name":"고향간장게장,메기시레기찜","tel":"031-572-3742","addr":"경기도 남양주시 오남읍 오남리 583-4번지","category":"일반휴게음식 - 일반한식"}]},{"lat":"37.678548759","long":"127.20902417","items":[{"name":"골드스파","tel":"031-572-7888","addr":"경기도 남양주시 오남읍 오남리 475-8번지 신명프라자 지하2층","category":"보건위생 - 사우나"},{"name":"디자인누크 주식회사","tel":"031-527-5329","addr":"경기도 남양주시 오남읍 오남리 475-8번지 신명프라자 106호","category":"용역 서비스 - 종합용역"},{"name":"선견공예","tel":"031-574-1773","addr":"경기도 남양주시 오남읍 오남리 475-8번지 신명프라자 106호 b","category":"가구 - 일반가구"},{"name":"신명체형관리","tel":"031-852-0330","addr":"경기도 남양주시 오남읍 오남리 475-8번지 신명프라자 B2층","category":"회원제형태 - 기타4"},{"name":"아이스윔","tel":"031-572-7889","addr":"경기도 남양주시 오남읍 오남리 475-8번지 신명프라자 지하2층","category":"레저업소 - 수 영 장"},{"name":"오남하늘빛요양원","tel":"031-573-5501","addr":"경기도 남양주시 오남읍 오남리 475-8번지 신명프라자 101호","category":"기타의료기관 - 기타의료기관 및 기타"},{"name":"임프레스 (IMPRESS)","tel":"031-000-0000","addr":"경기도 남양주시 오남읍 오남리 475-8번지 신명프라자 B103호","category":"의류 - 정장"},{"name":"태현에너텍","tel":"031-593-9000","addr":"경기도 남양주시 오남읍 오남리 475-8번지 신명프라자 122호","category":"용역 서비스 - 기타용역서비스"},{"name":"하연테크","tel":"070-7578-9629","addr":"경기도 남양주시 오남읍 오남리 475-8번지 신명프라자 지하1층 113호 비","category":"서적문구 - 과학기자재"}]},{"lat":"37.696301403","long":"127.20163523","items":[{"name":"골뱅이컴","tel":"031-514-7474","addr":"경기도 남양주시 오남읍 오남리 761-9번지 1층 일부","category":"일반휴게음식 - 주점"},{"name":"누벨바그","tel":"070-8824-0698","addr":"경기도 남양주시 오남읍 오남리 761-9번지 101","category":"일반휴게음식 - 일반한식"},{"name":"멕시카나 양지점","tel":"031-572-9288","addr":"경기도 남양주시 오남읍 오남리 761-9번지 1층","category":"일반휴게음식 - 스넥"}]},{"lat":"37.692827185","long":"127.21514085","items":[{"name":"골프존파크 오남스타점","tel":"031-572-2552","addr":"경기도 남양주시 오남읍 오남리 185-4번지","category":"레저업소 - 스크린골프"}]},{"lat":"37.68046707","long":"127.20944891","items":[{"name":"곱사빠","tel":"031-574-7968","addr":"경기도 남양주시 오남읍 오남리 494-1번지","category":"일반휴게음식 - 일반한식"},{"name":"천안문손짜장","tel":"031-529-1881","addr":"경기도 남양주시 오남읍 오남리 494-1번지","category":"일반휴게음식 - 중국식"}]},{"lat":"37.680383993","long":"127.21058229","items":[{"name":"공감헤어","tel":"031-575-6544","addr":"경기도 남양주시 오남읍 오남리 404번지 1층","category":"보건위생 - 미용원"},{"name":"꾹꾹도시락 든든반찬","tel":"","addr":"경기도 남양주시 오남읍 오남리 404번지 1층 102일부호","category":"음료식품 - 기타음료식품"},{"name":"올리브","tel":"031-527-1003","addr":"경기도 남양주시 오남읍 오남리 404번지 104호","category":"의류 - 정장"}]},{"lat":"37.682104685","long":"127.21066644","items":[{"name":"공드리","tel":"070-4007-5736","addr":"경기도 남양주시 오남읍 오남리 346-3번지","category":"일반휴게음식 - 서양음식"},{"name":"오남커피","tel":"070-4151-0004","addr":"경기도 남양주시 오남읍 오남리 346-3번지","category":"일반휴게음식 - 서양음식"},{"name":"코스트빈","tel":"070-4151-0004","addr":"경기도 남양주시 오남읍 오남리 346-3번지","category":"일반휴게음식 - 서양음식"}]},{"lat":"37.684076886","long":"127.2111821","items":[{"name":"곽만근갈비탕 오남점","tel":"031-575-6898","addr":"경기도 남양주시 오남읍 오남리 318-2번지 1동 105호","category":"일반휴게음식 - 일반한식"},{"name":"어울림안경","tel":"031-575-8003","addr":"경기도 남양주시 오남읍 오남리 318-2번지 오남상가 1동 101호","category":"보건위생 - 안경"},{"name":"원조옛날통닭","tel":"031-527-7710","addr":"경기도 남양주시 오남읍 오남리 318-2번지 1동 104호","category":"일반휴게음식 - 스넥"}]},{"lat":"37.690857177","long":"127.21341191","items":[{"name":"교촌치킨(오남점)","tel":"031-574-9981","addr":"경기도 남양주시 오남읍 오남리 205-19번지 102호","category":"일반휴게음식 - 일반한식"},{"name":"동아오토바이","tel":"031-529-7573","addr":"경기도 남양주시 오남읍 오남리 205-19번지","category":"수리서비스 - 기타수리서비스"},{"name":"레몬당구장","tel":"031-574-2636","addr":"경기도 남양주시 오남읍 오남리 205-19번지 2층","category":"레저업소 - 당 구 장"},{"name":"블루클럽오남점","tel":"031-575-9600","addr":"경기도 남양주시 오남읍 오남리 205-19번지","category":"보건위생 - 미용원"},{"name":"옛포야","tel":"031-575-1842","addr":"경기도 남양주시 오남읍 오남리 205-19번지","category":"일반휴게음식 - 일반한식"},{"name":"정읍식당","tel":"031-571-7109","addr":"경기도 남양주시 오남읍 오남리 205-19번지 1층","category":"일반휴게음식 - 일반한식"}]},{"lat":"37.686130771","long":"127.21135789","items":[{"name":"구피샵 오남점","tel":"031-568-7080","addr":"경기도 남양주시 오남읍 오남리 264-5번지 2호","category":"보건위생 - 이용원"},{"name":"이브자리 오남점","tel":"031-574-1631","addr":"경기도 남양주시 오남읍 오남리 264-5","category":"직물 - 침구·수예점"}]},{"lat":"37.694162109","long":"127.21430563","items":[{"name":"국민밥차","tel":"070-4325-8006","addr":"경기도 남양주시 오남읍 오남리 135-8번지","category":"일반휴게음식 - 일반한식"},{"name":"덕산으뜸한의원","tel":"031-510-7820","addr":"경기도 남양주시 오남읍 오남리 135-8번지 2층","category":"의원 - 한의원"},{"name":"두울레","tel":"070-4300-8571","addr":"경기도 남양주시 오남읍 오남리 135-8번지 3층","category":"용역 서비스 - 사무서비스"}]},{"lat":"37.68130355","long":"127.21025611","items":[{"name":"군산식당","tel":"031-528-0729","addr":"경기도 남양주시 오남읍 오남리 396-7번지","category":"일반휴게음식 - 일반한식"},{"name":"미소 디자인","tel":"031-573-4075","addr":"경기도 남양주시 오남읍 오남리 396-7번지","category":"건축자재 - 인테리어전문"},{"name":"어내미포차","tel":"031-574-0043","addr":"경기도 남양주시 오남읍 오남리 396-7번지 1층","category":"일반휴게음식 - 일반한식"},{"name":"우리수산푸드마켓 주식회사","tel":"031-528-1226","addr":"경기도 남양주시 오남읍 오남리 396-7번지 536호","category":"일반휴게음식 - 일식·회집"},{"name":"전이야기","tel":"031-573-8880","addr":"경기도 남양주시 오남읍 오남리 396-7번지 1층","category":"일반휴게음식 - 일반한식"},{"name":"청담동 말자 싸롱","tel":"031-527-1233","addr":"경기도 남양주시 오남읍 오남리 396-7번지","category":"일반휴게음식 - 일반한식"},{"name":"초박집","tel":"031-528-9982","addr":"경기도 남양주시 오남읍 오남리 396-7번지 주 2동 1층","category":"일반휴게음식 - 일반한식"}]},{"lat":"37.693720192","long":"127.21455382","items":[{"name":"군산아구촌","tel":"031-575-5228","addr":"경기도 남양주시 오남읍 오남리 131-12번지","category":"일반휴게음식 - 일반한식"},{"name":"더원힐링카페","tel":"031-575-1004","addr":"경기도 남양주시 오남읍 오남리 131-12번지 황토침대전시장 2동","category":"의류 - 내의판매"},{"name":"종합축산물판매센터","tel":"031-526-6992","addr":"경기도 남양주시 오남읍 오남리 131-12번지 1층","category":"음료식품 - 정육점"},{"name":"헬로우돈","tel":"031-526-6992","addr":"경기도 남양주시 오남읍 오남리 131-12번지 1층","category":"일반휴게음식 - 일반한식"}]},{"lat":"37.693881856","long":"127.21483773","items":[{"name":"굽네치킨오남점","tel":"031-527-9492","addr":"경기도 남양주시 오남읍 오남리 130번지 102호","category":"일반휴게음식 - 스넥"},{"name":"화끈한친구들","tel":"","addr":"경기도 남양주시 오남읍 오남리 130번지 101호","category":"일반휴게음식 - 일반한식"},{"name":"힐스템","tel":"070-997-9970","addr":"경기도 남양주시 오남읍 오남리 130번지 201호","category":"보건위생 - 피부미용실"}]},{"lat":"37.679276869","long":"127.2099784","items":[{"name":"굿모닝디지털현상소","tel":"031-527-9855","addr":"경기도 남양주시 오남읍 오남리 477-1번지 굿모닝마트내사진관","category":"광학제품 - 사진관"},{"name":"오남약국","tel":"031-527-7768","addr":"경기도 남양주시 오남읍 오남리 477-1번지 롯데슈퍼 내","category":"약국 - 약국"},{"name":"오남이비인후과","tel":"031-574-7111","addr":"경기도 남양주시 오남읍 오남리 477-1번지","category":"의원 - 의원"},{"name":"크린토피아 남양주오남굿모닝점","tel":"031-529-3309","addr":"경기도 남양주시 오남읍 오남리 477-1번지","category":"수리서비스 - 세탁소"},{"name":"헤어스캔들","tel":"031-574-5480","addr":"경기도 남양주시 오남읍 오남리 477-1번지 1층","category":"보건위생 - 미용원"}]},{"lat":"37.678465368","long":"127.21033889","items":[{"name":"권욱헤어","tel":"031-528-6263","addr":"경기도 남양주시 오남읍 오남리 454-12번지 1층 102호","category":"보건위생 - 미용원"},{"name":"남자만들기","tel":"","addr":"경기도 남양주시 오남읍 오남리 454-12번지 102호","category":"보건위생 - 미용원"},{"name":"딱이네 반찬","tel":"031-572-1155","addr":"경기도 남양주시 오남읍 오남리 454-12번지 1층 일부","category":"음료식품 - 기타음료식품"},{"name":"본도넛","tel":"","addr":"경기도 남양주시 오남읍 오남리 454-12번지 106호","category":"일반휴게음식 - 서양음식"},{"name":"우리동네부동산중개","tel":"031-593-7001","addr":"경기도 남양주시 오남읍 오남리 454-12번지 103호","category":"용역 서비스 - 부동산 중개·임대"},{"name":"토토미용실","tel":"031-574-4543","addr":"경기도 남양주시 오남읍 오남리 454-12","category":"보건위생 - 미용원"}]},{"lat":"37.691108837","long":"127.21375275","items":[{"name":"그램그램(오남점)","tel":"031-528-0999","addr":"경기도 남양주시 오남읍 오남리 205-42번지 1층","category":"일반휴게음식 - 일반한식"}]},{"lat":"37.681828846","long":"127.20869315","items":[{"name":"그린119설비","tel":"070-8638-0498","addr":"경기도 남양주시 오남읍 오남리 519번지 한신2차아파트","category":"건축자재 - 인테리어전문"}]},{"lat":"37.679578026","long":"127.20778006","items":[{"name":"금강철물건재","tel":"031-527-5060","addr":"경기도 남양주시 오남읍 오남리 500번지 외1필지 107호","category":"건축자재 - 기타건축자재"},{"name":"브레이브힐","tel":"031-529-9682","addr":"경기도 남양주시 오남읍 오남리 500번지 2층 201,202호","category":"레저업소 - 헬스클럽"},{"name":"빨간지붕","tel":"031-000-0000","addr":"경기도 남양주시 오남읍 오남리 500번지","category":"의류 - 정장"},{"name":"사랑으로동물병원","tel":"031-528-7562","addr":"경기도 남양주시 오남읍 오남리 500번지 대박빌딩 1층","category":"기타의료기관 - 동물병원"},{"name":"사랑으로동물병원","tel":"031-528-7562","addr":"경기도 남양주시 오남읍 오남리 500번지 대박빌딩 1층","category":"문화.취미 - 애완동물"},{"name":"안경본데이","tel":"031-575-9773","addr":"경기도 남양주시 오남읍 오남리 500번지","category":"보건위생 - 안경"},{"name":"예랑버섯샤브칼국수","tel":"031-523-2708","addr":"경기도 남양주시 오남읍 오남리 500번지 1층","category":"일반휴게음식 - 일반한식"}]},{"lat":"37.690270846","long":"127.2034785","items":[{"name":"금호중고자동차매매상사","tel":"031-527-8920","addr":"경기도 남양주시 오남읍 오남리 815-15번지 1층","category":"자동차판매 - 중고자동차판매"},{"name":"주식회사 금호중고자동차","tel":"031-527-8920","addr":"경기도 남양주시 오남읍 오남리 815-15번지","category":"자동차판매 - 중고자동차판매"}]},{"lat":"37.68682539","long":"127.21086101","items":[{"name":"김밥천국","tel":"031-528-1170","addr":"경기도 남양주시 오남읍 오남리 259번지 103호","category":"일반휴게음식 - 스넥"},{"name":"스마일자동차공업사","tel":"031-575-4550","addr":"경기도 남양주시 오남읍 오남리 259번지","category":"자동차정비 유지 - 자동차정비"}]},{"lat":"37.681664829","long":"127.20974698","items":[{"name":"김상춘 당구아카데미","tel":"031-111-1111","addr":"경기도 남양주시 오남읍 오남리 490-1번지 2층","category":"레저업소 - 당 구 장"},{"name":"사라","tel":"031-573-7939","addr":"경기도 남양주시 오남읍 오남리 490-1번지 1층","category":"의류 - 정장"},{"name":"옛고을떡집","tel":"031-575-0405","addr":"경기도 남양주시 오남읍 오남리 490-1번지 1층 1호","category":"음료식품 - 제과점"},{"name":"옛고을방앗간","tel":"031-111-1111","addr":"경기도 남양주시 오남읍 오남리 490-1번지 상가 1층 1호","category":"음료식품 - 기타음료식품"},{"name":"옛고을방앗간","tel":"031-575-0420","addr":"경기도 남양주시 오남읍 오남리 490-1번지 1층 2호","category":"음료식품 - 기타음료식품"},{"name":"진미명태가","tel":"02-111-1111","addr":"경기도 남양주시 오남읍 오남리 490-1번지 1층 3,4호","category":"일반휴게음식 - 일반한식"},{"name":"찢어진 청바지","tel":"","addr":"경기도 남양주시 오남읍 오남리 490-1번지 5호","category":"의류 - 정장"}]},{"lat":"37.681438175","long":"127.21055122","items":[{"name":"김언니 싸롱","tel":"070-4045-2542","addr":"경기도 남양주시 오남읍 오남리 486-1번지 1층","category":"보건위생 - 미용원"}]},{"lat":"37.690359743","long":"127.21447624","items":[{"name":"꼬꼬마마","tel":"031-575-0780","addr":"경기도 남양주시 오남읍 오남리 203-18번지 한샘마트 지하1층 04호","category":"레저업소 - 기타레져업소"},{"name":"꾸미고(GGUMIGO)","tel":"031-527-8896","addr":"경기도 남양주시 오남읍 오남리 203-18번지 한샘마트 1층 31호","category":"신변잡화 - 액세서리"},{"name":"럭키락 볼링센터","tel":"031-573-0039","addr":"경기도 남양주시 오남읍 오남리 203-18번지 한샘마트 206동 210호","category":"레저업소 - 볼 링 장"},{"name":"럭키펍","tel":"031-573-0039","addr":"경기도 남양주시 오남읍 오남리 203-18번지 2층 한샘마트","category":"일반휴게음식 - 서양음식"},{"name":"마이애미휘트니스클럽","tel":"031-528-0994","addr":"경기도 남양주시 오남읍 오남리 203-18번지 한샘마트 3층 205호","category":"회원제형태 - 기타4"},{"name":"밍크","tel":"031-572-0472","addr":"경기도 남양주시 오남읍 오남리 203-18번지 한샘마트 지층 102호","category":"신변잡화 - 신발"},{"name":"블링포유","tel":"","addr":"경기도 남양주시 오남읍 오남리 203-18번지","category":"신변잡화 - 기타잡화"},{"name":"트라이","tel":"031-575-0780","addr":"경기도 남양주시 오남읍 오남리 203-18번지 105(오남리마트)","category":"의류 - 내의판매"},{"name":"후니","tel":"031-111-1111","addr":"경기도 남양주시 오남읍 오남리 203-18 지하1층 B30-1호","category":"의류 - 정장"}]},{"lat":"37.687797504","long":"127.21138523","items":[{"name":"꼴끼네식당","tel":"031-575-5771","addr":"경기도 남양주시 오남읍 오남리 245-1번지","category":"일반휴게음식 - 일반한식"},{"name":"백옥양꼬치","tel":"031-528-5586","addr":"경기도 남양주시 오남읍 오남리 245-1번지 2층","category":"일반휴게음식 - 일반한식"},{"name":"활어회포장전문 (활어장군)","tel":"031-512-6092","addr":"경기도 남양주시 오남읍 오남리 245-1번지","category":"일반휴게음식 - 일식·회집"}]},{"lat":"37.68499442","long":"127.21200091","items":[{"name":"꿈꾸는아이","tel":"070-7556-0144","addr":"경기도 남양주시 오남읍 오남리 321-1번지 1층","category":"회원제형태 - 서적"}]},{"lat":"37.677561546","long":"127.21195738","items":[{"name":"꿈빛나무어린이집[아이행복]","tel":"031-513-1766","addr":"경기도 남양주시 오남읍 오남리 439번지 신우아이딜아파트 204동 103호","category":"학원 - 유아원"}]},{"lat":"37.679576863","long":"127.20844888","items":[{"name":"나라동물병원","tel":"031-573-7675","addr":"경기도 남양주시 오남읍 오남리 499번지","category":"기타의료기관 - 동물병원"},{"name":"똥강아지","tel":"031-528-9282","addr":"경기도 남양주시 오남읍 오남리 499번지 금명빌딩 1층","category":"문화.취미 - 애완동물"},{"name":"세븐노래연습장","tel":"02-575-1195","addr":"경기도 남양주시 오남읍 오남리 499번지 금명빌딩 지층 1호","category":"레저업소 - 노 래 방"},{"name":"쓰담쓰담","tel":"031-528-7988","addr":"경기도 남양주시 오남읍 오남리 499번지 금명빌딩 1층","category":"문화.취미 - 애완동물"},{"name":"원조뼈다귀감자탕해장국","tel":"031-574-1467","addr":"경기도 남양주시 오남읍 오남리 499번지 금명빌딩 1층","category":"일반휴게음식 - 일반한식"},{"name":"자연밥상","tel":"031-571-7785","addr":"경기도 남양주시 오남읍 오남리 499번지 금명빌딩 1층 104호","category":"일반휴게음식 - 일반한식"},{"name":"제이제이","tel":"031-572-0790","addr":"경기도 남양주시 오남읍 오남리 499번지 금명빌딩 2층","category":"일반휴게음식 - 주점"},{"name":"태양부동산 공인중개사사무소","tel":"031-574-8325","addr":"경기도 남양주시 오남읍 오남리 499번지 금명빌딩 1층","category":"용역 서비스 - 부동산 중개·임대"},{"name":"허정원헤어아트","tel":"031-566-7950","addr":"경기도 남양주시 오남읍 오남리 499번지 금명빌딩 2층","category":"보건위생 - 미용원"}]},{"lat":"37.693298483","long":"127.20847541","items":[{"name":"나무어린이집[아이행복]","tel":"031-527-2279","addr":"경기도 남양주시 오남읍 오남리 718-7","category":"학원 - 유아원"}]},{"lat":"37.689192161","long":"127.21242084","items":[{"name":"나윤메디칼","tel":"031-515-1515","addr":"경기도 남양주시 오남읍 오남리 683-27번지 대웅프라자 1층 107호","category":"보건위생 - 의료용품"},{"name":"놀PC방","tel":"","addr":"경기도 남양주시 오남읍 오남리 683-27번지 대웅프라자 4층","category":"레저업소 - 기타레져업소"},{"name":"란화장품","tel":"031-557-0612","addr":"경기도 남양주시 오남읍 오남리 683-27번지 대웅프라자 109호","category":"보건위생 - 화장품"},{"name":"루빙하우스","tel":"031-574-2022","addr":"경기도 남양주시 오남읍 오남리 683-27번지 대웅프라자 501호","category":"학원 - 독서실"},{"name":"비올라","tel":"031-575-8305","addr":"경기도 남양주시 오남읍 오남리 683-27번지 대웅프라자 203호","category":"의류 - 정장"},{"name":"샘물(남양주진접지점)","tel":"031-575-8842","addr":"경기도 남양주시 오남읍 오남리 683-27번지 대웅 상가 115호","category":"유통업 영리 - 기타유통업"},{"name":"애미피부관리","tel":"031-529-4660","addr":"경기도 남양주시 오남읍 오남리 683-27번지 대웅 상가 215호","category":"회원제형태 - 기타4"},{"name":"앵콜 노래연습장","tel":"031-528-1236","addr":"경기도 남양주시 오남읍 오남리 683-27번지 310,311호","category":"레저업소 - 노 래 방"},{"name":"오남열쇠","tel":"031-574-6490","addr":"경기도 남양주시 오남읍 오남리 685-27번지 대웅상가 110호","category":"수리서비스 - 기타수리서비스"},{"name":"위드미 남양주진주점","tel":"","addr":"경기도 남양주시 오남읍 오남리 683-27번지 대웅프라자 205호 204호, 205호","category":"유통업 영리 - 편 의 점"},{"name":"천사드리","tel":"070-7553-0505","addr":"경기도 남양주시 오남읍 오남리 683-27번지 대동프라자 2층 206호","category":"신변잡화 - 신발"},{"name":"피자플러스","tel":"031-528-8284","addr":"경기도 남양주시 오남읍 오남리 683-27 대웅프라자2층201,207호","category":"일반휴게음식 - 서양음식"}]},{"lat":"37.692160782","long":"127.21496889","items":[{"name":"남대감댁물회","tel":"031-527-8418","addr":"경기도 남양주시 오남읍 오남리 191번지 105호","category":"일반휴게음식 - 일반한식"},{"name":"롤로코리아 오남점","tel":"031-575-8958","addr":"경기도 남양주시 오남읍 오남리 191번지 102호","category":"음료식품 - 기타음료식품"},{"name":"시크릿퓨전호프","tel":"070-7527-7981","addr":"경기도 남양주시 오남읍 오남리 191번지","category":"일반휴게음식 - 주점"},{"name":"하나산부인과","tel":"031-574-6141","addr":"경기도 남양주시 오남읍 오남리 191번지 2층","category":"의원 - 의원"}]},{"lat":"37.685690722","long":"127.21055174","items":[{"name":"남북통일","tel":"031-553-5900","addr":"경기도 남양주시 오남읍 오남리 602-10번지 1층 일부","category":"일반휴게음식 - 일반한식"},{"name":"남북통일","tel":"","addr":"경기도 남양주시 오남읍 오남리 602-10번지 1층","category":"일반휴게음식 - 일반한식"},{"name":"멕시카나","tel":"031-527-6448","addr":"경기도 남양주시 오남읍 오남리 602-10번지 1층","category":"일반휴게음식 - 스넥"},{"name":"장안뼈해장국수제왕돈가스","tel":"031-528-9758","addr":"경기도 남양주시 오남읍 오남리 602-10번지 1층 일부","category":"일반휴게음식 - 일반한식"},{"name":"한양당구클럽","tel":"031-575-1602","addr":"경기도 남양주시 오남읍 오남리 602-10번지","category":"레저업소 - 당 구 장"}]},{"lat":"37.687166733","long":"127.21144015","items":[{"name":"남현우정비센타","tel":"031-574-9698","addr":"경기도 남양주시 오남읍 오남리 247-4번지","category":"자동차정비 유지 - 자동차정비"},{"name":"달려라 맹","tel":"","addr":"경기도 남양주시 오남읍 오남리 247-4번지 1층","category":"일반휴게음식 - 주점"},{"name":"애견마을","tel":"031-529-0421","addr":"경기도 남양주시 오남읍 오남리 247-4번지","category":"문화.취미 - 애완동물"},{"name":"양푼이찌개전문","tel":"031-559-7018","addr":"경기도 남양주시 오남읍 오남리 247-4번지 1층","category":"일반휴게음식 - 일반한식"},{"name":"제주뒷고기","tel":"031-527-6692","addr":"경기도 남양주시 오남읍 오남리 247-4번지 1층","category":"일반휴게음식 - 일반한식"}]},{"lat":"37.693135737","long":"127.20880376","items":[{"name":"넛츠앤팜스","tel":"031-529-4416","addr":"경기도 남양주시 오남읍 오남리 730-3번지","category":"음료식품 - 농·축·수산품"},{"name":"오남에어컨","tel":"","addr":"경기도 남양주시 오남읍 오남리 730-3번지","category":"용역 서비스 - 기타용역서비스"}]},{"lat":"37.677577166","long":"127.20819398","items":[{"name":"노벨어린이집[아이행복]","tel":"031-574-7962","addr":"경기도 남양주시 오남읍 오남리 464번지 남양주오남리금호어울림","category":"학원 - 유아원"},{"name":"더스타일","tel":"031-527-0053","addr":"경기도 남양주시 오남읍 오남리 464 금호어울림상가 105","category":"보건위생 - 미용원"},{"name":"수윤유통","tel":"","addr":"경기도 남양주시 오남읍 오남리 464번지 남양주오남리금호어울림","category":"유통업 영리 - 기타유통업"},{"name":"신어울림음악학원","tel":"031-575-0078","addr":"경기도 남양주시 오남읍 오남리 464 금호어울림상가3층 303","category":"학원 - 예·체능계학원"},{"name":"히어롯(HEROT)","tel":"031-529-5040","addr":"경기도 남양주시 오남읍 오남리 464번지 남양주오남리금호어울림 상가동 3층 306호","category":"일반휴게음식 - 서양음식"},{"name":"히어롯(HEROT)","tel":"031-529-5040","addr":"경기도 남양주시 오남읍 오남리 464번지 남양주오남리금호어울림 상가동 3층 306호","category":"의류 - 정장"}]},{"lat":"37.678276026","long":"127.21041772","items":[{"name":"눈꽃마녀","tel":"031-527-9309","addr":"경기도 남양주시 오남읍 오남리 454-1","category":"문화.취미 - 문화취미기타"},{"name":"신우웰빙건강원","tel":"031-575-2634","addr":"경기도 남양주시 오남읍 오남리 454-1번지 107호","category":"건강식품 - 기타건강식품"},{"name":"오감오색미술학원","tel":"031-575-4801","addr":"경기도 남양주시 오남읍 오남리 454-1번지 외1필지 3층","category":"회원제형태 - 학원"},{"name":"오남리 돼지명가 두루치기","tel":"031-574-7376","addr":"경기도 남양주시 오남읍 오남리 454-1번지 105호 104호,105호","category":"일반휴게음식 - 일반한식"},{"name":"윤정현뮤직아카데미학원","tel":"031-574-3149","addr":"경기도 남양주시 오남읍 오남리 454-1번지 2층(외1필지영동프라자)","category":"학원 - 예·체능계학원"},{"name":"잔칫날","tel":"031-575-5593","addr":"경기도 남양주시 오남읍 오남리 454-1번지 109호 108호, 109호","category":"음료식품 - 제과점"},{"name":"중화포차","tel":"031-528-6263","addr":"경기도 남양주시 오남읍 오남리 454-1번지 1층","category":"일반휴게음식 - 중국식"},{"name":"하람수학학원","tel":"","addr":"경기도 남양주시 오남읍 오남리 454-1번지 2층 일부","category":"학원 - 보습학원"}]},{"lat":"37.686742822","long":"127.21169972","items":[{"name":"다민약국","tel":"031-575-7783","addr":"경기도 남양주시 오남읍 오남리 250-7번지","category":"약국 - 약국"}]},{"lat":"37.690187961","long":"127.20453268","items":[{"name":"다산1급종합정비","tel":"031-574-5336","addr":"경기도 남양주시 오남읍 오남리 808-1번지 외1필지","category":"자동차정비 유지 - 자동차정비"}]},{"lat":"37.697102708","long":"127.22227371","items":[{"name":"다송","tel":"031-528-1212","addr":"경기도 남양주시 오남읍 오남리 2-2","category":"일반휴게음식 - 일반한식"}]},{"lat":"37.694024664","long":"127.21052963","items":[{"name":"다올헤어","tel":"031-111-1111","addr":"경기도 남양주시 오남읍 오남리 720-40번지 영동빌딩 102호","category":"보건위생 - 미용원"},{"name":"똑수학교습소","tel":"031-512-7211","addr":"경기도 남양주시 오남읍 오남리 720-40번지 영동빌딩 202호","category":"회원제형태 - 학원"},{"name":"후다닭비어","tel":"031-528-0901","addr":"경기도 남양주시 오남읍 오남리 720-40번지 영동빌딩 104호","category":"일반휴게음식 - 주점"}]},{"lat":"37.694053546","long":"127.21455476","items":[{"name":"다이따에어컨","tel":"","addr":"경기도 남양주시 오남읍 오남리 135-10번지 1층 4호","category":"용역 서비스 - 기타용역서비스"},{"name":"두레촌","tel":"031-527-5192","addr":"경기도 남양주시 오남읍 오남리 135-10번지 1층","category":"일반휴게음식 - 일반한식"},{"name":"뚱이네꼬기","tel":"031-571-0060","addr":"경기도 남양주시 오남읍 오남리 135-10번지","category":"일반휴게음식 - 일반한식"},{"name":"빵구비어","tel":"070-7486-7863","addr":"경기도 남양주시 오남읍 오남리 135-10번지","category":"일반휴게음식 - 주점"},{"name":"선무회무용학원","tel":"031-573-4996","addr":"경기도 남양주시 오남읍 오남리 135-10","category":"학원 - 예·체능계학원"},{"name":"신쇼팽음악학원","tel":"031-575-3100","addr":"경기도 남양주시 오남읍 오남리 135-10번지 2층","category":"학원 - 예·체능계학원"},{"name":"홍이네 찬세상","tel":"","addr":"경기도 남양주시 오남읍 오남리 135-10번지","category":"일반휴게음식 - 일반한식"}]},{"lat":"37.684609611","long":"127.21052605","items":[{"name":"다이소 남양주오남점","tel":"031-528-6016","addr":"경기도 남양주시 오남읍 오남리 328번지","category":"신변잡화 - 기타잡화"},{"name":"새룩스조명","tel":"031-527-3644","addr":"경기도 남양주시 오남읍 오남리 328번지","category":"건축자재 - 조명기구"},{"name":"소파타운","tel":"031-575-4323","addr":"경기도 남양주시 오남읍 오남리 328번지 가비아쇼파전문매장","category":"가구 - 일반가구"}]},{"lat":"37.678798144","long":"127.21066856","items":[{"name":"다커스커피","tel":"02-1111-1111","addr":"경기도 남양주시 오남읍 오남리 413-3번지 앞동 1호","category":"음료식품 - 기타음료식품"},{"name":"썬 시스템","tel":"031-513-6050","addr":"경기도 남양주시 오남읍 오남리 413-3번지 가동","category":"신변잡화 - 가방"},{"name":"원도넛츠","tel":"031-567-2391","addr":"경기도 남양주시 오남읍 오남리 413-3번지","category":"일반휴게음식 - 서양음식"}]},{"lat":"37.687356956","long":"127.21086249","items":[{"name":"닭이봉닭갈비","tel":"031-528-5707","addr":"경기도 남양주시 오남읍 오남리 243번지","category":"일반휴게음식 - 일반한식"},{"name":"땡2전","tel":"031-529-0289","addr":"경기도 남양주시 오남읍 오남리 243번지 1동 103호","category":"일반휴게음식 - 일반한식"},{"name":"비타민","tel":"031-527-2422","addr":"경기도 남양주시 오남읍 오남리 243","category":"의류 - 기타의류"},{"name":"신나라 노래연습장","tel":"031-936-4833","addr":"경기도 남양주시 오남읍 오남리 243번지 201호","category":"레저업소 - 노 래 방"},{"name":"퍼피조아(PUPPYJOA)","tel":"031-000-0000","addr":"경기도 남양주시 오남읍 오남리 243번지 1층 106호","category":"문화.취미 - 애완동물"}]},{"lat":"37.680133278","long":"127.20969738","items":[{"name":"대박공인중개사","tel":"031-874-2900","addr":"경기도 남양주시 오남읍 오남리 495-1번지","category":"용역 서비스 - 부동산 중개·임대"},{"name":"진주카센타","tel":"031-575-1133","addr":"경기도 남양주시 오남읍 오남리 495-1번지","category":"자동차정비 유지 - 자동차부품"},{"name":"탈렌트노래연습장","tel":"031-528-6194","addr":"경기도 남양주시 오남읍 오남리 495-1","category":"레저업소 - 노 래 방"},{"name":"토방닭발","tel":"031-528-9909","addr":"경기도 남양주시 오남읍 오남리 495-1번지 외1필지","category":"일반휴게음식 - 일반한식"},{"name":"피자스쿨","tel":"031-573-7729","addr":"경기도 남양주시 오남읍 오남리 495-1","category":"일반휴게음식 - 서양음식"}]},{"lat":"37.689803198","long":"127.21332957","items":[{"name":"대박부대찌개","tel":"031-573-5702","addr":"경기도 남양주시 오남읍 오남리 202-3번지 홍인빌딩 105호","category":"일반휴게음식 - 일반한식"},{"name":"별당구클럽","tel":"","addr":"경기도 남양주시 오남읍 오남리 202-3번지 2층","category":"레저업소 - 당 구 장"},{"name":"오남이제마체질독서실","tel":"031-575-9535","addr":"경기도 남양주시 오남읍 오남리 202-3번지 2층","category":"학원 - 독서실"},{"name":"오페라","tel":"031-575-6230","addr":"경기도 남양주시 오남읍 오남리 202-3번지","category":"일반휴게음식 - 일반한식"},{"name":"즉석서울김밥","tel":"031-572-2799","addr":"경기도 남양주시 오남읍 오남리 202-3번지 1층 11호","category":"일반휴게음식 - 일반한식"},{"name":"토암골옛날막창","tel":"031-527-3043","addr":"경기도 남양주시 오남읍 오남리 202-3번지 101호 102","category":"일반휴게음식 - 일반한식"},{"name":"풍년떡","tel":"031-527-1886","addr":"경기도 남양주시 오남읍 오남리 202-3번지 104호","category":"음료식품 - 제과점"},{"name":"헤어올미용실","tel":"031-527-0246","addr":"경기도 남양주시 오남읍 오남리 202-3번지 103호","category":"보건위생 - 미용원"},{"name":"화통퓨전호프","tel":"031-571-1415","addr":"경기도 남양주시 오남읍 오남리 202-3번지 1층 9,10호","category":"일반휴게음식 - 일반한식"}]},{"lat":"37.694691921","long":"127.21528223","items":[{"name":"대산에스앤티산업","tel":"031-1111-1111","addr":"경기도 남양주시 오남읍 오남리 138-1번지 4층 406호","category":"건축자재 - 목재·석재·철물"}]},{"lat":"37.679580558","long":"127.2114756","items":[{"name":"대진기획","tel":"031-574-7792","addr":"경기도 남양주시 오남읍 오남리 412번지","category":"기타 - 기타 전문점"}]},{"lat":"37.695022402","long":"127.20670005","items":[{"name":"대한건강원","tel":"031-574-6676","addr":"경기도 남양주시 오남읍 오남리 742","category":"건강식품 - 기타건강식품"},{"name":"창진하우징디자인공방","tel":"02-934-2301","addr":"경기도 남양주시 오남읍 오남리 742번지","category":"용역 서비스 - 기타용역서비스"}]},{"lat":"37.69316615","long":"127.21200118","items":[{"name":"대한예수교장로회전인교회","tel":"031-574-7188","addr":"경기도 남양주시 오남읍 오남리 175-1외2필지","category":"기타 - 비영리/대상"}]},{"lat":"37.679136776","long":"127.21277798","items":[{"name":"더 D왈G #","tel":"031-527-3928","addr":"경기도 남양주시 오남읍 오남리 425번지 신일 상가 102호","category":"문화.취미 - 애완동물"},{"name":"신도헤어샵","tel":"031-511-9343","addr":"경기도 남양주시 오남읍 오남리 425번지 신일해피트리 상가동 101호","category":"보건위생 - 미용원"}]},{"lat":"37.685636059","long":"127.20572207","items":[{"name":"더달달","tel":"031-572-7782","addr":"경기도 남양주시 오남읍 오남리 591-5번지 나동 1층","category":"일반휴게음식 - 일반한식"},{"name":"말랑키즈 슬라임 앤 폰데코","tel":"031-877-4600","addr":"경기도 남양주시 오남읍 오남리 591-5번지 가동 2층 일부호","category":"일반휴게음식 - 일반한식"},{"name":"킨 블라인드","tel":"070-8877-3336","addr":"경기도 남양주시 오남읍 오남리 591-5번지 나동 202호","category":"직물 - 카페트,커튼,천막,지물"},{"name":"트루맨컴퍼니","tel":"031-572-7782","addr":"경기도 남양주시 오남읍 오남리 591-5번지 나동 1층","category":"자동차정비 유지 - 자동차시트·타이어"}]},{"lat":"37.688885392","long":"127.2126694","items":[{"name":"더담아 아이스크림 할인점","tel":"02-111-1111","addr":"경기도 남양주시 오남읍 오남리 201-2번지 7,8호","category":"음료식품 - 제과점"},{"name":"산벌떡낙지","tel":"031-575-9768","addr":"경기도 남양주시 오남읍 오남리 201-2번지 1층","category":"일반휴게음식 - 일반한식"},{"name":"에코상사","tel":"070-4567-4444","addr":"경기도 남양주시 오남읍 오남리 201-2번지 104호","category":"건축자재 - 인테리어전문"},{"name":"페리카나치킨 오남점","tel":"031-575-9292","addr":"경기도 남양주시 오남읍 오남리 201-2번지 5호","category":"일반휴게음식 - 스넥"}]},{"lat":"37.691161616","long":"127.21446718","items":[{"name":"더빠","tel":"031-574-9993","addr":"경기도 남양주시 오남읍 오남리 203-2번지 2층","category":"일반휴게음식 - 일반한식"},{"name":"마임오남지사","tel":"031-528-8016","addr":"경기도 남양주시 오남읍 오남리 203-2번지","category":"보건위생 - 화장품"},{"name":"상쾌한이비인후과의원","tel":"031-528-5075","addr":"경기도 남양주시 오남읍 오남리 203-2번지 17상가 2층","category":"의원 - 의원"},{"name":"전인정보통신","tel":"031-575-2181","addr":"경기도 남양주시 오남읍 오남리 203-2번지 1층 101호","category":"사무통신 - 통신기기"},{"name":"짝 뮤비영상제작실","tel":"031-574-9993","addr":"경기도 남양주시 오남읍 오남리 203-2번지 2층","category":"용역 서비스 - 종합용역"},{"name":"카케로아","tel":"031-575-5949","addr":"경기도 남양주시 오남읍 오남리 203-2번지 103호","category":"건축자재 - 조명기구"},{"name":"토브상사","tel":"031-529-8585","addr":"경기도 남양주시 오남읍 오남리 203-2번지","category":"건축자재 - 페인트"}]},{"lat":"37.696917589","long":"127.19952789","items":[{"name":"더엔터프로모션","tel":"","addr":"경기도 남양주시 오남읍 오남리 891번지 오남아이파크 107동 502호","category":"용역 서비스 - 종합용역"},{"name":"명품아이","tel":"070-7569-4820","addr":"경기도 남양주시 오남읍 오남리 891번지 오남아이파크 107동 1003호","category":"회원제형태 - 서적"},{"name":"비요가(VI YOGA)","tel":"031-000-0000","addr":"경기도 남양주시 오남읍 오남리 891번지 오남아이파크 107동 102호","category":"레저업소 - 헬스클럽"},{"name":"아이꺼","tel":"031-575-3488","addr":"경기도 남양주시 오남읍 오남리 891번지 오남아이파크 107동 1003호","category":"회원제형태 - 서적"},{"name":"코리아딜라메게임즈","tel":"070-8860-1935","addr":"경기도 남양주시 오남읍 오남리 891번지 오남아이파크 107동 203호","category":"서적문구 - 일반서적"}]},{"lat":"37.681217406","long":"127.2131126","items":[{"name":"더월드 카크리닝","tel":"031-528-8534","addr":"경기도 남양주시 오남읍 오남리 386-14번지 삼성오투빌 102동 302호","category":"자동차정비 유지 - 세차장"},{"name":"레인보우유아체육","tel":"031-574-2147","addr":"경기도 남양주시 오남읍 오남리 386-14번지 오투빌 102동 502호","category":"학원 - 기타 교육기관"},{"name":"연우에어컨","tel":"","addr":"경기도 남양주시 오남읍 오남리 386-14번지 오투빌 102동 202호","category":"용역 서비스 - 기타용역서비스"}]},{"lat":"37.696553059","long":"127.20199874","items":[{"name":"더퀸즈네일","tel":"031-527-5262","addr":"경기도 남양주시 오남읍 오남리 761번지 파크빌 101호","category":"보건위생 - 피부미용실"},{"name":"성안유통","tel":"031-573-6980","addr":"경기도 남양주시 오남읍 오남리 761번지 301호","category":"유통업 영리 - 기타유통업"},{"name":"퍼피보이스","tel":"","addr":"경기도 남양주시 오남읍 오남리 761번지 401호","category":"문화.취미 - 애완동물"}]},{"lat":"37.697273426","long":"127.22252367","items":[{"name":"동다송","tel":"031-528-1212","addr":"경기도 남양주시 오남읍 오남리 2-1","category":"일반휴게음식 - 일반한식"}]},{"lat":"37.695581818","long":"127.20622537","items":[{"name":"동서가구","tel":"031-574-5300","addr":"경기도 남양주시 오남읍 오남리 756-1번지 라동","category":"가구 - 일반가구"},{"name":"라벤나","tel":"031-575-3484","addr":"경기도 남양주시 오남읍 오남리 756-1","category":"가구 - 일반가구"},{"name":"에몬스가구","tel":"031-574-5070","addr":"경기도 남양주시 오남읍 오남리 756-1번지","category":"가구 - 일반가구"}]},{"lat":"37.687995114","long":"127.2117259","items":[{"name":"동아앵글","tel":"031-575-7723","addr":"경기도 남양주시 오남읍 오남리 246번지","category":"건축자재 - 목재·석재·철물"},{"name":"착한주막골","tel":"031-573-3899","addr":"경기도 남양주시 오남읍 오남리 246번지","category":"일반휴게음식 - 일반한식"}]},{"lat":"37.693380201","long":"127.20811282","items":[{"name":"두레농산","tel":"031-575-0634","addr":"경기도 남양주시 오남읍 오남리 719번지","category":"음료식품 - 농·축·수산품"}]},{"lat":"37.69008209","long":"127.21355711","items":[{"name":"두레밥상","tel":"031-572-0675","addr":"경기도 남양주시 오남읍 오남리 202-8번지 101호","category":"일반휴게음식 - 일반한식"}]},{"lat":"37.685413653","long":"127.20928124","items":[{"name":"두원종합기계","tel":"031-513-3923","addr":"경기도 남양주시 오남읍 오남리 540-1번지","category":"기타 - 기계공구"},{"name":"라퐁텐&더베이크","tel":"031-512-5838","addr":"경기도 남양주시 오남읍 오남리 540-1번지 1층 일부","category":"일반휴게음식 - 서양음식"}]},{"lat":"37.696442542","long":"127.20341576","items":[{"name":"드루와(De Ruwa)","tel":"031-528-6263","addr":"경기도 남양주시 오남읍 오남리 757번지 1층","category":"일반휴게음식 - 주점"},{"name":"행복을주는한식뷔페","tel":"031-529-9998","addr":"경기도 남양주시 오남읍 오남리 757번지 2층","category":"일반휴게음식 - 일반한식"}]},{"lat":"37.696524995","long":"127.20261094","items":[{"name":"드림마트","tel":"031-573-0282","addr":"경기도 남양주시 오남읍 오남리 757-2번지 1층","category":"유통업 영리 - 슈퍼마켓"}]},{"lat":"37.696548291","long":"127.19947022","items":[{"name":"디디치킨오남점","tel":"031-574-4593","addr":"경기도 남양주시 오남읍 오남리 891번지 오남아이파크 상가동 202호","category":"일반휴게음식 - 스넥"},{"name":"모아네일","tel":"","addr":"경기도 남양주시 오남읍 오남리 891번지 오남아이파크 상가동 202호","category":"보건위생 - 피부미용실"},{"name":"뮤직차일드음악교습소","tel":"031-252-1232","addr":"경기도 남양주시 오남읍 오남리 891번지 오남아이파크 상가동 1층 204호","category":"학원 - 예·체능계학원"},{"name":"별헤어","tel":"031-575-9821","addr":"경기도 남양주시 오남읍 오남리 891번지 현대아이파크 상가 201호","category":"보건위생 - 미용원"},{"name":"씨유오남아이파크점","tel":"080-080-3663","addr":"경기도 남양주시 오남읍 오남리 891번지 오남아이파크 상가동 105, 106호","category":"유통업 영리 - 편 의 점"},{"name":"아이꼬꼬마어린이집[아이행복]","tel":"031-571-1979","addr":"경기도 남양주시 오남읍 오남리 891번지","category":"학원 - 유아원"},{"name":"아이파크해법수학교습소","tel":"031-563-2233","addr":"경기도 남양주시 오남읍 오남리 891번지 오남아이파크 상가동 202호","category":"학원 - 보습학원"},{"name":"플로린","tel":"031-575-9525","addr":"경기도 남양주시 오남읍 오남리 891번지 오남아이파크 상가 101호","category":"보건위생 - 미용원"},{"name":"홍익키즈미술교습소","tel":"031-515-9055","addr":"경기도 남양주시 오남읍 오남리 891번지 오남아이파크 2층 203호","category":"학원 - 예·체능계학원"}]},{"lat":"37.695633661","long":"127.20224572","items":[{"name":"디아이원 주식회사","tel":"031-0000-0000","addr":"경기도 남양주시 오남읍 오남리 765-3번지 두산아파트 203호","category":"용역 서비스 - 소프트웨어"},{"name":"미가밥상","tel":"031-575-0255","addr":"경기도 남양주시 오남읍 오남리 765-3번지 104호,106호","category":"일반휴게음식 - 일반한식"}]},{"lat":"37.697192159","long":"127.21272682","items":[{"name":"디에이치 컴퍼니","tel":"031-445-3828","addr":"경기도 남양주시 오남읍 오남리 108-21번지 사동 2층","category":"음료식품 - 기타음료식품"}]},{"lat":"37.685331932","long":"127.20964379","items":[{"name":"디자인퍼니처 어반(URBAN)","tel":"031-591-0336","addr":"경기도 남양주시 오남읍 오남리 600번지 1층","category":"가구 - 기타가구"},{"name":"영스네일","tel":"031-574-2560","addr":"경기도 남양주시 오남읍 오남리 600번지","category":"보건위생 - 피부미용실"},{"name":"카페잉거13(오남점)","tel":"031-575-1533","addr":"경기도 남양주시 오남읍 오남리 600번지","category":"일반휴게음식 - 서양음식"}]},{"lat":"37.683325853","long":"127.21300518","items":[{"name":"디자인피오피(DESIGN POP)","tel":"031-577-0743","addr":"경기도 남양주시 오남읍 오남리 315-1번지 유호아파트","category":"용역 서비스 - 사무서비스"},{"name":"아가페머리방","tel":"031-573-3990","addr":"경기도 남양주시 오남읍 오남리 315-1번지 유호 상가 104호","category":"보건위생 - 미용원"}]},{"lat":"37.682411151","long":"127.21058794","items":[{"name":"러블리독","tel":"031-529-0386","addr":"경기도 남양주시 오남읍 오남리 345-1번지 가동 주1호","category":"문화.취미 - 애완동물"},{"name":"바글바글","tel":"031-529-8937","addr":"경기도 남양주시 오남읍 오남리 345-1번지 나동","category":"일반휴게음식 - 스넥"},{"name":"스시설화","tel":"031-572-6560","addr":"경기도 남양주시 오남읍 오남리 345-1번지 나동 2호","category":"일반휴게음식 - 일식·회집"},{"name":"오늘마카롱","tel":"031-979-3434","addr":"경기도 남양주시 오남읍 오남리 345-1번지 나동 102호","category":"음료식품 - 기타음료식품"},{"name":"지지","tel":"031-8034-6161","addr":"경기도 남양주시 오남읍 오남리 345-1번지","category":"의류 - 정장"},{"name":"지지헤어","tel":"070-4064-3494","addr":"경기도 남양주시 오남읍 오남리 345-1번지 가동 102호","category":"보건위생 - 미용원"}]},{"lat":"37.691297694","long":"127.21394603","items":[{"name":"레갈로카페앤비어","tel":"031-527-1118","addr":"경기도 남양주시 오남읍 오남리 205-6번지 1층 일부","category":"일반휴게음식 - 서양음식"},{"name":"양계장집아들","tel":"031-529-7796","addr":"경기도 남양주시 오남읍 오남리 205-6번지 106호","category":"일반휴게음식 - 스넥"},{"name":"옥화식당","tel":"031-529-9296","addr":"경기도 남양주시 오남읍 오남리 205-6번지","category":"일반휴게음식 - 일반한식"},{"name":"참치대장","tel":"031-527-0892","addr":"경기도 남양주시 오남읍 오남리 205-6번지 107동 108호","category":"일반휴게음식 - 일식·회집"},{"name":"표향원","tel":"031-574-9955","addr":"경기도 남양주시 오남읍 오남리 205-6번지 109호","category":"일반휴게음식 - 중국식"}]},{"lat":"37.694634172","long":"127.22222109","items":[{"name":"레이나","tel":"031-575-5197","addr":"경기도 남양주시 오남읍 오남리 23-12번지","category":"용역 서비스 - 부동산 중개·임대"}]},{"lat":"37.693410092","long":"127.22155987","items":[{"name":"레이크호텔","tel":"031-575-5528","addr":"경기도 남양주시 오남읍 오남리 33-5번지 5,6,7","category":"숙박업 - 여관/기타숙박업"},{"name":"레이크호텔","tel":"070-000-0000","addr":"경기도 남양주시 오남읍 오남리 33-5번지 지하1층-지상2층","category":"숙박업 - 여관/기타숙박업"}]},{"lat":"37.680662751","long":"127.21088915","items":[{"name":"렌탈프로(rental professional)","tel":"031-529-8227","addr":"경기도 남양주시 오남읍 오남리 402-1번지","category":"용역 서비스 - 종합용역"}]},{"lat":"37.685412879","long":"127.20972337","items":[{"name":"로그인남양주오남점","tel":"031-445-9988","addr":"경기도 남양주시 오남읍 오남리 600-1번지","category":"유통업 영리 - 편 의 점"},{"name":"펠리체 스킨앤바디","tel":"031-528-6263","addr":"경기도 남양주시 오남읍 오남리 600-1번지 102동 201호","category":"보건위생 - 피부미용실"}]},{"lat":"37.695184291","long":"127.20158689","items":[{"name":"로뎀나무어린이집[아이행복]","tel":"031-576-2780","addr":"경기도 남양주시 오남읍 오남리 889번지 남양주오남푸르지오 110동 101호","category":"학원 - 유아원"}]},{"lat":"37.699269108","long":"127.21511386","items":[{"name":"리버티벨","tel":"031-533-5888","addr":"경기도 남양주시 오남읍 오남리 98-4","category":"문화.취미 - 애완동물"}]},{"lat":"37.682357393","long":"127.21041775","items":[{"name":"리치랜드오남점","tel":"031-527-1445","addr":"경기도 남양주시 오남읍 오남리 346-5번지 1층","category":"직물 - 침구·수예점"}]},{"lat":"37.693052461","long":"127.19952902","items":[{"name":"리페어오토밋션","tel":"031-574-4907","addr":"경기도 남양주시 오남읍 오남리 775-1번지 2,3호","category":"자동차정비 유지 - 자동차정비"},{"name":"배가네닭갈비","tel":"031-575-9553","addr":"경기도 남양주시 오남읍 오남리 775-1번지 경복프라자 101동 102-1호","category":"일반휴게음식 - 일반한식"},{"name":"세자매식당","tel":"031-575-6992","addr":"경기도 남양주시 오남읍 오남리 775-1번지 103호","category":"일반휴게음식 - 일반한식"},{"name":"알바트로스소파","tel":"031-574-3311","addr":"경기도 남양주시 오남읍 오남리 775-1번지 (경복프라자101,102-1호)","category":"가구 - 일반가구"},{"name":"한울정육식당","tel":"031-529-7447","addr":"경기도 남양주시 오남읍 오남리 775-1번지","category":"일반휴게음식 - 일반한식"},{"name":"한울축산","tel":"031-529-7447","addr":"경기도 남양주시 오남읍 오남리 775-1번지 106호","category":"음료식품 - 정육점"}]},{"lat":"37.689221172","long":"127.20613998","items":[{"name":"마루유치원[아이행복]","tel":"031-574-3322","addr":"경기도 남양주시 오남읍 오남리 587-23번지","category":"학원 - 유치원"}]},{"lat":"37.682853459","long":"127.21011305","items":[{"name":"만이갈비","tel":"031-572-8744","addr":"경기도 남양주시 오남읍 오남리 530-2번지 나동 1층","category":"일반휴게음식 - 일반한식"},{"name":"맘스터치 오남점","tel":"031-527-7502","addr":"경기도 남양주시 오남읍 오남리 530-2번지 가동","category":"일반휴게음식 - 서양음식"},{"name":"토모헤어","tel":"031-527-7175","addr":"경기도 남양주시 오남읍 오남리 530-2번지 외1필지","category":"보건위생 - 미용원"}]},{"lat":"37.682439495","long":"127.20983982","items":[{"name":"맛자랑떡볶이","tel":"031-574-3414","addr":"경기도 남양주시 오남읍 오남리 529-9번지 104호","category":"일반휴게음식 - 스넥"},{"name":"오남축산물","tel":"031-593-9129","addr":"경기도 남양주시 오남읍 오남리 529-9번지 203호","category":"음료식품 - 정육점"},{"name":"주식회사 진우티엔씨","tel":"031-559-1234","addr":"경기도 남양주시 오남읍 오남리 529-9번지","category":"자동차판매 - 중고자동차판매"},{"name":"회사랑","tel":"031-529-7704","addr":"경기도 남양주시 오남읍 오남리 529-9번지 102호","category":"일반휴게음식 - 일반한식"}]},{"lat":"37.694355862","long":"127.21677792","items":[{"name":"메신져","tel":"031-528-5371","addr":"경기도 남양주시 오남읍 오남리 50-2번지 지하1층","category":"일반휴게음식 - 주점"},{"name":"올앤농산물","tel":"031-575-8625","addr":"경기도 남양주시 오남읍 오남리 50-2번지","category":"음료식품 - 기타음료식품"}]},{"lat":"37.691575405","long":"127.21483116","items":[{"name":"메타","tel":"031-575-9375","addr":"경기도 남양주시 오남읍 오남리 191-4번지 1층","category":"가구 - 일반가구"}]},{"lat":"37.685270274","long":"127.20361242","items":[{"name":"메탈아트 에이치","tel":"031-527-3200","addr":"경기도 남양주시 오남읍 오남리 572-3번지 가동","category":"건축자재 - 목재·석재·철물"}]},{"lat":"37.694551507","long":"127.21319559","items":[{"name":"명사진관","tel":"031-575-3302","addr":"경기도 남양주시 오남읍 오남리 133-1번지 모던빌딩 1층","category":"광학제품 - 사진관"},{"name":"비비큐오남점","tel":"031-529-0222","addr":"경기도 남양주시 오남읍 오남리 133-1번지 105호","category":"일반휴게음식 - 스넥"}]},{"lat":"37.679857481","long":"127.20769014","items":[{"name":"명품아이","tel":"070-7725-5694","addr":"경기도 남양주시 오남읍 오남리 503-4번지","category":"회원제형태 - 서적"},{"name":"아마존컴퍼니","tel":"031-575-0922","addr":"경기도 남양주시 오남읍 오남리 503-4번지 2동","category":"자동차정비 유지 - 자동차시트·타이어"}]},{"lat":"37.683105588","long":"127.2101931","items":[{"name":"명품짬뽕","tel":"031-527-7882","addr":"경기도 남양주시 오남읍 오남리 531번지","category":"일반휴게음식 - 중국식"},{"name":"미트스토리","tel":"031-571-3592","addr":"경기도 남양주시 오남읍 오남리 531번지","category":"일반휴게음식 - 일반한식"},{"name":"바우네나주곰탕","tel":"031-575-4792","addr":"경기도 남양주시 오남읍 오남리 531번지","category":"일반휴게음식 - 일반한식"},{"name":"욕쟁이할매순대국","tel":"031-573-5288","addr":"경기도 남양주시 오남읍 오남리 531번지","category":"일반휴게음식 - 일반한식"},{"name":"헤어뷰","tel":"031-529-3522","addr":"경기도 남양주시 오남읍 오남리 531번지 1층","category":"보건위생 - 미용원"},{"name":"훈이네식당","tel":"02-575-1919","addr":"경기도 남양주시 오남읍 오남리 531번지 외1필지","category":"일반휴게음식 - 일반한식"}]},{"lat":"37.694912294","long":"127.21296984","items":[{"name":"모던광고","tel":"031-575-2982","addr":"경기도 남양주시 오남읍 오남리 133-1","category":"건축자재 - 인테리어전문"},{"name":"한솔광고기획","tel":"031-527-4297","addr":"경기도 남양주시 오남읍 오남리 133-1","category":"건축자재 - 인테리어전문"}]},{"lat":"37.684519994","long":"127.21025372","items":[{"name":"모두학원","tel":"031-528-1109","addr":"경기도 남양주시 오남읍 오남리 536번지 4층","category":"학원 - 보습학원"},{"name":"미래연피아노미술학원","tel":"031-527-9090","addr":"경기도 남양주시 오남읍 오남리 536번지 2층","category":"학원 - 예·체능계학원"},{"name":"힐링9988","tel":"031-565-5002","addr":"경기도 남양주시 오남읍 오남리 536번지 호정빌딩 1층 104호","category":"회원제형태 - 레져업소"}]},{"lat":"37.681915684","long":"127.21055255","items":[{"name":"몬스터영어학원","tel":"031-527-4552","addr":"경기도 남양주시 오남읍 오남리 489-2번지 3동","category":"학원 - 외국어학원"},{"name":"웰빙치과","tel":"031-574-2080","addr":"경기도 남양주시 오남읍 오남리 489-2번지 2층","category":"의원 - 치과의원"},{"name":"치어스","tel":"031-575-8391","addr":"경기도 남양주시 오남읍 오남리 489-2","category":"일반휴게음식 - 주점"}]},{"lat":"37.686297999","long":"127.20847876","items":[{"name":"무도인","tel":"031-593-1118","addr":"경기도 남양주시 오남읍 오남리 608-3번지","category":"레져용품 - 스포츠·레져용품"}]},{"lat":"37.679215034","long":"127.2092754","items":[{"name":"뮤엠영어오남학원","tel":"031-527-4305","addr":"경기도 남양주시 오남읍 오남리 476-1 동명프라자205호206호","category":"학원 - 보습학원"},{"name":"해비치소아청소년과의원","tel":"031-527-2300","addr":"경기도 남양주시 오남읍 오남리 476-1 동명프라자2층","category":"의원 - 의원"}]},{"lat":"37.696327915","long":"127.20194144","items":[{"name":"미나미김밥","tel":"031-575-0112","addr":"경기도 남양주시 오남읍 오남리 784-25번지 101호","category":"일반휴게음식 - 일반한식"},{"name":"티(t)= 헤어","tel":"070-8200-0090","addr":"경기도 남양주시 오남읍 오남리 784-25번지","category":"보건위생 - 미용원"}]},{"lat":"37.680719338","long":"127.20944961","items":[{"name":"미니스톱남양주한신점","tel":"031-340-4261","addr":"경기도 남양주시 오남읍 오남리 494-12번지","category":"유통업 영리 - 편 의 점"},{"name":"윤가네불타는닭갈비","tel":"031-527-5254","addr":"경기도 남양주시 오남읍 오남리 494-12번지","category":"일반휴게음식 - 일반한식"}]},{"lat":"37.695771702","long":"127.20582904","items":[{"name":"미래종합장식","tel":"031-528-0631","addr":"경기도 남양주시 오남읍 오남리 749-2번지 다동","category":"직물 - 카페트,커튼,천막,지물"}]},{"lat":"37.682742986","long":"127.21145044","items":[{"name":"미조식품","tel":"031-575-5259","addr":"경기도 남양주시 오남읍 오남리 350번지","category":"음료식품 - 기타음료식품"},{"name":"주식회사 파미고","tel":"070-7017-3399","addr":"경기도 남양주시 오남읍 오남리 350번지","category":"레져용품 - 스포츠·레져용품"}]},{"lat":"37.688046844","long":"127.20266757","items":[{"name":"민기획","tel":"031-000-0000","addr":"경기도 남양주시 오남읍 오남리 580-18번지","category":"건축자재 - 인테리어전문"}]},{"lat":"37.693832752","long":"127.21708254","items":[{"name":"밀알성품어린이집[아이행복]","tel":"031-575-0030","addr":"경기도 남양주시 오남읍 오남리 50-1번지","category":"학원 - 유아원"}]},{"lat":"37.679887486","long":"127.21113637","items":[{"name":"바운스(bounce)","tel":"031-529-9809","addr":"경기도 남양주시 오남읍 오남리 399-3번지 지하1층 101호,102호,103호","category":"일반휴게음식 - 서양음식"}]},{"lat":"37.687614698","long":"127.21285856","items":[{"name":"바이 오일","tel":"","addr":"경기도 남양주시 오남읍 오남리 250번지 파라다이스빌 103동 203호","category":"음료식품 - 기타음료식품"},{"name":"숲속아이 놀이터","tel":"","addr":"경기도 남양주시 오남읍 오남리 250번지 오남리파라다이스빌아파트 103동 1501호","category":"학원 - 기타 교육기관"},{"name":"칼의 명장 가위 명장","tel":"070-5646-2244","addr":"경기도 남양주시 오남읍 오남리 250번지 파라다이스빌 103동 102호","category":"수리서비스 - 기타수리서비스"}]},{"lat":"37.683439365","long":"127.21502341","items":[{"name":"발레놀이터","tel":"031-000-0000","addr":"경기도 남양주시 오남읍 오남리 301번지 토담마을 150호","category":"학원 - 예·체능계학원"}]},{"lat":"37.696553186","long":"127.2071918","items":[{"name":"백마크리닝 경기북부지사","tel":"","addr":"경기도 남양주시 오남읍 오남리 754-1번지 3동 1층","category":"수리서비스 - 세탁소"},{"name":"부영모터스","tel":"031-573-1538","addr":"경기도 남양주시 오남읍 오남리 754-1번지 1동","category":"자동차정비 유지 - 자동차정비"},{"name":"산야초인제건강원","tel":"031-528-4167","addr":"경기도 남양주시 오남읍 오남리 754-1번지 (주2, 1층일부)","category":"건강식품 - 기타건강식품"},{"name":"아로맨틱(Aromantic)","tel":"031-853-0716","addr":"경기도 남양주시 오남읍 오남리 754-1번지 3호","category":"가구 - 기타가구"},{"name":"아로멘틱커피","tel":"031-529-0822","addr":"경기도 남양주시 오남읍 오남리 754-1번지 1층","category":"음료식품 - 기타음료식품"},{"name":"예담손칼국수","tel":"031-527-1033","addr":"경기도 남양주시 오남읍 오남리 754-1번지 주2동 1층 일부(5호)","category":"일반휴게음식 - 일반한식"},{"name":"유앤미 모바일","tel":"031-575-1965","addr":"경기도 남양주시 오남읍 오남리 754-1번지","category":"사무통신 - 통신기기"},{"name":"주)제로엠케이(ZERO Market)/총무팀","tel":"031-529-0822","addr":"경기도 남양주시 오남읍 오남리 754-1번지 3호","category":"음료식품 - 기타음료식품"}]},{"lat":"37.687634389","long":"127.21191762","items":[{"name":"봉평메밀막국수","tel":"031-574-2221","addr":"경기도 남양주시 오남읍 오남리 246-6번지","category":"일반휴게음식 - 일반한식"}]},{"lat":"37.685969219","long":"127.20583634","items":[{"name":"불꽃숯불갈비 막국수","tel":"031-571-3944","addr":"경기도 남양주시 오남읍 오남리 591-10번지 1층","category":"일반휴게음식 - 일반한식"},{"name":"불꽃숯불갈비 막국수","tel":"031-571-3944","addr":"경기도 남양주시 오남읍 오남리 591-10번지 1층","category":"일반휴게음식 - 일반한식"},{"name":"비에이비(BAB)","tel":"070-8884-4070","addr":"경기도 남양주시 오남읍 오남리 591-10번지 나동 2층 301호","category":"농업 - 비료,사료,종자"},{"name":"트윈전자","tel":"031-556-2571","addr":"경기도 남양주시 오남읍 오남리 591-10번지 2층","category":"수리서비스 - 사무·통신기기수리"}]},{"lat":"37.686852899","long":"127.21058899","items":[{"name":"브니","tel":"031-515-2616","addr":"경기도 남양주시 오남읍 오남리 259-3번지 가동 1층 4호","category":"음료식품 - 제과점"},{"name":"주선생","tel":"031-575-6239","addr":"경기도 남양주시 오남읍 오남리 259-3번지 1층 좌측 2호","category":"일반휴게음식 - 주점"}]},{"lat":"37.684138609","long":"127.21194183","items":[{"name":"브랜드멀티샵","tel":"031-571-2812","addr":"경기도 남양주시 오남읍 오남리 318-2 외7필지가동102,103호","category":"레져용품 - 스포츠·레져용품"},{"name":"카페블라썸","tel":"031-573-3788","addr":"경기도 남양주시 오남읍 오남리 318-2번지","category":"일반휴게음식 - 스넥"}]},{"lat":"37.681694713","long":"127.21322731","items":[{"name":"브릿지(Bridge)","tel":"031-575-0291","addr":"경기도 남양주시 오남읍 오남리 386-5번지","category":"일반휴게음식 - 서양음식"}]},{"lat":"37.685221084","long":"127.21119663","items":[{"name":"비에프펍","tel":"031-512-5370","addr":"경기도 남양주시 오남읍 오남리 265-5번지","category":"일반휴게음식 - 주점"}]},{"lat":"37.692384919","long":"127.20002613","items":[{"name":"사계절다육농장","tel":"031-511-7167","addr":"경기도 남양주시 오남읍 오남리 796-3번지","category":"회원제형태 - 기타4"}]},{"lat":"37.690719061","long":"127.20480622","items":[{"name":"삼거리슈퍼","tel":"031-575-3414","addr":"경기도 남양주시 오남읍 오남리 663-1","category":"유통업 영리 - 슈퍼마켓"}]},{"lat":"37.681133839","long":"127.20941675","items":[{"name":"삼대째손두부","tel":"031-573-0573","addr":"경기도 남양주시 오남읍 오남리 490-6번지","category":"일반휴게음식 - 일반한식"}]},{"lat":"37.684797973","long":"127.21100272","items":[{"name":"삼정인퍼스사무용가구","tel":"031-574-3030","addr":"경기도 남양주시 오남읍 오남리 326-2번지","category":"가구 - 일반가구"}]},{"lat":"37.690468633","long":"127.19836576","items":[{"name":"삼호하이테크","tel":"031-572-1844","addr":"경기도 남양주시 오남읍 오남리 845번지","category":"전기제품 - 냉열기기"}]},{"lat":"37.694074","long":"127.21319424","items":[{"name":"상봉꽃농원","tel":"031-527-7685","addr":"경기도 남양주시 오남읍 오남리 131-10","category":"문화.취미 - 화원"},{"name":"풀잎사랑화원","tel":"031-574-9649","addr":"경기도 남양주시 오남읍 오남리 131-10","category":"문화.취미 - 화원"}]},{"lat":"37.681636626","long":"127.21041574","items":[{"name":"새한인테리어","tel":"031-528-9950","addr":"경기도 남양주시 오남읍 오남리 489-7번지","category":"건축자재 - 인테리어전문"},{"name":"오남점현대자동차","tel":"031-574-6500","addr":"경기도 남양주시 오남읍 오남리 489-7번지","category":"자동차정비 유지 - 자동차정비"},{"name":"원준통신","tel":"031-000-0000","addr":"경기도 남양주시 오남읍 오남리 489-7번지 (상가 2호)","category":"사무통신 - 통신기기"}]},{"lat":"37.690936823","long":"127.21421711","items":[{"name":"색소폰라이브","tel":"031-573-1357","addr":"경기도 남양주시 오남읍 오남리 203-16번지 2층","category":"일반휴게음식 - 주점"},{"name":"연한의원","tel":"031-527-0803","addr":"경기도 남양주시 오남읍 오남리 203-16번지 전부 1층","category":"의원 - 한의원"},{"name":"팡팡노래뮤비방","tel":"070-8959-0368","addr":"경기도 남양주시 오남읍 오남리 203-16번지 지층","category":"용역 서비스 - 종합용역"}]},{"lat":"37.68138587","long":"127.20955349","items":[{"name":"생그린남양주오남지사","tel":"","addr":"경기도 남양주시 오남읍 오남리 490-15번지","category":"보건위생 - 화장품"},{"name":"육쌈냉면","tel":"","addr":"경기도 남양주시 오남읍 오남리 490-15번지","category":"일반휴게음식 - 일반한식"},{"name":"투애니원(2NE1)","tel":"031-574-3413","addr":"경기도 남양주시 오남읍 오남리 490-15번지","category":"신변잡화 - 액세서리"}]},{"lat":"37.684662189","long":"127.21136512","items":[{"name":"샤인카","tel":"031-527-1273","addr":"경기도 남양주시 오남읍 오남리 331번지","category":"자동차정비 유지 - 자동차정비"},{"name":"오남샤인24시셀프세차타운","tel":"031-514-8066","addr":"경기도 남양주시 오남읍 오남리 331번지 101호","category":"자동차정비 유지 - 세차장"},{"name":"차오웍","tel":"031-571-8122","addr":"경기도 남양주시 오남읍 오남리 331번지 1층","category":"일반휴게음식 - 중국식"},{"name":"황금코다리 오남점","tel":"031-0000-0000","addr":"경기도 남양주시 오남읍 오남리 331번지 2동 1층 나호","category":"일반휴게음식 - 일반한식"}]},{"lat":"37.694248102","long":"127.21155069","items":[{"name":"성도카공업사","tel":"031-575-5968","addr":"경기도 남양주시 오남읍 오남리 159번지","category":"자동차정비 유지 - 자동차정비"}]},{"lat":"37.687131616","long":"127.21091855","items":[{"name":"세븐일레븐남양주오남진주점","tel":"031-1577-0711","addr":"경기도 남양주시 오남읍 오남리 258번지 1층,105호","category":"유통업 영리 - 편 의 점"},{"name":"엠베스트SE씨드학원","tel":"031-573-0503","addr":"경기도 남양주시 오남읍 오남리 258번지 3층","category":"학원 - 보습학원"},{"name":"오남머리하는곳","tel":"031-575-7396","addr":"경기도 남양주시 오남읍 오남리 258번지 1층 101호","category":"보건위생 - 미용원"},{"name":"왕창싸 회수산","tel":"031-572-3364","addr":"경기도 남양주시 오남읍 오남리 258번지","category":"음료식품 - 농·축·수산품"},{"name":"최강달인왕만두","tel":"","addr":"경기도 남양주시 오남읍 오남리 258번지 1층 일부","category":"일반휴게음식 - 스넥"}]},{"lat":"37.678470907","long":"127.20716488","items":[{"name":"세차와의전쟁","tel":"","addr":"경기도 남양주시 오남읍 오남리 474-4번지","category":"자동차정비 유지 - 세차장"},{"name":"스타","tel":"031-528-1378","addr":"경기도 남양주시 오남읍 오남리 474-4번지","category":"자동차정비 유지 - 카인테리어"}]},{"lat":"37.69735782","long":"127.19481216","items":[{"name":"셀라산업","tel":"031-573-6264","addr":"경기도 남양주시 오남읍 오남리 886번지","category":"직물 - 카페트,커튼,천막,지물"}]},{"lat":"37.682797784","long":"127.21103114","items":[{"name":"솔목씽크","tel":"031-571-5133","addr":"경기도 남양주시 오남읍 오남리 342-4번지","category":"주방용구 - 주방용구"}]},{"lat":"37.698271","long":"127.21402249","items":[{"name":"수사골송어","tel":"031-575-6888","addr":"경기도 남양주시 오남읍 오남리 101-3번지 수사골송어 2동","category":"일반휴게음식 - 일반한식"},{"name":"오남송어","tel":"","addr":"경기도 남양주시 오남읍 오남리 101-3번지","category":"음료식품 - 농·축·수산품"}]},{"lat":"37.680854482","long":"127.20944999","items":[{"name":"수와만남학원","tel":"031-528-7296","addr":"경기도 남양주시 오남읍 오남리 494-7번지 203호 한신2차상가","category":"학원 - 보습학원"}]},{"lat":"37.696768709","long":"127.1969423","items":[{"name":"숯불구이막창앤곱창","tel":"031-528-6263","addr":"경기도 남양주시 오남읍 오남리 883-1번지 104호","category":"일반휴게음식 - 일반한식"},{"name":"쏠티음악학원","tel":"031-574-3602","addr":"경기도 남양주시 오남읍 오남리 883-1번지 2층 202호","category":"학원 - 예·체능계학원"},{"name":"에스라헤어","tel":"031-575-4511","addr":"경기도 남양주시 오남읍 오남리 883-1번지 1층","category":"보건위생 - 미용원"},{"name":"파라솔(PARASOL)","tel":"031-527-4493","addr":"경기도 남양주시 오남읍 오남리 883-1번지 2층","category":"일반휴게음식 - 일반한식"}]},{"lat":"37.693466926","long":"127.21510866","items":[{"name":"숲이랑흙이랑어린이집[아이행복]","tel":"031-574-2559","addr":"경기도 남양주시 오남읍 오남리 129-16번지","category":"학원 - 유아원"},{"name":"일광주산학원","tel":"031-575-4983","addr":"경기도 남양주시 오남읍 오남리 129-16번지 3층","category":"학원 - 보습학원"},{"name":"카스파영 에어로빅 교육관 B.F댄스","tel":"031-514-7085","addr":"경기도 남양주시 오남읍 오남리 129-16번지 3층","category":"레저업소 - 헬스클럽"}]},{"lat":"37.682276067","long":"127.21055356","items":[{"name":"스마트데이터복구 SDR남양주센터","tel":"031-575-3711","addr":"경기도 남양주시 오남읍 오남리 346-4번지 지하1층","category":"용역 서비스 - 사무서비스"},{"name":"육미가 오남점","tel":"","addr":"경기도 남양주시 오남읍 오남리 346-4번지","category":"일반휴게음식 - 일반한식"}]},{"lat":"37.688634794","long":"127.2117277","items":[{"name":"시골본가집","tel":"031-575-2626","addr":"경기도 남양주시 오남읍 오남리 683-5번지","category":"일반휴게음식 - 일반한식"}]},{"lat":"37.681160815","long":"127.21452946","items":[{"name":"시립푸른들보듬이나눔이어린이집[아이행복]","tel":"031-527-5611","addr":"경기도 남양주시 오남읍 오남리 365-3번지","category":"학원 - 유아원"}]},{"lat":"37.696300503","long":"127.20216814","items":[{"name":"시선헤어","tel":"031-528-6263","addr":"경기도 남양주시 오남읍 오남리 784-26번지 102호","category":"보건위생 - 미용원"},{"name":"에스메랄다","tel":"031-529-0466","addr":"경기도 남양주시 오남읍 오남리 784-26번지 상가 102호","category":"일반휴게음식 - 서양음식"},{"name":"워시테리아 남양주 오남점","tel":"","addr":"경기도 남양주시 오남읍 오남리 784-26번지 1층 101호","category":"수리서비스 - 세탁소"}]},{"lat":"37.689079744","long":"127.20455235","items":[{"name":"신영상사","tel":"031-529-8485","addr":"경기도 남양주시 오남읍 오남리 584-6번지","category":"자동차정비 유지 - 자동차부품"},{"name":"제이에이치(JH)모터스","tel":"031-513-9065","addr":"경기도 남양주시 오남읍 오남리 584-6번지 104-1,105호","category":"자동차정비 유지 - 자동차정비"}]},{"lat":"37.679209699","long":"127.21230208","items":[{"name":"신일꼬마숲어린이집[아이행복]","tel":"031-529-9929","addr":"경기도 남양주시 오남읍 오남리 425번지 신일해피트리아파트 101동 101호","category":"학원 - 유아원"}]},{"lat":"37.68485291","long":"127.21050406","items":[{"name":"신전떡볶이오남점","tel":"031-529-7770","addr":"경기도 남양주시 오남읍 오남리 325번지","category":"일반휴게음식 - 스넥"},{"name":"오케이인테리어","tel":"031-516-5400","addr":"경기도 남양주시 오남읍 오남리 325","category":"건축자재 - 인테리어전문"},{"name":"윈디 가방","tel":"","addr":"경기도 남양주시 오남읍 오남리 325번지 1층","category":"신변잡화 - 가방"},{"name":"플로롱","tel":"","addr":"경기도 남양주시 오남읍 오남리 325번지 1층 102호","category":"문화.취미 - 화원"},{"name":"플로롱","tel":"","addr":"경기도 남양주시 오남읍 오남리 325번지 창노빌딩 1층 102호","category":"음료식품 - 기타음료식품"},{"name":"행복한찹쌀꽈배기 오남점","tel":"","addr":"경기도 남양주시 오남읍 오남리 325번지 창노빌딩 1층 4호","category":"음료식품 - 기타음료식품"}]},{"lat":"37.695409343","long":"127.20697323","items":[{"name":"신체장애인복지회부설대림환경","tel":"031-574-0360","addr":"경기도 남양주시 오남읍 오남리 749-1 보영상가지층 101","category":"용역 서비스 - 종합용역"}]},{"lat":"37.683639141","long":"127.20906093","items":[{"name":"썬크린세탁전문점","tel":"031-574-7681","addr":"경기도 남양주시 오남읍 오남리 532-4번지","category":"수리서비스 - 세탁소"}]},{"lat":"37.686803189","long":"127.21321906","items":[{"name":"씨유오남파라다이스빌점","tel":"080-080-3663","addr":"경기도 남양주시 오남읍 오남리 250번지 오남리파라다이스빌아파트 104호","category":"유통업 영리 - 편 의 점"}]},{"lat":"37.67886175","long":"127.21036267","items":[{"name":"아노히","tel":"070-8790-6754","addr":"경기도 남양주시 오남읍 오남리 413-18번지 가동 1층 3호","category":"일반휴게음식 - 일식·회집"},{"name":"오가피시골영양탕","tel":"031-575-0479","addr":"경기도 남양주시 오남읍 오남리 413-18번지 1층 2호","category":"일반휴게음식 - 일반한식"},{"name":"티디퓨전즉석떡볶이","tel":"031-527-0027","addr":"경기도 남양주시 오남읍 오남리 413-18번지","category":"일반휴게음식 - 일반한식"}]},{"lat":"37.696807445","long":"127.20074083","items":[{"name":"아레스정보통신","tel":"070-4799-9910","addr":"경기도 남양주시 오남읍 오남리 891번지 오남아이파크 105동 702호","category":"사무통신 - 통신기기"}]},{"lat":"37.685409139","long":"127.20669642","items":[{"name":"아름다운,욕실,타일","tel":"031-528-4624","addr":"경기도 남양주시 오남읍 오남리 593-12번지","category":"건축자재 - 건축용 요업제품"}]},{"lat":"37.693221108","long":"127.21652522","items":[{"name":"아빠버거","tel":"","addr":"경기도 남양주시 오남읍 오남리 45-2번지 삼성원룸 101호","category":"음료식품 - 기타음료식품"}]},{"lat":"37.688135974","long":"127.2084725","items":[{"name":"아이씽크","tel":"031-529-8201","addr":"경기도 남양주시 오남읍 오남리 623-7번지","category":"가구 - 일반가구"}]},{"lat":"37.678051563","long":"127.209975","items":[{"name":"아이원어린이집[아이행복]","tel":"031-575-5082","addr":"경기도 남양주시 오남읍 오남리 454-7번지","category":"학원 - 유아원"}]},{"lat":"37.679998372","long":"127.20956097","items":[{"name":"안경마스터","tel":"031-527-1125","addr":"경기도 남양주시 오남읍 오남리 495-8번지","category":"보건위생 - 안경"},{"name":"우리중앙의원","tel":"031-574-7588","addr":"경기도 남양주시 오남읍 오남리 495-8번지 2층","category":"병원 - 병원"},{"name":"장원곱창","tel":"031-527-4448","addr":"경기도 남양주시 오남읍 오남리 495-8번지","category":"일반휴게음식 - 일반한식"},{"name":"회 사가기 조은날","tel":"031-575-8100","addr":"경기도 남양주시 오남읍 오남리 495-8번지 1층 일부","category":"일반휴게음식 - 일식·회집"}]},{"lat":"37.680055692","long":"127.20769068","items":[{"name":"애견갤러리","tel":"031-573-8517","addr":"경기도 남양주시 오남읍 오남리 503-3번지","category":"문화.취미 - 애완동물"}]},{"lat":"37.680943525","long":"127.21005105","items":[{"name":"양평88민물","tel":"070-8846-5288","addr":"경기도 남양주시 오남읍 오남리 493-1번지","category":"일반휴게음식 - 일반한식"},{"name":"양평88민물고기직판장","tel":"070-8846-5288","addr":"경기도 남양주시 오남읍 오남리 493-1번지","category":"음료식품 - 농·축·수산품"}]},{"lat":"37.68310437","long":"127.21088463","items":[{"name":"양평으뜸해장국","tel":"031-575-5202","addr":"경기도 남양주시 오남읍 오남리 341-5번지","category":"일반휴게음식 - 일반한식"},{"name":"이공비빔국수왕돈까스","tel":"031-571-1157","addr":"경기도 남양주시 오남읍 오남리 341-5번지 외1필지","category":"일반휴게음식 - 일반한식"}]},{"lat":"37.682389098","long":"127.2128665","items":[{"name":"어람초등학교병설유치원[아이행복]","tel":"031-575-1795","addr":"경기도 남양주시 오남읍 오남리 358-5번지 어람초등학교","category":"학원 - 유치원"}]},{"lat":"37.690164127","long":"127.21302447","items":[{"name":"엄마손만두","tel":"031-572-9987","addr":"경기도 남양주시 오남읍 오남리 205-28번지 1층","category":"일반휴게음식 - 스넥"}]},{"lat":"37.689935825","long":"127.19911264","items":[{"name":"에스엠테크","tel":"031-515-2891","addr":"경기도 남양주시 오남읍 오남리 844-7번지 1층","category":"주방용구 - 주방용구"}]},{"lat":"37.679716883","long":"127.21080715","items":[{"name":"에이알유통","tel":"031-572-3572","addr":"경기도 남양주시 오남읍 오남리 408-5번지","category":"음료식품 - 농·축·수산품"}]},{"lat":"37.693437962","long":"127.21114025","items":[{"name":"에코남양주협동조합","tel":"","addr":"경기도 남양주시 오남읍 오남리 164-3번지","category":"학원 - 기타 교육기관"}]},{"lat":"37.681239185","long":"127.21099278","items":[{"name":"엘에스아이공조","tel":"","addr":"경기도 남양주시 오남읍 오남리 396-2번지 신화그린빌 B동 403호","category":"용역 서비스 - 기타용역서비스"}]},{"lat":"37.692078858","long":"127.19986659","items":[{"name":"열매교육","tel":"031-527-8290","addr":"경기도 남양주시 오남읍 오남리 835-7번지","category":"서적문구 - 출판 및 인쇄물"}]},{"lat":"37.69655258","long":"127.2022822","items":[{"name":"열매반찬","tel":"031-527-5934","addr":"경기도 남양주시 오남읍 오남리 757-1번지 리버빌 101호","category":"음료식품 - 기타음료식품"}]},{"lat":"37.693358158","long":"127.21547117","items":[{"name":"영광슈퍼","tel":"031-575-3354","addr":"경기도 남양주시 오남읍 오남리 129-10번지","category":"유통업 영리 - 슈퍼마켓"},{"name":"트루 바이오톱(True Biotope)","tel":"","addr":"경기도 남양주시 오남읍 오남리 129-10번지 103호","category":"문화.취미 - 수족관"}]},{"lat":"37.691691979","long":"127.21513762","items":[{"name":"영웅세차장","tel":"","addr":"경기도 남양주시 오남읍 오남리 192-2번지","category":"자동차정비 유지 - 세차장"}]},{"lat":"37.691881118","long":"127.21517217","items":[{"name":"영웅카센타","tel":"031-574-2141","addr":"경기도 남양주시 오남읍 오남리 192","category":"자동차정비 유지 - 자동차정비"}]},{"lat":"37.687582295","long":"127.21080643","items":[{"name":"영원청과","tel":"031-575-5742","addr":"경기도 남양주시 오남읍 오남리 243-1번지 1층","category":"음료식품 - 농·축·수산품"},{"name":"하츠","tel":"031-529-8237","addr":"경기도 남양주시 오남읍 오남리 243번지 1호","category":"일반휴게음식 - 일반한식"},{"name":"한잔에추억","tel":"031-573-6295","addr":"경기도 남양주시 오남읍 오남리 243번지 1호","category":"일반휴게음식 - 주점"}]},{"lat":"37.682717677","long":"127.21047543","items":[{"name":"영통신","tel":"031-573-3300","addr":"경기도 남양주시 오남읍 오남리 344-13번지","category":"사무통신 - 통신기기"}]},{"lat":"37.694914444","long":"127.20660905","items":[{"name":"예은방","tel":"031-575-9886","addr":"경기도 남양주시 오남읍 오남리 732-3","category":"가구 - 일반가구"}]},{"lat":"37.693243681","long":"127.2139969","items":[{"name":"예화담 감자탕","tel":"031-528-2666","addr":"경기도 남양주시 오남읍 오남리 183번지 2층","category":"일반휴게음식 - 일반한식"}]},{"lat":"37.685186464","long":"127.21039162","items":[{"name":"오구포차","tel":"031-527-5909","addr":"경기도 남양주시 오남읍 오남리 537-2번지 1동 1층","category":"일반휴게음식 - 일반한식"}]},{"lat":"37.680492846","long":"127.21016316","items":[{"name":"오꾸꼬치킨","tel":"031-527-9266","addr":"경기도 남양주시 오남읍 오남리 479-2번지 1층","category":"일반휴게음식 - 스넥"}]},{"lat":"37.69429977","long":"127.20777521","items":[{"name":"오남 T-up 스크린골프","tel":"031-573-8375","addr":"경기도 남양주시 오남읍 오남리 744번지 한국아파트 201,202호","category":"레저업소 - 스크린골프"}]},{"lat":"37.681637442","long":"127.20995095","items":[{"name":"오남BYC","tel":"031-516-5495","addr":"경기도 남양주시 오남읍 오남리 490-17번지 1호","category":"의류 - 내의판매"}]},{"lat":"37.691191151","long":"127.20269868","items":[{"name":"오남LED전기조명","tel":"031-575-0725","addr":"경기도 남양주시 오남읍 오남리 826-8번지","category":"건축자재 - 조명기구"}]},{"lat":"37.680528585","long":"127.2103333","items":[{"name":"오남곱창나라","tel":"031-0315-2980","addr":"경기도 남양주시 오남읍 오남리 480번지 다동(주3)1층","category":"일반휴게음식 - 일반한식"}]},{"lat":"37.690855981","long":"127.21408083","items":[{"name":"오남그릇","tel":"031-575-0997","addr":"경기도 남양주시 오남읍 오남리 203-9번지","category":"주방용구 - 주방용식기"}]},{"lat":"37.68107841","long":"127.2101988","items":[{"name":"오남떡볶이","tel":"070-7739-3799","addr":"경기도 남양주시 오남읍 오남리 484번지","category":"일반휴게음식 - 스넥"},{"name":"큰나무오리집","tel":"031-573-8852","addr":"경기도 남양주시 오남읍 오남리 484번지","category":"일반휴게음식 - 일반한식"}]},{"lat":"37.686438757","long":"127.21041778","items":[{"name":"오남모터스","tel":"031-529-9377","addr":"경기도 남양주시 오남읍 오남리 603번지","category":"자동차정비 유지 - 자동차정비"},{"name":"현대LPG","tel":"031-574-5283","addr":"경기도 남양주시 오남읍 오남리 603번지","category":"자동차정비 유지 - 자동차부품"}]},{"lat":"37.687828579","long":"127.20908386","items":[{"name":"오남상사","tel":"031-528-8844","addr":"경기도 남양주시 오남읍 오남리 620-3","category":"건축자재 - 기타건축자재"}]},{"lat":"37.696074691","long":"127.19711056","items":[{"name":"오남서부점 현대자동차","tel":"031-575-8672","addr":"경기도 남양주시 오남읍 오남리 881-2번지","category":"자동차정비 유지 - 자동차정비"}]},{"lat":"37.677829839","long":"127.21308037","items":[{"name":"오남썸머힐어린이집","tel":"031-574-9648","addr":"경기도 남양주시 오남읍 오남리 429","category":"학원 - 유치원"}]},{"lat":"37.692157912","long":"127.20107995","items":[{"name":"오남종합기계","tel":"031-528-7700","addr":"경기도 남양주시 오남읍 오남리 799-2번지 가동 104호","category":"기타 - 기계공구"},{"name":"천마광고","tel":"","addr":"경기도 남양주시 오남읍 오남리 799-2번지 나동 101호","category":"건축자재 - 인테리어전문"},{"name":"한국자동차공업사","tel":"031-575-9587","addr":"경기도 남양주시 오남읍 오남리 799-2번지","category":"자동차정비 유지 - 자동차정비"}]},{"lat":"37.692441168","long":"127.20927804","items":[{"name":"오남중고가전","tel":"070-7570-7580","addr":"경기도 남양주시 오남읍 오남리 706번지 1동","category":"전기제품 - 가전제품"}]},{"lat":"37.695081085","long":"127.21430824","items":[{"name":"오남초등학교병설유치원[아이행복]","tel":"031-575-2233","addr":"경기도 남양주시 오남읍 오남리 134-1번지 오남초등학교","category":"학원 - 유치원"}]},{"lat":"37.687777758","long":"127.21236018","items":[{"name":"오남초심검도관","tel":"031-529-0466","addr":"경기도 남양주시 오남읍 오남리 246-2번지","category":"학원 - 예·체능계학원"}]},{"lat":"37.701247046","long":"127.21742137","items":[{"name":"오남플라워가든","tel":"031-573-8275","addr":"경기도 남양주시 오남읍 오남리 88-1번지","category":"문화.취미 - 화원"}]},{"lat":"37.696303878","long":"127.20016123","items":[{"name":"오남하늘꿈어린이집[아이행복]","tel":"031-571-4766","addr":"경기도 남양주시 오남읍 오남리 891번지 오남아이파크 103동 101호","category":"학원 - 유아원"},{"name":"한마음유통","tel":"","addr":"경기도 남양주시 오남읍 오남리 891번지 오남아이파크 103동 402호","category":"음료식품 - 농·축·수산품"}]},{"lat":"37.691881628","long":"127.21488873","items":[{"name":"오남현대약국","tel":"031-573-8022","addr":"경기도 남양주시 오남읍 오남리 191-7번지","category":"약국 - 약국"},{"name":"왕가","tel":"031-573-4345","addr":"경기도 남양주시 오남읍 오남리 191-7번지","category":"일반휴게음식 - 일반한식"}]},{"lat":"37.690108571","long":"127.2138633","items":[{"name":"오동도","tel":"031-529-5536","addr":"경기도 남양주시 오남읍 오남리 200번지","category":"일반휴게음식 - 일반한식"}]},{"lat":"37.690388213","long":"127.21367135","items":[{"name":"오동도 바지락칼국수","tel":"031-529-3611","addr":"경기도 남양주시 오남읍 오남리 202","category":"일반휴게음식 - 일반한식"}]},{"lat":"37.68222161","long":"127.21078013","items":[{"name":"오렌지유치원[아이행복]","tel":"031-575-3377","addr":"경기도 남양주시 오남읍 오남리 346-2번지","category":"학원 - 유치원"}]},{"lat":"37.685881417","long":"127.20449834","items":[{"name":"오성유리","tel":"031-574-7678","addr":"경기도 남양주시 오남읍 오남리 592-3번지","category":"건축자재 - 유리"}]},{"lat":"37.684665222","long":"127.20964194","items":[{"name":"오아시스","tel":"","addr":"경기도 남양주시 오남읍 오남리 538-1번지 오남체육문화센터 2층 일부","category":"일반휴게음식 - 일반한식"}]},{"lat":"37.69310191","long":"127.20753381","items":[{"name":"오토파워클리닉","tel":"","addr":"경기도 남양주시 오남읍 오남리 729-24번지","category":"자동차정비 유지 - 자동차부품"}]},{"lat":"37.694663891","long":"127.21583772","items":[{"name":"온누리요양원","tel":"031-529-7791","addr":"경기도 남양주시 오남읍 오남리 123번지","category":"기타의료기관 - 기타의료기관 및 기타"}]},{"lat":"37.686273098","long":"127.2072543","items":[{"name":"올드뮤직","tel":"031-529-2306","addr":"경기도 남양주시 오남읍 오남리 594-7","category":"레져용품 - 악기점"},{"name":"이현시스템","tel":"031-575-0482","addr":"경기도 남양주시 오남읍 오남리 594-7번지","category":"건축자재 - 기타건축자재"}]},{"lat":"37.698882207","long":"127.21482929","items":[{"name":"우드빈","tel":"070-7583-3124","addr":"경기도 남양주시 오남읍 오남리 98-1번지","category":"가구 - 일반가구"}]},{"lat":"37.694546452","long":"127.2209396","items":[{"name":"우리마을 정육식당","tel":"","addr":"경기도 남양주시 오남읍 오남리 30-3번지 1층","category":"일반휴게음식 - 일반한식"}]},{"lat":"37.678745633","long":"127.21486268","items":[{"name":"우리마트","tel":"031-575-1288","addr":"경기도 남양주시 오남읍 오남리 426번지 신일2단지 101호","category":"유통업 영리 - 연 쇄 점"}]},{"lat":"37.683526506","long":"127.20647587","items":[{"name":"우리종로의료기","tel":"031-573-0644","addr":"경기도 남양주시 오남읍 오남리 560 1층1호","category":"보건위생 - 의료용품"},{"name":"주식회사 남양주오토갤러리","tel":"031-595-8500","addr":"경기도 남양주시 오남읍 오남리 560번지 105호","category":"자동차판매 - 중고자동차판매"},{"name":"탑기어모터스","tel":"031-528-6667","addr":"경기도 남양주시 오남읍 오남리 560번지","category":"자동차정비 유지 - 자동차정비"},{"name":"한양소망약국","tel":"031-573-6402","addr":"경기도 남양주시 오남읍 오남리 560번지","category":"약국 - 약국"}]},{"lat":"37.69351902","long":"127.21619727","items":[{"name":"웅이네","tel":"","addr":"경기도 남양주시 오남읍 오남리 44-1번지","category":"음료식품 - 미곡상"},{"name":"흥부네야채","tel":"070-8951-3483","addr":"경기도 남양주시 오남읍 오남리 44-1번지","category":"음료식품 - 농·축·수산품"}]},{"lat":"37.696580833","long":"127.20155661","items":[{"name":"웬떡이니","tel":"031-527-5050","addr":"경기도 남양주시 오남읍 오남리 761-10번지 103호","category":"음료식품 - 제과점"},{"name":"착한꿀돼지","tel":"031-574-3465","addr":"경기도 남양주시 오남읍 오남리 761-10번지","category":"일반휴게음식 - 일반한식"}]},{"lat":"37.683495384","long":"127.20360763","items":[{"name":"웰애드","tel":"031-529-9099","addr":"경기도 남양주시 오남읍 오남리 569-2번지 2층","category":"보건위생 - 화장품"}]},{"lat":"37.68282672","long":"127.20475082","items":[{"name":"위드미한양병원점","tel":"031-575-1104","addr":"경기도 남양주시 오남읍 오남리 570 남양주한양병원내1층","category":"유통업 영리 - 편 의 점"}]},{"lat":"37.683297865","long":"127.20843647","items":[{"name":"유앤지","tel":"031-527-2301","addr":"경기도 남양주시 오남읍 오남리 887번지 신동아파밀리에아파 102동 8층 802호","category":"용역 서비스 - 기타용역서비스"}]},{"lat":"37.6833013","long":"127.21161072","items":[{"name":"육공판 축산물 도매센터","tel":"","addr":"경기도 남양주시 오남읍 오남리 336-1번지","category":"음료식품 - 정육점"},{"name":"육공판정육식당(오남점)","tel":"031-574-9233","addr":"경기도 남양주시 오남읍 오남리 336-1번지 336-2 지층","category":"일반휴게음식 - 일반한식"}]},{"lat":"37.687746381","long":"127.20971852","items":[{"name":"이누테크","tel":"031-573-4337","addr":"경기도 남양주시 오남읍 오남리 622-1번지 102호","category":"기타 - 기계공구"}]},{"lat":"37.680330613","long":"127.21019672","items":[{"name":"이디야커피","tel":"031-585-9975","addr":"경기도 남양주시 오남읍 오남리 404-2번지","category":"일반휴게음식 - 서양음식"}]},{"lat":"37.694968032","long":"127.22194995","items":[{"name":"이마트24 오남레이나호텔점/(주)레이나컴퍼","tel":"031-575-5197","addr":"경기도 남양주시 오남읍 오남리 23-12번지 나동 202호","category":"유통업 영리 - 편 의 점"},{"name":"주식회사 레이나컴퍼니","tel":"031-575-5195","addr":"경기도 남양주시 오남읍 오남리 23-12번지 나동 202호(외 펼현로 85,팔현로87)","category":"음료식품 - 기타음료식품"}]},{"lat":"37.696580547","long":"127.20172668","items":[{"name":"이마트24 오남아이파크점","tel":"","addr":"경기도 남양주시 오남읍 오남리 761-52번지","category":"유통업 영리 - 편 의 점"},{"name":"이마트24 오남아이파크점","tel":"031-573-4954","addr":"경기도 남양주시 오남읍 오남리 761-52번지 외3필지","category":"유통업 영리 - 슈퍼마켓"},{"name":"자담치킨","tel":"031-527-9785","addr":"경기도 남양주시 오남읍 오남리 761-52번지 103호, 102호일부","category":"일반휴게음식 - 스넥"}]},{"lat":"37.694608921","long":"127.20614334","items":[{"name":"이마트24 진건오남로","tel":"","addr":"경기도 남양주시 오남읍 오남리 739-17번지","category":"유통업 영리 - 편 의 점"}]},{"lat":"37.679077002","long":"127.21091873","items":[{"name":"이화뮤직스쿨음악학원","tel":"031-513-8558","addr":"경기도 남양주시 오남읍 오남리 413-2번지 2층","category":"학원 - 예·체능계학원"},{"name":"이화뮤직스쿨음악학원","tel":"031-513-8558","addr":"경기도 남양주시 오남읍 오남리 413-2번지 2층 전체","category":"학원 - 예·체능계학원"},{"name":"진우네옛날통닭오남점","tel":"031-111-1111","addr":"경기도 남양주시 오남읍 오남리 413-2번지","category":"일반휴게음식 - 스넥"},{"name":"헤어코코","tel":"031-528-7396","addr":"경기도 남양주시 오남읍 오남리 413-2번지 101호","category":"보건위생 - 미용원"}]},{"lat":"37.68377152","long":"127.21063708","items":[{"name":"임금님표 황토숯 침대","tel":"031-574-0002","addr":"경기도 남양주시 오남읍 오남리 535-6번지","category":"가구 - 일반가구"}]},{"lat":"37.676858857","long":"127.2119214","items":[{"name":"임마누엘 (에누리기프트)","tel":"031-1566-4586","addr":"경기도 남양주시 오남읍 오남리 439번지 신우아이딜아파트","category":"유통업 영리 - 기타유통업"}]},{"lat":"37.694524028","long":"127.22330923","items":[{"name":"자스민","tel":"031-527-2772","addr":"경기도 남양주시 오남읍 오남리 23-7번지","category":"일반휴게음식 - 일반한식"}]},{"lat":"37.688940779","long":"127.20677411","items":[{"name":"자연인","tel":"031-574-5744","addr":"경기도 남양주시 오남읍 오남리 642-3","category":"신변잡화 - 기타잡화"}]},{"lat":"37.68988606","long":"127.2123321","items":[{"name":"작은공간","tel":"031-552-3095","addr":"경기도 남양주시 오남읍 오남리 683-36 진주상가1-30","category":"의류 - 정장"}]},{"lat":"37.696769287","long":"127.1965908","items":[{"name":"장수메밀막국수칼국수","tel":"031-573-5363","addr":"경기도 남양주시 오남읍 오남리 883번지 234-6","category":"일반휴게음식 - 일반한식"}]},{"lat":"37.693104682","long":"127.21613939","items":[{"name":"전의전쟁","tel":"031-527-3059","addr":"경기도 남양주시 오남읍 오남리 44-5번지 1층","category":"일반휴게음식 - 주점"}]},{"lat":"37.693910593","long":"127.22372693","items":[{"name":"정가원","tel":"031-575-9112","addr":"경기도 남양주시 오남읍 오남리 23-5번지","category":"기타의료기관 - 기타의료기관 및 기타"}]},{"lat":"37.686852451","long":"127.20566869","items":[{"name":"제이엔에스환경","tel":"031-574-4118","addr":"경기도 남양주시 오남읍 오남리 590-1","category":"용역 서비스 - 종합용역"}]},{"lat":"37.678722154","long":"127.20775503","items":[{"name":"제일공업","tel":"031-574-7334","addr":"경기도 남양주시 오남읍 오남리 474-3번지","category":"레져용품 - 스포츠·레져용품"}]},{"lat":"37.677243467","long":"127.21349813","items":[{"name":"조안드림닷컴","tel":"031-568-6170","addr":"경기도 남양주시 오남읍 오남리 429번지 108-1401(신우아이딜1차아108동1401호~1401호)","category":"회원제형태 - 기타1"}]},{"lat":"37.690135277","long":"127.20372757","items":[{"name":"조은상사","tel":"031-529-8486","addr":"경기도 남양주시 오남읍 오남리 815-1번지","category":"자동차정비 유지 - 자동차부품"}]},{"lat":"37.684219187","long":"127.20708995","items":[{"name":"주문진생선구이찌개","tel":"031-528-9250","addr":"경기도 남양주시 오남읍 오남리 559","category":"일반휴게음식 - 일반한식"}]},{"lat":"37.697328733","long":"127.21192216","items":[{"name":"주식회사 루프트케어","tel":"031-8080-2247","addr":"경기도 남양주시 오남읍 오남리 108-29번지 나동 2층","category":"전기제품 - 기타전기제품"}]},{"lat":"37.684357243","long":"127.21058203","items":[{"name":"주식회사 엠에스텔레콤","tel":"031-575-5011","addr":"경기도 남양주시 오남읍 오남리 329번지","category":"사무통신 - 통신기기"}]},{"lat":"37.690714813","long":"127.2020058","items":[{"name":"주식회사 영림","tel":"031-574-0508","addr":"경기도 남양주시 오남읍 오남리 823-2번지","category":"의류 - 정장"}]},{"lat":"37.688799961","long":"127.20483503","items":[{"name":"주식회사 율컴퍼니","tel":"031-575-5295","addr":"경기도 남양주시 오남읍 오남리 583-7번지","category":"의류 - 아동의류"}]},{"lat":"37.691520926","long":"127.19946829","items":[{"name":"주식회사 이룸","tel":"070-4639-6011","addr":"경기도 남양주시 오남읍 오남리 836-14번지","category":"용역 서비스 - 기타용역서비스"}]},{"lat":"37.692439955","long":"127.20996965","items":[{"name":"주식회사 태경오토","tel":"031-572-2777","addr":"경기도 남양주시 오남읍 오남리 706-1번지 101호","category":"자동차정비 유지 - 자동차부품"}]},{"lat":"37.697495812","long":"127.21422439","items":[{"name":"주식회사금산윈테크","tel":"031-574-9141","addr":"경기도 남양주시 오남읍 오남리 107","category":"기타 - 기계공구"}]},{"lat":"37.688300531","long":"127.20182929","items":[{"name":"주식회사알로텍","tel":"031-555-7308","addr":"경기도 남양주시 오남읍 오남리 580-10","category":"기타의료기관 - 기타의료기관 및 기타"}]},{"lat":"37.678966808","long":"127.20695086","items":[{"name":"중소기업가구","tel":"031-1529-4692","addr":"경기도 남양주시 오남읍 오남리 470번지","category":"가구 - 일반가구"}]},{"lat":"37.692468999","long":"127.21391533","items":[{"name":"쥬비니엘","tel":"","addr":"경기도 남양주시 오남읍 오남리 216번지 202호","category":"보건위생 - 피부미용실"}]},{"lat":"37.689297141","long":"127.20908793","items":[{"name":"진주어린이집[아이행복]","tel":"031-575-8060","addr":"경기도 남양주시 오남읍 오남리 632-2번지","category":"학원 - 유아원"}]},{"lat":"37.682915309","long":"127.21080474","items":[{"name":"진짜맛잇는갈비집","tel":"031-527-3778","addr":"경기도 남양주시 오남읍 오남리 342-1번지 1층","category":"일반휴게음식 - 일반한식"}]},{"lat":"37.682709285","long":"127.21012398","items":[{"name":"착한 아이스크림 할인점","tel":"02-000-0000","addr":"경기도 남양주시 오남읍 오남리 529-1번지 가동 102호","category":"음료식품 - 기타음료식품"}]},{"lat":"37.694717068","long":"127.22124624","items":[{"name":"착한낙지오남점","tel":"031-574-5537","addr":"경기도 남양주시 오남읍 오남리 30-1번지","category":"일반휴게음식 - 일반한식"}]},{"lat":"37.687355333","long":"127.2117808","items":[{"name":"참숯화로구이","tel":"031-575-2896","addr":"경기도 남양주시 오남읍 오남리 247번지","category":"일반휴게음식 - 일반한식"},{"name":"헤어루팡","tel":"031-574-8183","addr":"경기도 남양주시 오남읍 오남리 247","category":"보건위생 - 미용원"}]},{"lat":"37.683411316","long":"127.21053405","items":[{"name":"창성철물건재","tel":"031-529-5552","addr":"경기도 남양주시 오남읍 오남리 333-1번지","category":"건축자재 - 목재·석재·철물"},{"name":"타이난","tel":"031-573-1392","addr":"경기도 남양주시 오남읍 오남리 333-1번지 1층","category":"일반휴게음식 - 서양음식"}]},{"lat":"37.69616536","long":"127.20216778","items":[{"name":"채널미디어","tel":"02-302-9830","addr":"경기도 남양주시 오남읍 오남리 784-15번지 402호","category":"용역 서비스 - 사무서비스"}]},{"lat":"37.682132492","long":"127.2102244","items":[{"name":"천마산산사람포차","tel":"031-571-2284","addr":"경기도 남양주시 오남읍 오남리 525-2번지 나-4","category":"일반휴게음식 - 일반한식"}]},{"lat":"37.681744002","long":"127.21083548","items":[{"name":"체크앤업학원","tel":"","addr":"경기도 남양주시 오남읍 오남리 393-1번지 제1동 1층일부","category":"학원 - 보습학원"}]},{"lat":"37.68627574","long":"127.20572381","items":[{"name":"초원삼겹살","tel":"031-574-4233","addr":"경기도 남양주시 오남읍 오남리 591번지","category":"일반휴게음식 - 일반한식"},{"name":"투엑스원","tel":"031-528-6263","addr":"경기도 남양주시 오남읍 오남리 591번지 1층","category":"자동차정비 유지 - 카인테리어"}]},{"lat":"37.686416012","long":"127.20796892","items":[{"name":"초이스소파","tel":"031-575-1588","addr":"경기도 남양주시 오남읍 오남리 609-2번지","category":"가구 - 일반가구"}]},{"lat":"37.687387546","long":"127.20883322","items":[{"name":"최가네","tel":"031-429-7570","addr":"경기도 남양주시 오남읍 오남리 620-29번지","category":"음료식품 - 기타음료식품"}]},{"lat":"37.679054642","long":"127.20825473","items":[{"name":"취락","tel":"031-529-5289","addr":"경기도 남양주시 오남읍 오남리 475-4번지","category":"일반휴게음식 - 일반한식"}]},{"lat":"37.69216017","long":"127.21530902","items":[{"name":"칠공팔공","tel":"031-528-7084","addr":"경기도 남양주시 오남읍 오남리 190-2번지","category":"일반휴게음식 - 주점"}]},{"lat":"37.678328164","long":"127.2115061","items":[{"name":"카페 블레싱","tel":"031-555-5555","addr":"경기도 남양주시 오남읍 오남리 418-1번지","category":"일반휴게음식 - 서양음식"}]},{"lat":"37.679409977","long":"127.21113504","items":[{"name":"캠핑와","tel":"070-4120-2930","addr":"경기도 남양주시 오남읍 오남리 412-2번지","category":"일반휴게음식 - 일반한식"},{"name":"하늘디자인","tel":"031-516-2500","addr":"경기도 남양주시 오남읍 오남리 412-2번지","category":"용역 서비스 - 종합용역"}]},{"lat":"37.686158961","long":"127.21070043","items":[{"name":"커피앙세","tel":"","addr":"경기도 남양주시 오남읍 오남리 263-1번지 나영빌딩 지하1층","category":"일반휴게음식 - 서양음식"}]},{"lat":"37.683271349","long":"127.20814165","items":[{"name":"커피지만","tel":"031-111-1111","addr":"경기도 남양주시 오남읍 오남리 887번지 신동아파밀리에아파트 1층 101호","category":"음료식품 - 기타음료식품"}]},{"lat":"37.6806368","long":"127.21027692","items":[{"name":"컴닥터","tel":"031-527-3119","addr":"경기도 남양주시 오남읍 오남리 481번지 1층","category":"사무통신 - 컴퓨터"}]},{"lat":"37.684771995","long":"127.2052209","items":[{"name":"케이슈퍼실러","tel":"031-527-5177","addr":"경기도 남양주시 오남읍 오남리 572-33번지 1동","category":"기타 - 기계공구"}]},{"lat":"37.69630023","long":"127.20758795","items":[{"name":"킹콩샤워 남양주점","tel":"","addr":"경기도 남양주시 오남읍 오남리 754-8번지","category":"자동차정비 유지 - 세차장"}]},{"lat":"37.688830008","long":"127.20830435","items":[{"name":"탑스크린골프연습장","tel":"031-575-4422","addr":"경기도 남양주시 오남읍 오남리 616-1","category":"회원제형태 - 레져업소"}]},{"lat":"37.685798737","long":"127.21060873","items":[{"name":"탑스타 PC 오남점","tel":"070-8991-0745","addr":"경기도 남양주시 오남읍 오남리 602-11번지 2층","category":"레저업소 - 기타레져업소"},{"name":"토마토 노래연습장","tel":"031-529-0474","addr":"경기도 남양주시 오남읍 오남리 602-11번지","category":"레저업소 - 노 래 방"}]},{"lat":"37.690694153","long":"127.21388763","items":[{"name":"토마토","tel":"031-575-0780","addr":"경기도 남양주시 오남읍 오남리 203-7 지하 103","category":"의류 - 정장"}]},{"lat":"37.678358526","long":"127.2096131","items":[{"name":"트루커피바리스타학원/몬스터 주식회사(Mon","tel":"031-000-0000","addr":"경기도 남양주시 오남읍 오남리 476-3번지","category":"학원 - 기능학원"}]},{"lat":"37.679862313","long":"127.21008205","items":[{"name":"파리바게뜨오남점","tel":"031-528-0456","addr":"경기도 남양주시 오남읍 오남리 478-6","category":"음료식품 - 제과점"}]},{"lat":"37.680222059","long":"127.21044581","items":[{"name":"팡팡마트","tel":"031-528-9993","addr":"경기도 남양주시 오남읍 오남리 404-8번지 102호","category":"음료식품 - 기타음료식품"}]},{"lat":"37.684969155","long":"127.2110032","items":[{"name":"폰세상휴대폰백화점","tel":"031-527-6001","addr":"경기도 남양주시 오남읍 오남리 326번지","category":"사무통신 - 통신기기"}]},{"lat":"37.680718265","long":"127.21006176","items":[{"name":"프라임기획","tel":"031-573-9184","addr":"경기도 남양주시 오남읍 오남리 493-8번지","category":"용역 서비스 - 종합용역"}]},{"lat":"37.700965433","long":"127.21869056","items":[{"name":"플라워펜션","tel":"031-575-7605","addr":"경기도 남양주시 오남읍 오남리 79번지","category":"숙박업 - 여관/기타숙박업"}]},{"lat":"37.696248737","long":"127.20080738","items":[{"name":"피엘컴퍼니","tel":"070-7677-8333","addr":"경기도 남양주시 오남읍 오남리 891번지 오남아이파크 104동 802호","category":"용역 서비스 - 종합용역"}]},{"lat":"37.693357503","long":"127.21583399","items":[{"name":"하나수족관","tel":"031-515-5155","addr":"경기도 남양주시 오남읍 오남리 128-3번지 외2필지 1층","category":"문화.취미 - 수족관"}]},{"lat":"37.683076261","long":"127.21149672","items":[{"name":"하나어린이집[아이행복]","tel":"031-575-6600","addr":"경기도 남양주시 오남읍 오남리 341-2번지","category":"학원 - 유아원"}]},{"lat":"37.687769141","long":"127.20699765","items":[{"name":"한국기업","tel":"031-558-1181","addr":"경기도 남양주시 오남읍 오남리 612번지","category":"용역 서비스 - 종합용역"}]},{"lat":"37.685996748","long":"127.21072265","items":[{"name":"한양종합가구","tel":"031-575-0009","addr":"경기도 남양주시 오남읍 오남리 263-2번지","category":"가구 - 일반가구"}]},{"lat":"37.677214843","long":"127.20930387","items":[{"name":"해법영어 금호어울림교실","tel":"","addr":"경기도 남양주시 오남읍 오남리 464번지 남양주오남리금호어울림 110동 101호","category":"학원 - 기타 교육기관"}]},{"lat":"37.696853348","long":"127.20023071","items":[{"name":"해법영어교실","tel":"","addr":"경기도 남양주시 오남읍 오남리 891번지 오남아이파크 106동 102호","category":"학원 - 기타 교육기관"}]},{"lat":"37.678192539","long":"127.21177778","items":[{"name":"해승","tel":"02-3392-0285","addr":"경기도 남양주시 오남읍 오남리 419번지 카사빌라","category":"건축자재 - 인테리어전문"}]},{"lat":"37.68643321","long":"127.21354679","items":[{"name":"행운시스템","tel":"031-569-9827","addr":"경기도 남양주시 오남읍 오남리 250번지 파라다이스빌 106동 905호","category":"전기제품 - 기타전기제품"}]},{"lat":"37.686937541","long":"127.20855989","items":[{"name":"혜성농산물","tel":"","addr":"경기도 남양주시 오남읍 오남리 607번지 성훈주택 103호","category":"음료식품 - 농·축·수산품"}]},{"lat":"37.6882161","long":"127.20380175","items":[{"name":"홍익에듀컴퍼니","tel":"031-529-5648","addr":"경기도 남양주시 오남읍 오남리 582번지","category":"사무통신 - 기타 사무용품"}]},{"lat":"37.691664705","long":"127.21527359","items":[{"name":"황금조개","tel":"031-573-9297","addr":"경기도 남양주시 오남읍 오남리 194번지","category":"일반휴게음식 - 일반한식"}]},{"lat":"37.693831962","long":"127.22241147","items":[{"name":"효가원","tel":"070-7772-6951","addr":"경기도 남양주시 오남읍 오남리 23-6번지","category":"기타의료기관 - 기타의료기관 및 기타"}]},{"lat":"37.684158932","long":"127.21063816","items":[{"name":"휴대폰DC마트","tel":"","addr":"경기도 남양주시 오남읍 오남리 535-7번지","category":"사무통신 - 통신기기"}]},{"lat":"37.69629989","long":"127.20253097","items":[{"name":"희목가구","tel":"031-111-1111","addr":"경기도 남양주시 오남읍 오남리 760-1번지 784-34","category":"가구 - 일반가구"}]}]