[{"lat":"37.550044066","long":"127.45914487","items":[{"name":"(주)다빈치프로덕츠","tel":"031-774-3472","addr":"경기도 양평군 옥천면 신복리 341-1번지","category":"레져용품 - 스포츠·레져용품"},{"name":"(주)양평패라글리이딩파크","tel":"031-775-2681","addr":"경기도 양평군 옥천면 신복리 341-1번지","category":"레저업소 - 기타레져업소"},{"name":"동막골가든","tel":"031-773-2622","addr":"경기도 양평군 옥천면 신복리 341-1번지","category":"일반휴게음식 - 일반한식"}]},{"lat":"37.566792548","long":"127.45698324","items":[{"name":"(주)도전과이룸여행사","tel":"031-773-3811","addr":"경기도 양평군 옥천면 신복리 141-5번지 2층","category":"여행 - 관광여행"},{"name":"GS25한화리조트양평점","tel":"","addr":"경기도 양평군 옥천면 신복리 141-5번지 한화리조트","category":"유통업 영리 - 편 의 점"},{"name":"선물코너","tel":"031-772-3811","addr":"경기도 양평군 옥천면 신복리 141-5번지 한화리조트","category":"신변잡화 - 액세서리"},{"name":"알에스푸드빌 양평","tel":"031-772-3050","addr":"경기도 양평군 옥천면 신복리 141-5번지 (2층(한화콘도미니엄))","category":"일반휴게음식 - 일반한식"},{"name":"프라자노래방","tel":"031-772-3811","addr":"경기도 양평군 옥천면 신복리 141-5번지","category":"레저업소 - 노 래 방"}]},{"lat":"37.53432366","long":"127.46795312","items":[{"name":"(주)양평한우","tel":"031-775-5949","addr":"경기도 양평군 옥천면 신복리 830-1번지","category":"일반휴게음식 - 일반한식"},{"name":"양평한우의집(정육)","tel":"031-775-5949","addr":"경기도 양평군 옥천면 신복리 830-1","category":"음료식품 - 정육점"}]},{"lat":"37.552934168","long":"127.45967174","items":[{"name":"가래징개","tel":"031-772-5385","addr":"경기도 양평군 옥천면 신복리 311-3번지","category":"일반휴게음식 - 일반한식"}]},{"lat":"37.542686118","long":"127.46300376","items":[{"name":"강원한우의집","tel":"031-773-0253","addr":"경기도 양평군 옥천면 신복리 481번지","category":"음료식품 - 정육점"},{"name":"세븐편의점","tel":"02-1111-1111","addr":"경기도 양평군 옥천면 신복리 481번지","category":"유통업 영리 - 슈퍼마켓"}]},{"lat":"37.535103283","long":"127.45276325","items":[{"name":"건강산업","tel":"031-775-2728","addr":"경기도 양평군 옥천면 신복리 915번지","category":"레져용품 - 스포츠·레져용품"}]},{"lat":"37.552931364","long":"127.46039599","items":[{"name":"게르마니아","tel":"031-771-9898","addr":"경기도 양평군 옥천면 신복리 331번지","category":"보건위생 - 사우나"},{"name":"게르마니아","tel":"031-771-9898","addr":"경기도 양평군 옥천면 신복리 331번지","category":"용역 서비스 - 부동산 중개·임대"},{"name":"패러러브","tel":"031-774-1022","addr":"경기도 양평군 옥천면 신복리 331번지 게르마니아 1층","category":"레저업소 - 기타레져업소"}]},{"lat":"37.551738127","long":"127.4590873","items":[{"name":"고은동가","tel":"031-775-8038","addr":"경기도 양평군 옥천면 신복리 307번지","category":"문화.취미 - 민예·공예품"}]},{"lat":"37.536045949","long":"127.47215004","items":[{"name":"공감힐링 연구소","tel":"","addr":"경기도 양평군 옥천면 신복리 704-29번지","category":"학원 - 기타 교육기관"}]},{"lat":"37.543099235","long":"127.46334575","items":[{"name":"김상진가게","tel":"031-775-1514","addr":"경기도 양평군 옥천면 신복리 482-12번지 1층","category":"일반휴게음식 - 일반한식"}]},{"lat":"37.532404187","long":"127.46575767","items":[{"name":"꽃국수","tel":"031-772-1337","addr":"경기도 양평군 옥천면 신복리 786번지","category":"일반휴게음식 - 일반한식"}]},{"lat":"37.542208919","long":"127.46292162","items":[{"name":"꽃피우다카페","tel":"070-8866-7720","addr":"경기도 양평군 옥천면 신복리 459-6번지 1층","category":"일반휴게음식 - 서양음식"},{"name":"커피포트","tel":"031-775-8038","addr":"경기도 양평군 옥천면 신복리 459-6번지 외1필지","category":"일반휴게음식 - 일반한식"}]},{"lat":"37.542101201","long":"127.46281912","items":[{"name":"나주장작불곰탕","tel":"031-771-8892","addr":"경기도 양평군 옥천면 신복리 461-2","category":"일반휴게음식 - 일반한식"}]},{"lat":"37.535239802","long":"127.47095702","items":[{"name":"내가보MD양평점","tel":"031-774-3828","addr":"경기도 양평군 옥천면 신복리 704-17","category":"보건위생 - 의료용품"}]},{"lat":"37.55215213","long":"127.45920299","items":[{"name":"대부산가든","tel":"031-772-5711","addr":"경기도 양평군 옥천면 신복리 307-1번지","category":"일반휴게음식 - 일반한식"}]},{"lat":"37.532570492","long":"127.46928855","items":[{"name":"대우특수용접","tel":"031-772-5737","addr":"경기도 양평군 옥천면 신복리 732-4번지","category":"용역 서비스 - 기타용역서비스"},{"name":"베리타커피(VERITA COFFEE)","tel":"031-774-8810","addr":"경기도 양평군 옥천면 신복리 732-4","category":"일반휴게음식 - 서양음식"}]},{"lat":"37.535269161","long":"127.47036888","items":[{"name":"도그(DOGUE)","tel":"02-2058-0727","addr":"경기도 양평군 옥천면 신복리 815-1번지","category":"문화.취미 - 애완동물"}]},{"lat":"37.585595944","long":"127.45461799","items":[{"name":"도치골가든","tel":"031-774-1256","addr":"경기도 양평군 옥천면 신복리 82번지","category":"일반휴게음식 - 일반한식"}]},{"lat":"37.549908923","long":"127.45914405","items":[{"name":"동막골식당","tel":"031-773-2622","addr":"경기도 양평군 옥천면 신복리 342-2번지 외 1호","category":"일반휴게음식 - 일반한식"}]},{"lat":"37.586371782","long":"127.45670589","items":[{"name":"동아펜션","tel":"031-772-3018","addr":"경기도 양평군 옥천면 신복리 90-1번지","category":"숙박업 - 여관/기타숙박업"}]},{"lat":"37.530133297","long":"127.46356018","items":[{"name":"드림 스카이","tel":"031-774-4014","addr":"경기도 양평군 옥천면 신복리 1019번지","category":"레져용품 - 스포츠·레져용품"}]},{"lat":"37.584679559","long":"127.45628804","items":[{"name":"라임오렌지","tel":"070-4922-1261","addr":"경기도 양평군 옥천면 신복리 78-22번지","category":"숙박업 - 여관/기타숙박업"}]},{"lat":"37.532154173","long":"127.46976113","items":[{"name":"만복가든","tel":"031-773-4530","addr":"경기도 양평군 옥천면 신복리 731-1번지","category":"일반휴게음식 - 일반한식"},{"name":"양평기사식당","tel":"031-775-0401","addr":"경기도 양평군 옥천면 신복리 731-1번지 1층","category":"일반휴게음식 - 일반한식"}]},{"lat":"37.5307929","long":"127.45842798","items":[{"name":"매스 튜터(Math tutor)","tel":"070-9297-6627","addr":"경기도 양평군 옥천면 신복리 957-1번지","category":"서적문구 - 출판 및 인쇄물"}]},{"lat":"37.523299902","long":"127.46226251","items":[{"name":"몽실면당","tel":"031-771-4923","addr":"경기도 양평군 옥천면 신복리 1134번지","category":"일반휴게음식 - 일반한식"}]},{"lat":"37.549402331","long":"127.45967282","items":[{"name":"뭉치네정육식당","tel":"031-775-8877","addr":"경기도 양평군 옥천면 신복리 347-1번지","category":"음료식품 - 정육점"},{"name":"뭉치네정육식당","tel":"031-775-8877","addr":"경기도 양평군 옥천면 신복리 347-1번지","category":"일반휴게음식 - 일반한식"}]},{"lat":"37.549268368","long":"127.45936647","items":[{"name":"미래항공스포츠","tel":"031-774-8478","addr":"경기도 양평군 옥천면 신복리 346-1번지","category":"레져용품 - 스포츠·레져용품"},{"name":"숯가마한우집","tel":"031-772-5678","addr":"경기도 양평군 옥천면 신복리 346-1번지","category":"일반휴게음식 - 일반한식"}]},{"lat":"37.543022071","long":"127.46233823","items":[{"name":"방앗간가든","tel":"031-772-4238","addr":"경기도 양평군 옥천면 신복리 489-3번지","category":"일반휴게음식 - 일반한식"}]},{"lat":"37.540736078","long":"127.46401011","items":[{"name":"보고리반상","tel":"031-771-5418","addr":"경기도 양평군 옥천면 신복리 458-6번지 1층","category":"일반휴게음식 - 일반한식"}]},{"lat":"37.5288833","long":"127.4629529","items":[{"name":"블루양평영농조합법인","tel":"070-7605-5425","addr":"경기도 양평군 옥천면 신복리 1029-1","category":"음료식품 - 농·축·수산품"},{"name":"양평신복마을 협동조합","tel":"031-771-8892","addr":"경기도 양평군 옥천면 신복리 1029-1번지 1층","category":"음료식품 - 농·축·수산품"}]},{"lat":"37.551930165","long":"127.45129137","items":[{"name":"빌라엘라","tel":"","addr":"경기도 양평군 옥천면 신복리 235-21번지","category":"숙박업 - 여관/기타숙박업"}]},{"lat":"37.584651356","long":"127.45659355","items":[{"name":"쁘띠펜션","tel":"031-775-7752","addr":"경기도 양평군 옥천면 신복리 78-20","category":"음료식품 - 기타음료식품"}]},{"lat":"37.590398615","long":"127.44975575","items":[{"name":"삐삐산장","tel":"031-773-2721","addr":"경기도 양평군 옥천면 신복리 73-4번지","category":"유통업 영리 - 슈퍼마켓"}]},{"lat":"37.588983046","long":"127.45476301","items":[{"name":"산너머펜션","tel":"031-772-0031","addr":"경기도 양평군 옥천면 신복리 65번지","category":"숙박업 - 여관/기타숙박업"}]},{"lat":"37.550736184","long":"127.4595678","items":[{"name":"시골가든","tel":"031-775-5500","addr":"경기도 양평군 옥천면 신복리 338-1번지","category":"일반휴게음식 - 일반한식"}]},{"lat":"37.552545662","long":"127.45995229","items":[{"name":"신복3리구판장","tel":"031-772-5702","addr":"경기도 양평군 옥천면 신복리 335-3","category":"음료식품 - 기타음료식품"}]},{"lat":"37.555711875","long":"127.46361573","items":[{"name":"쌈지골","tel":"","addr":"경기도 양평군 옥천면 신복리 192-1번지","category":"일반휴게음식 - 일반한식"}]},{"lat":"37.539909669","long":"127.4633714","items":[{"name":"쏘유","tel":"031-772-0077","addr":"경기도 양평군 옥천면 신복리 694번지 1,2층","category":"일반휴게음식 - 서양음식"},{"name":"에이유쇼콜라(au쇼콜라)","tel":"031-000-0000","addr":"경기도 양평군 옥천면 신복리 694번지","category":"음료식품 - 기타음료식품"}]},{"lat":"37.556625456","long":"127.45569928","items":[{"name":"야단법석농원","tel":"031-775-1607","addr":"경기도 양평군 옥천면 신복리 197-7번지","category":"회원제형태 - 기타1"}]},{"lat":"37.528659696","long":"127.46484081","items":[{"name":"양재네","tel":"031-772-1810","addr":"경기도 양평군 옥천면 신복리 1107-1","category":"일반휴게음식 - 일반한식"}]},{"lat":"37.532682597","long":"127.46598567","items":[{"name":"예르하우스모텔","tel":"031-774-6224","addr":"경기도 양평군 옥천면 신복리 788번지","category":"숙박업 - 여관/기타숙박업"}]},{"lat":"37.533572193","long":"127.4665908","items":[{"name":"오리촌돌판구이","tel":"031-774-2447","addr":"경기도 양평군 옥천면 신복리 799-1번지","category":"일반휴게음식 - 일반한식"}]},{"lat":"37.581676444","long":"127.4593718","items":[{"name":"오픈하우스","tel":"031-771-6306","addr":"경기도 양평군 옥천면 신복리 117-1","category":"일반휴게음식 - 서양음식"},{"name":"중미산천문대","tel":"031-771-0306","addr":"경기도 양평군 옥천면 신복리 117-1번지 중미산천문대","category":"학원 - 기타 교육기관"}]},{"lat":"37.551158304","long":"127.45050591","items":[{"name":"오피러스","tel":"031-775-5262","addr":"경기도 양평군 옥천면 신복리 235-24번지 1층","category":"숙박업 - 여관/기타숙박업"}]},{"lat":"37.54979123","long":"127.45929044","items":[{"name":"오피카페","tel":"031-4131-5252","addr":"경기도 양평군 옥천면 신복리 343-1번지","category":"일반휴게음식 - 서양음식"}]},{"lat":"37.53212986","long":"127.46678551","items":[{"name":"옥천순두부","tel":"031-774-4369","addr":"경기도 양평군 옥천면 신복리 798-1번지","category":"일반휴게음식 - 일반한식"}]},{"lat":"37.529800371","long":"127.4657529","items":[{"name":"우리집밥상","tel":"031-772-8172","addr":"경기도 양평군 옥천면 신복리 763-1번지","category":"일반휴게음식 - 일반한식"}]},{"lat":"37.546826355","long":"127.46178447","items":[{"name":"울엄마보리밥","tel":"031-775-5617","addr":"경기도 양평군 옥천면 신복리 353-6번지","category":"일반휴게음식 - 일반한식"}]},{"lat":"37.546572899","long":"127.46208844","items":[{"name":"자연장모텔","tel":"031-771-2172","addr":"경기도 양평군 옥천면 신복리 353-3번지","category":"숙박업 - 여관/기타숙박업"}]},{"lat":"37.532545411","long":"127.46650525","items":[{"name":"주)캠핑위드","tel":"031-774-2001","addr":"경기도 양평군 옥천면 신복리 792-1번지","category":"용역 서비스 - 기타용역서비스"}]},{"lat":"37.540686689","long":"127.46970118","items":[{"name":"주식회사한국야구아카데미","tel":"02-2653-0100","addr":"경기도 양평군 옥천면 신복리 418번지","category":"레져용품 - 스포츠·레져용품"}]},{"lat":"37.534992906","long":"127.46731238","items":[{"name":"중미산마포소금구이","tel":"031-771-1322","addr":"경기도 양평군 옥천면 신복리 835-6번지","category":"일반휴게음식 - 일반한식"}]},{"lat":"37.535128584","long":"127.46717745","items":[{"name":"중미산막국수","tel":"031-773-1834","addr":"경기도 양평군 옥천면 신복리 835-1번지","category":"일반휴게음식 - 일반한식"}]},{"lat":"37.584875654","long":"127.45917622","items":[{"name":"중미산모텔","tel":"031-773-1646","addr":"경기도 양평군 옥천면 신복리 98번지","category":"숙박업 - 여관/기타숙박업"}]},{"lat":"37.529712845","long":"127.46509619","items":[{"name":"찐빵앤커피","tel":"031-774-1192","addr":"경기도 양평군 옥천면 신복리 769-1번지 1층","category":"일반휴게음식 - 서양음식"}]},{"lat":"37.553067998","long":"127.46001206","items":[{"name":"청담엘리스미장원","tel":"02-511-2729","addr":"경기도 양평군 옥천면 신복리 335-1번지","category":"보건위생 - 미용원"}]},{"lat":"37.535292401","long":"127.46675984","items":[{"name":"카페중미산제빵소","tel":"031-772-1734","addr":"경기도 양평군 옥천면 신복리 834-21번지","category":"일반휴게음식 - 서양음식"}]},{"lat":"37.533157841","long":"127.46656561","items":[{"name":"펠리시아(felicia)","tel":"031-771-1178","addr":"경기도 양평군 옥천면 신복리 799-9번지","category":"일반휴게음식 - 서양음식"}]},{"lat":"37.585481319","long":"127.45631555","items":[{"name":"프라미스","tel":"031-775-9595","addr":"경기도 양평군 옥천면 신복리 78-2번지","category":"숙박업 - 여관/기타숙박업"}]},{"lat":"37.530909437","long":"127.46553348","items":[{"name":"호남묵은지","tel":"031-775-1038","addr":"경기도 양평군 옥천면 신복리 778-3번지","category":"일반휴게음식 - 일반한식"}]},{"lat":"37.534380655","long":"127.46720675","items":[{"name":"호암파크여관","tel":"031-771-6945","addr":"경기도 양평군 옥천면 신복리 802-1번지","category":"숙박업 - 여관/기타숙박업"}]},{"lat":"37.533600887","long":"127.46845775","items":[{"name":"화니핀야생화찻집","tel":"031-775-6501","addr":"경기도 양평군 옥천면 신복리 804-1","category":"일반휴게음식 - 스넥"}]},{"lat":"37.529572848","long":"127.46403189","items":[{"name":"화사함드림주식회사","tel":"031-227-9937","addr":"경기도 양평군 옥천면 신복리 1023-3번지","category":"음료식품 - 농·축·수산품"}]},{"lat":"37.585650803","long":"127.45675812","items":[{"name":"후","tel":"031-772-1931","addr":"경기도 양평군 옥천면 신복리 89번지","category":"신변잡화 - 액세서리"}]}]