[{"lat":"37.492167766","long":"127.53394231","imageIndex":4,"items":[{"name":"개성집","tel":"031-771-9991","addr":"경기도 양평군 양평읍 대흥리 686-1번지","indutype":"일반휴게음식 - 일반한식","category":"restaurant"}]},{"lat":"37.491687742","long":"127.53047884","imageIndex":4,"items":[{"name":"동네갈비","tel":"031-773-8338","addr":"경기도 양평군 양평읍 대흥리 710-6번지 1-2층","indutype":"일반휴게음식 - 일반한식","category":"restaurant"}]},{"lat":"37.492055888","long":"127.53477827","imageIndex":4,"items":[{"name":"삿갓봉뽕잎해물칼국수","tel":"031-774-1259","addr":"경기도 양평군 양평읍 대흥리 677-2","indutype":"일반휴게음식 - 일반한식","category":"restaurant"}]},{"lat":"37.488247262","long":"127.54216859","imageIndex":4,"items":[{"name":"양평공사","tel":"031-770-4093","addr":"경기도 양평군 양평읍 대흥리 505-3번지","indutype":"일반휴게음식 - 서양음식","category":"restaurant"},{"name":"양평지방공사/양평시장점","tel":"031-770-4093","addr":"경기도 양평군 양평읍 대흥리 505-3번지","indutype":"일반휴게음식 - 스넥","category":"restaurant"}]},{"lat":"37.491827899","long":"127.53538726","imageIndex":4,"items":[{"name":"홍할머니곰탕","tel":"031-772-9905","addr":"경기도 양평군 양평읍 대흥리 676-2번지","indutype":"일반휴게음식 - 일반한식","category":"restaurant"}]},{"lat":"37.481944935","long":"127.54314083","imageIndex":4,"items":[{"name":"황골가든","tel":"031-774-1413","addr":"경기도 양평군 양평읍 대흥리 590-4번지","indutype":"일반휴게음식 - 일반한식","category":"restaurant"}]},{"lat":"37.491667854","long":"127.53089708","imageIndex":4,"items":[{"name":"황금코다리 양평점","tel":"031-775-6708","addr":"경기도 양평군 양평읍 대흥리 711-1번지","indutype":"일반휴게음식 - 일반한식","category":"restaurant"}]}]