[{"lat":"37.315399006","long":"127.07540809","items":[{"name":"(수)약손경락","tel":"031-276-7717","addr":"경기도 용인시 수지구 성복동 162-2번지 예반아이엔프라자 204호","category":"보건위생 - 화장품"},{"name":"JS진성디자인","tel":"031-276-1473","addr":"경기도 용인시 수지구 성복동 162-2번지 예반아이엔프라자 114호","category":"건축자재 - 인테리어전문"},{"name":"교촌치킨 성복점","tel":"031-000-0000","addr":"경기도 용인시 수지구 성복동 162-2번지 예반아이엔프라자 110,111호","category":"일반휴게음식 - 스넥"},{"name":"구구아이즈안경원(goo goo eyes)","tel":"031-889-8154","addr":"경기도 용인시 수지구 성복동 162-2번지 예반아이프라자 101,102호","category":"보건위생 - 안경"},{"name":"그랑도르코리아","tel":"031-272-7652","addr":"경기도 용인시 수지구 성복동 162-2번지 예반프라자 109호","category":"음료식품 - 주류 판매점"},{"name":"남문떡볶이성복점","tel":"031-261-8988","addr":"경기도 용인시 수지구 성복동 162-2번지 예반아이엔프라자 1층 114호","category":"일반휴게음식 - 스넥"},{"name":"뜰안에","tel":"031-266-2346","addr":"경기도 용인시 수지구 성복동 162-2번지 예반아이엔프라자 1층 118호","category":"일반휴게음식 - 일반한식"},{"name":"레브(Reve)","tel":"","addr":"경기도 용인시 수지구 성복동 162-2번지 예반아이엔프라자 106호","category":"의류 - 정장"},{"name":"명남성헤어컷","tel":"031-272-7747","addr":"경기도 용인시 수지구 성복동 162-2번지 예반프라자 105호","category":"보건위생 - 미용원"},{"name":"미플라워","tel":"031-263-6369","addr":"경기도 용인시 수지구 성복동 162-2번지","category":"문화.취미 - 화원"},{"name":"배스킨라빈스 용인성복점","tel":"031-272-4040","addr":"경기도 용인시 수지구 성복동 162-2번지 예반아이엔프라자 115호","category":"음료식품 - 제과점"},{"name":"벨르몽드독서토론학원","tel":"031-261-6648","addr":"경기도 용인시 수지구 성복동 162-2번지 예반플라자 204호","category":"회원제형태 - 학원"},{"name":"성복면옥","tel":"031-266-0246","addr":"경기도 용인시 수지구 성복동 162-2번지 에반프라자 105호","category":"일반휴게음식 - 일반한식"},{"name":"세이프존","tel":"031-897-3332","addr":"경기도 용인시 수지구 성복동 162-2번지 예반아이엔프라자 117호","category":"보건위생 - 미용원"},{"name":"수학의 기적학원","tel":"031-272-3727","addr":"경기도 용인시 수지구 성복동 162-2번지 예반아이엔프라자 205호","category":"학원 - 보습학원"},{"name":"쎈스애니툰미술학원","tel":"031-265-6733","addr":"경기도 용인시 수지구 성복동 162-2번지 예반프라자 301호","category":"학원 - 예·체능계학원"},{"name":"에이치스타일(h-style)헤어살롱","tel":"031-276-1570","addr":"경기도 용인시 수지구 성복동 162-2번지 예반아이엔프라자 2층 208호","category":"보건위생 - 미용원"},{"name":"엠스트리트실용음악학원","tel":"031-276-0190","addr":"경기도 용인시 수지구 성복동 162-2 예반프라자 201.202","category":"회원제형태 - 학원"},{"name":"예담가족한의원","tel":"031-265-7337","addr":"경기도 용인시 수지구 성복동 162-2 예반아이엔프라자303호,304호","category":"의원 - 한의원"},{"name":"은성","tel":"031-000-0000","addr":"경기도 용인시 수지구 성복동 162-2번지 예반아이엔프라자 112호","category":"직물 - 침구·수예점"},{"name":"즐거운동물병원","tel":"031-272-7583","addr":"경기도 용인시 수지구 성복동 162-2번지 예반아이엔프라자 113호","category":"기타의료기관 - 동물병원"},{"name":"클락","tel":"031-261-6762","addr":"경기도 용인시 수지구 성복동 162-2번지 예반아이엔프라자 103호","category":"의류 - 정장"},{"name":"튼튼영어마스터클럽성복영어교습소","tel":"031-264-0818","addr":"경기도 용인시 수지구 성복동 162-2번지 예반아이엔프라자 305호","category":"학원 - 외국어학원"},{"name":"팬앤폿","tel":"031-264-3356","addr":"경기도 용인시 수지구 성복동 162-2번지 예반프라자 1층 110호","category":"주방용구 - 주방용구"},{"name":"풀잎린넨","tel":"","addr":"경기도 용인시 수지구 성복동 162-2번지 예반아이엔프라자 103호","category":"의류 - 정장"},{"name":"하트음악학원","tel":"031-262-4372","addr":"경기도 용인시 수지구 성복동 162-2번지 예반아이엔프라자 202호","category":"학원 - 예·체능계학원"},{"name":"현죽","tel":"031-266-6289","addr":"경기도 용인시 수지구 성복동 162-2번지 예반아이엔프라자 104호","category":"일반휴게음식 - 일반한식"}]},{"lat":"37.310710047","long":"127.08113402","items":[{"name":"(주)뉴욕치즈케익팩토리","tel":"031-602-0088","addr":"경기도 용인시 수지구 성복동 33-1번지 수지골드프라자 1B112호","category":"음료식품 - 제과점"},{"name":"(주)에프엠팜","tel":"031-896-6931","addr":"경기도 용인시 수지구 성복동 33-1번지 골드프라자1 B225호","category":"건강식품 - 기타건강식품"},{"name":"(주)쿠쿠파","tel":"031-889-4960","addr":"경기도 용인시 수지구 성복동 33-1번지 수지골드프라자 지하1층 비119호","category":"주방용구 - 기타주방용구"},{"name":"101헤어살롱","tel":"031-276-6870","addr":"경기도 용인시 수지구 성복동 33-1번지 골드프라자1 B203호","category":"보건위생 - 미용원"},{"name":"123당구클럽","tel":"031-897-1230","addr":"경기도 용인시 수지구 성복동 33-1번지 수지골드프라자 213호~216호","category":"레저업소 - 당 구 장"},{"name":"BHC치킨","tel":"031-897-9090","addr":"경기도 용인시 수지구 성복동 33-1번지 수지골드프라자 B동 306호","category":"일반휴게음식 - 스넥"},{"name":"PC온 스튜디오","tel":"031-2678-7789","addr":"경기도 용인시 수지구 성복동 33-1번지 골드프라자1 B104호","category":"사무통신 - 컴퓨터"},{"name":"YES스크린골프존","tel":"031-265-9222","addr":"경기도 용인시 수지구 성복동 33-1번지 수지골드프라자 114동 115호","category":"회원제형태 - 레져업소"},{"name":"가람한의원","tel":"031-889-5549","addr":"경기도 용인시 수지구 성복동 33-1번지 수지골드프라자 103호","category":"의원 - 한의원"},{"name":"강선생건강센터","tel":"031-264-8259","addr":"경기도 용인시 수지구 성복동 33-1번지 골드프라자1 117호","category":"보건위생 - 피부미용실"},{"name":"골드기사식당","tel":"000-000-0000","addr":"경기도 용인시 수지구 성복동 33-1번지 수지골드프라자 B303호 -1","category":"일반휴게음식 - 일반한식"},{"name":"공간","tel":"070-5720-3808","addr":"경기도 용인시 수지구 성복동 33-1번지 골드프라자 B202호","category":"일반휴게음식 - 일반한식"},{"name":"김밥천국 성복점","tel":"031-898-1902","addr":"경기도 용인시 수지구 성복동 33-1번지 골드프라자B305호","category":"일반휴게음식 - 스넥"},{"name":"김송정 머리터","tel":"031-889-3343","addr":"경기도 용인시 수지구 성복동 33-1번지 골드프라자 B207호","category":"보건위생 - 미용원"},{"name":"꼬쟁이","tel":"031-889-1490","addr":"경기도 용인시 수지구 성복동 33-1번지 골드프라자1 B동 304호","category":"일반휴게음식 - 일반한식"},{"name":"닥치고곱창","tel":"02-1899-4186","addr":"경기도 용인시 수지구 성복동 33-1번지 골드프라자1 B214호","category":"일반휴게음식 - 일반한식"},{"name":"더블랑스","tel":"031-897-3888","addr":"경기도 용인시 수지구 성복동 33-1번지 골드프라자1 3층 108호","category":"보건위생 - 화장품"},{"name":"동궁수제전병","tel":"031-272-2235","addr":"경기도 용인시 수지구 성복동 33-1번지 골드프라자1 118호","category":"음료식품 - 기타음료식품"},{"name":"동아애드마케팅동부지사","tel":"031-265-5165","addr":"경기도 용인시 수지구 성복동 33-1번지 수지골드프라자-1 비115호중5호","category":"용역 서비스 - 종합용역"},{"name":"떡빚는아침에","tel":"","addr":"경기도 용인시 수지구 성복동 33-1번지 B201호","category":"음료식품 - 제과점"},{"name":"또봉이통닭성복점","tel":"031-266-9899","addr":"경기도 용인시 수지구 성복동 33-1번지 외2필지수지골드프라자1차제지하1층제비101호,제비102호","category":"일반휴게음식 - 일반한식"},{"name":"레슨 1872 골프아카데미","tel":"031-889-9588","addr":"경기도 용인시 수지구 성복동 33-1번지 수지골드프라자 210,211,212","category":"레저업소 - 스크린골프"},{"name":"마 메종(Ma maison)","tel":"031-890-9050","addr":"경기도 용인시 수지구 성복동 33-1번지 골드프라자1 B동 2층 224호","category":"가구 - 일반가구"},{"name":"메인탑광택타운","tel":"031-272-3869","addr":"경기도 용인시 수지구 성복동 33-1번지 골드프라자B313호","category":"자동차정비 유지 - 카인테리어"},{"name":"미마켓","tel":"080-027-2000","addr":"경기도 용인시 수지구 성복동 33-1번지 골드프라자B210호","category":"보건위생 - 의료용품"},{"name":"베테크","tel":"031-111-1111","addr":"경기도 용인시 수지구 성복동 33-1번지 수지골드프라자1차 208호","category":"농업 - 비료,사료,종자"},{"name":"브니엘더블유뷰티","tel":"02-1644-9069","addr":"경기도 용인시 수지구 성복동 33-1번지 골드프라자1 102동 4층 204호","category":"보건위생 - 화장품"},{"name":"브라우니30(성복점)","tel":"031-276-7468","addr":"경기도 용인시 수지구 성복동 33-1번지 골드프라자1 B206호","category":"음료식품 - 제과점"},{"name":"비에이엔터테인먼트","tel":"070-4686-9412","addr":"경기도 용인시 수지구 성복동 33-1번지 B127호","category":"용역 서비스 - 종합용역"},{"name":"산해진미","tel":"031-889-4290","addr":"경기도 용인시 수지구 성복동 33-1번지 B311,312호","category":"일반휴게음식 - 일반한식"},{"name":"설국","tel":"031-261-4154","addr":"경기도 용인시 수지구 성복동 33-1번지 B110호","category":"일반휴게음식 - 일반한식"},{"name":"성복황소부추곱창","tel":"02-262-0309","addr":"경기도 용인시 수지구 성복동 33-1번지 골드프라자 B212호","category":"일반휴게음식 - 일반한식"},{"name":"셀렉토커피용인성복점","tel":"","addr":"경기도 용인시 수지구 성복동 33-1번지 골드프라자1 B3층 306호","category":"일반휴게음식 - 서양음식"},{"name":"송백자세교정원","tel":"031-898-1428","addr":"경기도 용인시 수지구 성복동 33-1번지 수지골드프라자1 비111호","category":"레져용품 - 골프용품 전문점"},{"name":"수라청","tel":"031-263-3117","addr":"경기도 용인시 수지구 성복동 33-1번지 212호 수지골드프라자제비","category":"일반휴게음식 - 일반한식"},{"name":"수지골드대웅한의원","tel":"031-889-5549","addr":"경기도 용인시 수지구 성복동 33-1번지 수지골드프라자 103호","category":"의원 - 한의원"},{"name":"수지골드펍","tel":"031-262-6240","addr":"경기도 용인시 수지구 성복동 33-1번지 골드프라자1 B동 209호","category":"일반휴게음식 - 서양음식"},{"name":"수지골드프라자관리단","tel":"031-896-5657","addr":"경기도 용인시 수지구 성복동 33-1번지","category":"자동차정비 유지 - 주차장"},{"name":"수지어르신요양센터","tel":"031-264-0595","addr":"경기도 용인시 수지구 성복동 33-1번지 B122 골드프라자 B122,B218호","category":"기타의료기관 - 기타의료기관 및 기타"},{"name":"쉐프가만든떡볶이수지점","tel":"031-276-5500","addr":"경기도 용인시 수지구 성복동 33-1번지 수지골드프라자 B208호","category":"일반휴게음식 - 스넥"},{"name":"스넥식당및매점","tel":"031-889-3192","addr":"경기도 용인시 수지구 성복동 33-1번지 301 (주)성북레저타운","category":"음료식품 - 기타음료식품"},{"name":"아름다운세상","tel":"031-266-8379","addr":"경기도 용인시 수지구 성복동 33-1번지 골드프라자1 301호","category":"보건위생 - 화장품"},{"name":"아이팡팡","tel":"031-8804-6233","addr":"경기도 용인시 수지구 성복동 33-1번지 수지골드프라자 지하1층비120-121호","category":"레저업소 - 기타레져업소"},{"name":"아체빈","tel":"031-897-0803","addr":"경기도 용인시 수지구 성복동 33-1번지 골드프라자1차 B동 211호","category":"음료식품 - 기타음료식품"},{"name":"아트 필라테스","tel":"031-889-1199","addr":"경기도 용인시 수지구 성복동 33-1번지 골드프라자1 104호","category":"레저업소 - 헬스클럽"},{"name":"얼큰메기","tel":"031-896-1221","addr":"경기도 용인시 수지구 성복동 33-1 수지프라자 비108,109호","category":"일반휴게음식 - 일반한식"},{"name":"에이핏바른체형운동센터","tel":"070-7750-2554","addr":"경기도 용인시 수지구 성복동 33-1번지","category":"용역 서비스 - 사무서비스"},{"name":"엠보이스보컬실용음악학원","tel":"","addr":"경기도 용인시 수지구 성복동 33-1번지 골드프라자1 209호","category":"학원 - 예·체능계학원"},{"name":"옻안타는천연염색(수지점)","tel":"070-4922-1261","addr":"경기도 용인시 수지구 성복동 33-1번지 골드프라자1 B227호","category":"보건위생 - 미용원"},{"name":"유나","tel":"031-889-1874","addr":"경기도 용인시 수지구 성복동 33-1번지 골드프라자1차 205호","category":"의류 - 정장"},{"name":"이안","tel":"031-889-5399","addr":"경기도 용인시 수지구 성복동 33-1번지 수지골드프라자 B116호","category":"일반휴게음식 - 주점"},{"name":"일원메디텍","tel":"","addr":"경기도 용인시 수지구 성복동 33-1번지 골드프라자1 107호","category":"약국 - 제약회사"},{"name":"장미의 꿈","tel":"031-889-2670","addr":"경기도 용인시 수지구 성복동 33-1번지 수지골드프라자 3층 301호","category":"보건위생 - 화장품"},{"name":"장현숙요양센터","tel":"031-261-3214","addr":"경기도 용인시 수지구 성복동 33-1번지 골드프라자1 1층 116호","category":"기타의료기관 - 기타의료기관 및 기타"},{"name":"주식회사 지수리오단약품","tel":"070-7760-7335","addr":"경기도 용인시 수지구 성복동 33-1번지 골드프라자1 지하 123호","category":"약국 - 제약회사"},{"name":"지수약품","tel":"070-7547-7335","addr":"경기도 용인시 수지구 성복동 33-1번지 수지골드프라자 지하층 123호","category":"약국 - 제약회사"},{"name":"지윤에스테틱","tel":"031-889-8071","addr":"경기도 용인시 수지구 성복동 33-1번지 수지골드프라자 1동 111호","category":"보건위생 - 화장품"},{"name":"타입오(TYPE.O)","tel":"070-4789-2381","addr":"경기도 용인시 수지구 성복동 33-1번지 외2필지 수지골드프라자 B105호","category":"의류 - 정장"},{"name":"테레오라이프","tel":"031-889-2628","addr":"경기도 용인시 수지구 성복동 33-1번지 2층 206,207호","category":"보건위생 - 사우나"},{"name":"프라이머스뮤직","tel":"031-897-4794","addr":"경기도 용인시 수지구 성복동 33-1번지 골드프라자1 B223호","category":"학원 - 예·체능계학원"},{"name":"프라이머스뮤직학원","tel":"031-897-4794","addr":"경기도 용인시 수지구 성복동 33-1번지 B223호","category":"학원 - 예·체능계학원"},{"name":"플레뜨(Platte)","tel":"","addr":"경기도 용인시 수지구 성복동 33-1번지 골드프라자1 B동 1층 205호","category":"문화.취미 - 문화취미기타"},{"name":"하나오페라그룹","tel":"031-263-1179","addr":"경기도 용인시 수지구 성복동 33-1번지 수지골드프라자-1 110호","category":"학원 - 예·체능계학원"},{"name":"한지윤피부과","tel":"031-889-8071","addr":"경기도 용인시 수지구 성복동 33-1번지 수지골드프라자 1동 111호","category":"의원 - 의원"},{"name":"홈토피아","tel":"031-889-4470","addr":"경기도 용인시 수지구 성복동 33-1수지골드로데오타운B2층215호","category":"전기제품 - 기타전기제품"},{"name":"홍건축인테리어","tel":"031-261-8823","addr":"경기도 용인시 수지구 성복동 33-1번지 골드프라자1 B동 217호","category":"건축자재 - 인테리어전문"},{"name":"홍대쌀국수(성복점)","tel":"070-8777-2636","addr":"경기도 용인시 수지구 성복동 33-1번지 골드프라자1 지하3층 307호","category":"일반휴게음식 - 서양음식"},{"name":"홍천쌀찐빵","tel":"031-276-8101","addr":"경기도 용인시 수지구 성복동 33-1번지 B동 1층 309호 수지골드프라자1","category":"일반휴게음식 - 스넥"},{"name":"화이트미용실","tel":"031-272-2050","addr":"경기도 용인시 수지구 성복동 33-1번지 수지골드프라자 106호","category":"보건위생 - 미용원"}]},{"lat":"37.319902491","long":"127.06213378","items":[{"name":"(주)바이너리에듀케이션","tel":"031-263-2888","addr":"경기도 용인시 수지구 성복동 409-1번지 501호","category":"용역 서비스 - 사무서비스"},{"name":"GS25수지성복점","tel":"02-2006-2118","addr":"경기도 용인시 수지구 성복동 409-1번지 성복빌딩 105호","category":"유통업 영리 - 편 의 점"},{"name":"목우촌","tel":"031-265-2783","addr":"경기도 용인시 수지구 성복동 409-1번지 성복빌딩 106호","category":"음료식품 - 정육점"},{"name":"미리본의원","tel":"031-889-3399","addr":"경기도 용인시 수지구 성복동 409-1번지 202호","category":"의원 - 의원"},{"name":"비타민야채가게","tel":"031-896-5252","addr":"경기도 용인시 수지구 성복동 409-1번지 108호","category":"음료식품 - 농·축·수산품"},{"name":"소망정형외과의원","tel":"031-889-7582","addr":"경기도 용인시 수지구 성복동 409-1번지 301호","category":"의원 - 의원"},{"name":"수지성서약국","tel":"031-896-9300","addr":"경기도 용인시 수지구 성복동 409-1번지 성복빌딩 106호","category":"약국 - 약국"},{"name":"수지탑치과의원","tel":"031-276-2875","addr":"경기도 용인시 수지구 성복동 409-1번지 302호","category":"의원 - 치과의원"},{"name":"에코학원","tel":"031-276-7298","addr":"경기도 용인시 수지구 성복동 409-1번지 502호","category":"학원 - 보습학원"},{"name":"이조은독서실","tel":"031-261-0000","addr":"경기도 용인시 수지구 성복동 409-1번지 성복빌딩 401호 402","category":"학원 - 독서실"},{"name":"파리바게뜨 성복힐스테이트점","tel":"031-261-8286","addr":"경기도 용인시 수지구 성복동 409-1번지 성복빌딩 102,103호","category":"음료식품 - 제과점"},{"name":"풍년떡집","tel":"031-263-3338","addr":"경기도 용인시 수지구 성복동 409-1번지 104호","category":"음료식품 - 제과점"}]},{"lat":"37.310732266","long":"127.07450117","items":[{"name":"(주)삼호푸드","tel":"031-272-9495","addr":"경기도 용인시 수지구 성복동 197-1번지","category":"일반휴게음식 - 일반한식"}]},{"lat":"37.315152267","long":"127.0808566","items":[{"name":"(주)시티플랜","tel":"033-266-6198","addr":"경기도 용인시 수지구 성복동 740 드림타워 201","category":"회원제형태 - 기타4"},{"name":"(주)알디엠","tel":"031-889-5736","addr":"경기도 용인시 수지구 성복동 740-1번지 드림타워 2층 210호","category":"건축자재 - 부동산 분양"},{"name":"(주)에프.아이.에프","tel":"031-889-5738","addr":"경기도 용인시 수지구 성복동 740-1번지 드림타워 2층 210호","category":"건축자재 - 부동산 분양"},{"name":"(주)파파존스 수지성복","tel":"031-272-8050","addr":"경기도 용인시 수지구 성복동 740-1번지 드림타워 B205호","category":"일반휴게음식 - 서양음식"},{"name":"K&D 스포츠 유도","tel":"031-897-7322","addr":"경기도 용인시 수지구 성복동 740-1번지 드림타워 507호","category":"학원 - 예·체능계학원"},{"name":"공간아로마","tel":"031-889-7673","addr":"경기도 용인시 수지구 성복동 740-1번지 드림타워 3층 307,310,311호","category":"신변잡화 - 기타잡화"},{"name":"국선도","tel":"031-261-4377","addr":"경기도 용인시 수지구 성복동 740드림타워509,510호","category":"회원제형태 - 레져업소"},{"name":"그래김미용실","tel":"031-896-5010","addr":"경기도 용인시 수지구 성복동 740-1번지 외1필지 드림타워 1층 101호","category":"보건위생 - 미용원"},{"name":"나인어클락","tel":"070-4103-9990","addr":"경기도 용인시 수지구 성복동 740-1번지 드림타워 제지하1층제비105호","category":"보건위생 - 미용원"},{"name":"네일앤바디","tel":"031-264-3623","addr":"경기도 용인시 수지구 성복동 740-1번지 드림타워 102호","category":"보건위생 - 화장품"},{"name":"더조은교정센터","tel":"031-272-9399","addr":"경기도 용인시 수지구 성복동 740-1번지 드림타워 207호","category":"보건위생 - 기타대인서비스"},{"name":"디자인예공","tel":"031-266-6244","addr":"경기도 용인시 수지구 성복동 740-1번지 드림타워 201호","category":"건축자재 - 인테리어전문"},{"name":"레드씨어터스튜디오연기학원","tel":"070-4132-4342","addr":"경기도 용인시 수지구 성복동 740-1번지 드림타워 2층 206호","category":"학원 - 예·체능계학원"},{"name":"리본휘트니스","tel":"070-4184-8031","addr":"경기도 용인시 수지구 성복동 740-1번지 드림타워 301~302호","category":"회원제형태 - 레져업소"},{"name":"먹태친구 노가리","tel":"031-261-1024","addr":"경기도 용인시 수지구 성복동 740-1번지 드림타워 104호","category":"일반휴게음식 - 일반한식"},{"name":"멕시카나","tel":"031-263-3592","addr":"경기도 용인시 수지구 성복동 740-1번지 드림타워 202호","category":"일반휴게음식 - 스넥"},{"name":"미래악기","tel":"031-889-6969","addr":"경기도 용인시 수지구 성복동 740-1번지 외1필지 드림타워제 지하2층 207호","category":"레져용품 - 피아노대리점"},{"name":"박종진세무회계사무소","tel":"031-282-1207","addr":"경기도 용인시 수지구 성복동 740 드림타워 1층 106","category":"용역 서비스 - 법률회계서비스(개인)"},{"name":"사가 식탁 (    table)","tel":"","addr":"경기도 용인시 수지구 성복동 740-1번지 드림타워 1층 103호","category":"일반휴게음식 - 일반한식"},{"name":"서울지혜치과의원","tel":"031-262-2008","addr":"경기도 용인시 수지구 성복동 740-1번지 드림타워 309호","category":"의원 - 치과의원"},{"name":"성복동물병원","tel":"031-263-3575","addr":"경기도 용인시 수지구 성복동 2-1드림타워B101","category":"기타의료기관 - 동물병원"},{"name":"세모스쿠알렌 용인지점","tel":"031-266-8523","addr":"경기도 용인시 수지구 성복동 740-1번지 드림타워 407호","category":"보건위생 - 화장품"},{"name":"수지드림불한증막","tel":"031-896-9766","addr":"경기도 용인시 수지구 성복동 740-1번지 드림타워 B209,B301호","category":"보건위생 - 사우나"},{"name":"수지삼천리 자전거","tel":"031-261-3701","addr":"경기도 용인시 수지구 성복동 740 드림타워 B-206","category":"레져용품 - 스포츠·레져용품"},{"name":"수지소마학원","tel":"031-263-1201","addr":"경기도 용인시 수지구 성복동 740-1번지 드림타워 404호,405호,406호","category":"회원제형태 - 서적"},{"name":"아이비스PC","tel":"02-222-2222","addr":"경기도 용인시 수지구 성복동 740-1번지 드림타워 외1필지 지하1층 102호,103호","category":"레저업소 - 기타레져업소"},{"name":"어바웃타임","tel":"031-266-5795","addr":"경기도 용인시 수지구 성복동 740-1번지 드림타워 205호","category":"일반휴게음식 - 서양음식"},{"name":"오대경희한의원","tel":"031-272-5080","addr":"경기도 용인시 수지구 성복동 740-1번지 드림타워 209호","category":"의원 - 한의원"},{"name":"올가휴에스테틱","tel":"031-3100-6155","addr":"경기도 용인시 수지구 성복동 740-1번지 드림타워 102호","category":"보건위생 - 피부미용실"},{"name":"이도가","tel":"031-261-5884","addr":"경기도 용인시 수지구 성복동 740-1번지 드림타워 211호","category":"음료식품 - 기타음료식품"},{"name":"잭스뮤직실용음악학원","tel":"031-261-9997","addr":"경기도 용인시 수지구 성복동 740-1번지 드림타워 105호","category":"학원 - 예·체능계학원"},{"name":"제이비헤어클럽","tel":"031-896-3265","addr":"경기도 용인시 수지구 성복동 740-1번지 드림타워 B201호","category":"보건위생 - 미용원"},{"name":"주식회사와이즈메카수지지점","tel":"031-263-4990","addr":"경기도 용인시 수지구 성복동 740-1번지 드림타워 110호","category":"회원제형태 - 기타4"},{"name":"지에이이노베이션(주)","tel":"00-1661-4796","addr":"경기도 용인시 수지구 성복동 740-1번지 드림타워 207호","category":"유통업 영리 - 기타유통업"},{"name":"퀸","tel":"031-264-9955","addr":"경기도 용인시 수지구 성복동 740-1번지 드림타워 지하2층B208호","category":"직물 - 카페트,커튼,천막,지물"},{"name":"파머스스토리","tel":"070-5121-6774","addr":"경기도 용인시 수지구 성복동 740-1번지 드림타워 203호","category":"음료식품 - 기타음료식품"},{"name":"포-페인팅스쿨","tel":"031-265-9021","addr":"경기도 용인시 수지구 성복동 740-1번지 드림타워 309호","category":"문화.취미 - 민예·공예품"},{"name":"한국메디엘","tel":"031-261-0400","addr":"경기도 용인시 수지구 성복동 740드림타워B203호","category":"회원제형태 - 기타4"},{"name":"한미쌀국수쌀냉면","tel":"031-266-5795","addr":"경기도 용인시 수지구 성복동 740-1번지 드림타워 204호","category":"일반휴게음식 - 일반한식"},{"name":"황윤하 그림가게","tel":"031-266-0363","addr":"경기도 용인시 수지구 성복동 740-1번지 드림타워 1층 102호","category":"문화.취미 - 화랑"},{"name":"희망수학 용쌤교습소","tel":"","addr":"경기도 용인시 수지구 성복동 740-1번지 드림타워 503호","category":"학원 - 보습학원"}]},{"lat":"37.320037406","long":"127.06260772","items":[{"name":"(주)애크미에듀케이션","tel":"02-556-3287","addr":"경기도 용인시 수지구 성복동 381-2번지 유재빌딩 4층 403호","category":"회원제형태 - 기타3"},{"name":"고메김밥","tel":"031-264-8777","addr":"경기도 용인시 수지구 성복동 381-2번지 유재빌딩 107호","category":"일반휴게음식 - 일반한식"},{"name":"고수회왕호태권도","tel":"031-272-8180","addr":"경기도 용인시 수지구 성복동 381-2번지 유재빌딩 204호","category":"학원 - 예·체능계학원"},{"name":"더필라테스문","tel":"031-889-8200","addr":"경기도 용인시 수지구 성복동 381-2번지 유재빌딩 1동 2층 201호","category":"레저업소 - 헬스클럽"},{"name":"러블리스파","tel":"031-276-5852","addr":"경기도 용인시 수지구 성복동 381-2번지 유재빌딩 302호","category":"보건위생 - 피부미용실"},{"name":"배가학원","tel":"031-896-1616","addr":"경기도 용인시 수지구 성복동 381-2번지 유재빌딩 503호 504호","category":"학원 - 보습학원"},{"name":"샵이화음악학원","tel":"031-261-5951","addr":"경기도 용인시 수지구 성복동 381-2번지 402호","category":"학원 - 예·체능계학원"},{"name":"수지성복점자라다남아미술학원","tel":"070-8836-9992","addr":"경기도 용인시 수지구 성복동 381-2번지 3층 304호","category":"학원 - 예·체능계학원"},{"name":"씨유성북유재점","tel":"031-898-6656","addr":"경기도 용인시 수지구 성복동 381-2번지 106호","category":"유통업 영리 - 편 의 점"},{"name":"오렌지 잉글리쉬","tel":"031-261-2355","addr":"경기도 용인시 수지구 성복동 381-2번지 외6필지유재빌딩 502호","category":"학원 - 보습학원"},{"name":"우렁각시","tel":"031-223-5214","addr":"경기도 용인시 수지구 성복동 381-2번지 유재빌딩 104호","category":"음료식품 - 기타음료식품"},{"name":"원탑학원","tel":"031-548-1605","addr":"경기도 용인시 수지구 성복동 381-2번지 유재빌딩 404호","category":"학원 - 보습학원"},{"name":"이디야 에스프레소","tel":"031-265-2407","addr":"경기도 용인시 수지구 성복동 381-2번지 유재빌딩 105호","category":"일반휴게음식 - 서양음식"},{"name":"이안","tel":"031-263-2505","addr":"경기도 용인시 수지구 성복동 381-2번지 유재빌딩 303층","category":"보건위생 - 미용원"},{"name":"크린토피아","tel":"031-261-1020","addr":"경기도 용인시 수지구 성복동 381-2번지 102호","category":"수리서비스 - 세탁소"}]},{"lat":"37.315931165","long":"127.07449482","items":[{"name":"(주)에이치올(한우강자정육점)","tel":"032-261-7200","addr":"경기도 용인시 수지구 성복동 139번지 112호,113호","category":"음료식품 - 정육점"},{"name":"2에이치헤어","tel":"031-265-4664","addr":"경기도 용인시 수지구 성복동 139번지 웰스톤갤러리 106호","category":"보건위생 - 미용원"},{"name":"가마꿉","tel":"031-262-8988","addr":"경기도 용인시 수지구 성복동 139번지 B102호","category":"일반휴게음식 - 일반한식"},{"name":"국가대표한국체대드림태권도장","tel":"031-262-8588","addr":"경기도 용인시 수지구 성복동 139번지 웰스톤갤러리 208호","category":"학원 - 예·체능계학원"},{"name":"그린숲미술학원","tel":"031-266-7745","addr":"경기도 용인시 수지구 성복동 139번지 웰스톤갤러리 204호","category":"학원 - 예·체능계학원"},{"name":"김작가의 이중생활","tel":"031-261-9282","addr":"경기도 용인시 수지구 성복동 139번지 웰스톤갤러리 115,116호","category":"일반휴게음식 - 일반한식"},{"name":"노블휘트니스","tel":"031-264-0056","addr":"경기도 용인시 수지구 성복동 139번지 웰스톤갤러리 305,306호","category":"레저업소 - 헬스클럽"},{"name":"떡마을","tel":"031-266-6745","addr":"경기도 용인시 수지구 성복동 139번지 B105호","category":"음료식품 - 제과점"},{"name":"떡마을","tel":"031-266-6745","addr":"경기도 용인시 수지구 성복동 139번지 외10필지 웰스톤갤러리 B05호","category":"음료식품 - 제과점"},{"name":"라온화장품","tel":"","addr":"경기도 용인시 수지구 성복동 139번지 제비 108호 웰스톤갤러리","category":"보건위생 - 화장품"},{"name":"리&홍위즈의원","tel":"031-896-5577","addr":"경기도 용인시 수지구 성복동 139번지 301호 웰스톤갤러리","category":"의원 - 의원"},{"name":"리더스클럽영어독서학원","tel":"031-266-0512","addr":"경기도 용인시 수지구 성복동 139번지 웰스톤갤러리 202호","category":"학원 - 보습학원"},{"name":"마셔마셔","tel":"070-8688-8321","addr":"경기도 용인시 수지구 성복동 139번지 웰스톤갤러리 107호","category":"일반휴게음식 - 주점"},{"name":"미쏠레음악학원","tel":"031-226-0557","addr":"경기도 용인시 수지구 성복동 139번지 웰스톤갤러리 207호","category":"학원 - 예·체능계학원"},{"name":"베베쥬","tel":"031-892-4828","addr":"경기도 용인시 수지구 성복동 139번지 웰스톤갤러리 제비층 113호","category":"의류 - 정장"},{"name":"보스톤서울치과","tel":"031-266-2985","addr":"경기도 용인시 수지구 성복동 139번지 웰스톤갤러리 303,304호","category":"의원 - 치과의원"},{"name":"보스톤서울치과의원","tel":"031-266-2985","addr":"경기도 용인시 수지구 성복동 139번지 303호 웰스톤갤러리","category":"의원 - 치과의원"},{"name":"보스톤서울치과의원","tel":"031-266-2985","addr":"경기도 용인시 수지구 성복동 139번지 웰스톤갤러리 303동 304호","category":"의원 - 치과의원"},{"name":"보스톤서울치과의원","tel":"031-266-2985","addr":"경기도 용인시 수지구 성복동 139번지 외10필지웰스톤갤러리303 304호","category":"의원 - 치과의원"},{"name":"북촌손만두","tel":"031-272-8282","addr":"경기도 용인시 수지구 성복동 139번지","category":"일반휴게음식 - 일반한식"},{"name":"비웰(BE Well)학원","tel":"","addr":"경기도 용인시 수지구 성복동 139번지 210호 웰스톤갤러리","category":"학원 - 외국어학원"},{"name":"성복동 노가리","tel":"031-261-3732","addr":"경기도 용인시 수지구 성복동 139번지 웰스톤갤러리 108,109호","category":"일반휴게음식 - 일반한식"},{"name":"성복서울아산소아청소년과","tel":"031-276-7475","addr":"경기도 용인시 수지구 성복동 139번지 웰스톤갤러리 2츠으 201호 ,외10필지","category":"의원 - 의원"},{"name":"성복이안소아청소년과의원","tel":"031-264-6001","addr":"경기도 용인시 수지구 성복동 139번지 웰스톤갤러리 302호","category":"의원 - 의원"},{"name":"성복한의원","tel":"031-264-3060","addr":"경기도 용인시 수지구 성복동 139번지 웰스톤밸러리 104호 105호","category":"의원 - 한의원"},{"name":"세라화장품","tel":"031-272-6689","addr":"경기도 용인시 수지구 성복동 139번지 203호 웰스톤갤러리","category":"보건위생 - 화장품"},{"name":"신인서중국어학원","tel":"031-261-1774","addr":"경기도 용인시 수지구 성복동 139번지 웰스톤갤러리 206호","category":"학원 - 보습학원"},{"name":"아트랑네일","tel":"","addr":"경기도 용인시 수지구 성복동 139번지 B층 108호","category":"보건위생 - 피부미용실"},{"name":"앙띠끄","tel":"031-896-5701","addr":"경기도 용인시 수지구 성복동 139번지 웰스톤갤러리 119호","category":"보건위생 - 미용원"},{"name":"에이치앤925","tel":"","addr":"경기도 용인시 수지구 성복동 139번지 웰스톤갤러리 B동 108호","category":"신변잡화 - 액세서리"},{"name":"완부","tel":"031-216-9413","addr":"경기도 용인시 수지구 성복동 139번지 웰스톤갤러리 B동 104호","category":"일반휴게음식 - 서양음식"},{"name":"우미담","tel":"031-272-9249","addr":"경기도 용인시 수지구 성복동 139번지 웰스톤갤러리 B101호","category":"음료식품 - 정육점"},{"name":"우석헤어아트","tel":"031-266-1337","addr":"경기도 용인시 수지구 성복동 139번지 웰스톤갤러리 205호","category":"보건위생 - 미용원"},{"name":"우석헤어아트 세련 미용재료","tel":"031-266-7171","addr":"경기도 용인시 수지구 성복동 139번지 웰스톤 갤러리 2층 205호","category":"보건위생 - 미용재료"},{"name":"웰스톤안경원","tel":"031-266-3436","addr":"경기도 용인시 수지구 성복동 139 번지외10필지B07호","category":"보건위생 - 안경"},{"name":"이제(eje)","tel":"031-000-0000","addr":"경기도 용인시 수지구 성복동 139번지 웰스톤갤러리 비111호","category":"의류 - 정장"},{"name":"정안순논술국어교습소","tel":"031-264-7797","addr":"경기도 용인시 수지구 성복동 139번지 웰스톤갤러리 211호","category":"회원제형태 - 학원"},{"name":"제플(Jepple)","tel":"","addr":"경기도 용인시 수지구 성복동 139번지 웰스톤갤러리 1층 111호","category":"의류 - 정장"},{"name":"주식회사 동네피티샵(가짐)","tel":"031-272-9088","addr":"경기도 용인시 수지구 성복동 139번지 1층 128호,129호","category":"레저업소 - 헬스클럽"},{"name":"주식회사 에이치올 (한우강자)","tel":"031-261-7200","addr":"경기도 용인시 수지구 성복동 139번지 112호,113호","category":"일반휴게음식 - 일반한식"},{"name":"지에스파크24(주)웰스톤갤러리주차장","tel":"02-3272-3500","addr":"경기도 용인시 수지구 성복동 139번지","category":"자동차정비 유지 - 주차장"},{"name":"집밥이야기","tel":"031-261-9282","addr":"경기도 용인시 수지구 성복동 139번지 웰스톤갤러리 117호","category":"일반휴게음식 - 일반한식"},{"name":"추실","tel":"031-265-0332","addr":"경기도 용인시 수지구 성복동 139번지 103호 외10필지웰스톤갤러리제비층","category":"의류 - 정장"},{"name":"카페폴카(Caffe Polka)","tel":"031-261-9357","addr":"경기도 용인시 수지구 성복동 139번지 B112호 웰스톤갤러리","category":"일반휴게음식 - 서양음식"},{"name":"파이씨3호점수학학원","tel":"031-261-0123","addr":"경기도 용인시 수지구 성복동 139번지 웰스톤갤러리 212호,213호","category":"학원 - 보습학원"},{"name":"하움 필라테스","tel":"031-263-2211","addr":"경기도 용인시 수지구 성복동 139번지 1층","category":"레저업소 - 헬스클럽"},{"name":"한나케어","tel":"031-325-3965","addr":"경기도 용인시 수지구 성복동 139번지 110, 웰스톤갤러리","category":"보건위생 - 피부미용실"},{"name":"호천당","tel":"031-261-8662","addr":"경기도 용인시 수지구 성복동 139번지 웰스톤갤러리 120~123호","category":"일반휴게음식 - 일반한식"}]},{"lat":"37.31225842","long":"127.08319998","items":[{"name":"(주)오티디코퍼레이션_아크앤 북수지점","tel":"070-8822-9512","addr":"경기도 용인시 수지구 성복동 789번지 3층","category":"서적문구 - 일반서적"},{"name":"(주)은광 롯데몰수지지점","tel":"031-5174-4200","addr":"경기도 용인시 수지구 성복동 789번지 성복역롯데캐슬골드타운 2층","category":"레져용품 - 스포츠·레져용품"},{"name":"(주)제이엘유나이티드","tel":"031-283-8558","addr":"경기도 용인시 수지구 성복동 789번지","category":"자동차정비 유지 - 주차장"},{"name":"갓텐스시 롯데몰수지점/(주)갓텐코리아","tel":"031-5174-4037","addr":"경기도 용인시 수지구 성복동 789번지 지하1층","category":"일반휴게음식 - 일식·회집"},{"name":"고래식당","tel":"02-1111-1111","addr":"경기도 용인시 수지구 성복동 789번지 2층 고래식당","category":"일반휴게음식 - 일반한식"},{"name":"놀멘서가 (만화카페)","tel":"02-6083-1900","addr":"경기도 용인시 수지구 성복동 789번지 4층","category":"일반휴게음식 - 일반한식"},{"name":"더벤티 롯데수지몰점","tel":"","addr":"경기도 용인시 수지구 성복동 789번지 지하1층","category":"일반휴게음식 - 서양음식"},{"name":"도토리편백집","tel":"031-5174-2647","addr":"경기도 용인시 수지구 성복동 789번지 2층 한식코터","category":"일반휴게음식 - 일반한식"},{"name":"디비써브(주)써브웨이수지롯데몰점","tel":"031-111-1111","addr":"경기도 용인시 수지구 성복동 789번지 롯데몰 수지사업소 2층 지상","category":"일반휴게음식 - 서양음식"},{"name":"롯데쇼핑(주)롭스 롯데몰수지점","tel":"02-6070-6518","addr":"경기도 용인시 수지구 성복동 789번지 B1층 롯데몰 수지점","category":"유통업 영리 - 편 의 점"},{"name":"마리웨일 롯데몰수지점","tel":"","addr":"경기도 용인시 수지구 성복동 789번지 2층","category":"일반휴게음식 - 서양음식"},{"name":"마이고기","tel":"031-000-0000","addr":"경기도 용인시 수지구 성복동 789번지 2층","category":"일반휴게음식 - 일반한식"},{"name":"면채반 롯데몰수지점","tel":"02-334-1104","addr":"경기도 용인시 수지구 성복동 789번지 롯데몰 성복점 한식코너 2층","category":"일반휴게음식 - 일반한식"},{"name":"명인명품수선,세탁","tel":"","addr":"경기도 용인시 수지구 성복동 789번지 지하1층 일부 롯데몰수지점","category":"수리서비스 - 세탁소"},{"name":"무인양품(주) 수지점","tel":"031-1111-1111","addr":"경기도 용인시 수지구 성복동 789번지 B1층","category":"신변잡화 - 기타잡화"},{"name":"백년당 롯데몰수지점","tel":"02-994-7933","addr":"경기도 용인시 수지구 성복동 789번지 2층","category":"일반휴게음식 - 서양음식"},{"name":"베스킨라빈스 수지롯데몰점","tel":"","addr":"경기도 용인시 수지구 성복동 789번지 2층","category":"일반휴게음식 - 서양음식"},{"name":"브라운돈가스 롯데몰수지사업소점","tel":"031-3761-7612","addr":"경기도 용인시 수지구 성복동 789번지 2층","category":"일반휴게음식 - 일반한식"},{"name":"브알라","tel":"","addr":"경기도 용인시 수지구 성복동 789번지 1층 일부","category":"일반휴게음식 - 서양음식"},{"name":"비빔가","tel":"031-000-0000","addr":"경기도 용인시 수지구 성복동 789번지 2층 일부호 롯데몰성복점","category":"일반휴게음식 - 일반한식"},{"name":"비타민약국","tel":"","addr":"경기도 용인시 수지구 성복동 789번지 지하1층 롯데몰수지점","category":"약국 - 약국"},{"name":"석관동떡볶이 롯데몰수지점","tel":"","addr":"경기도 용인시 수지구 성복동 789번지 2층","category":"일반휴게음식 - 스넥"},{"name":"세븐일레븐롯데몰수지1호점","tel":"031-1577-0711","addr":"경기도 용인시 수지구 성복동 789번지 B1층 코너","category":"유통업 영리 - 편 의 점"},{"name":"세븐일레븐롯데몰수지2호점","tel":"031-1577-0711","addr":"경기도 용인시 수지구 성복동 789번지 3층 코너","category":"유통업 영리 - 편 의 점"},{"name":"스피드플러스원","tel":"031-000-0000","addr":"경기도 용인시 수지구 성복동 789번지","category":"자동차정비 유지 - 자동차부품"},{"name":"스피드플러스원","tel":"","addr":"경기도 용인시 수지구 성복동 789번지","category":"자동차정비 유지 - 세차장"},{"name":"씨제이올리브네트웍스(주)롯데몰수지점","tel":"031-5174-4303","addr":"경기도 용인시 수지구 성복동 789번지 롯데몰수지점 3층","category":"유통업 영리 - 편 의 점"},{"name":"애슐리W롯데수지점","tel":"031-5174-4433","addr":"경기도 용인시 수지구 성복동 789번지 4층","category":"일반휴게음식 - 일반한식"},{"name":"에그드랍","tel":"","addr":"경기도 용인시 수지구 성복동 789번지 1층 일부호 롯데몰수지점","category":"일반휴게음식 - 서양음식"},{"name":"영렘브란트 성복롯데클래스","tel":"","addr":"경기도 용인시 수지구 성복동 789번지 성복역롯데캐슬골드타운 101동 306호","category":"학원 - 기타 교육기관"},{"name":"오티디코퍼레이션_아크앤북수지점","tel":"070-8822-9512","addr":"경기도 용인시 수지구 성복동 789번지 3층","category":"서적문구 - 일반서적"},{"name":"웨즐스프레즐/(주)낙산에프앤비(롯데쇼핑(","tel":"031-5174-2650","addr":"경기도 용인시 수지구 성복동 789번지 2층","category":"음료식품 - 제과점"},{"name":"웰니스 동물병원","tel":"031-898-1911","addr":"경기도 용인시 수지구 성복동 789번지 성복역롯데캐슬골드타운 지하1층","category":"기타의료기관 - 동물병원"},{"name":"유인","tel":"031-206-5915","addr":"경기도 용인시 수지구 성복동 789번지 성복역롯데캐슬골드타운 103동 201호","category":"학원 - 기타 교육기관"},{"name":"참몸골근명가","tel":"031-264-1002","addr":"경기도 용인시 수지구 성복동 789번지 성복역롯데캐슬골드타운 201동 901호","category":"신변잡화 - 기타잡화"},{"name":"크리스피크림 롯데몰수지점","tel":"031-709-1070","addr":"경기도 용인시 수지구 성복동 789번지 롯데몰성복점 3층 일부호","category":"일반휴게음식 - 서양음식"},{"name":"픽자","tel":"02-000-0000","addr":"경기도 용인시 수지구 성복동 789번지 2층","category":"일반휴게음식 - 서양음식"},{"name":"홍리마라탕 용인수지점","tel":"","addr":"경기도 용인시 수지구 성복동 789번지 2층 일부","category":"일반휴게음식 - 중국식"}]},{"lat":"37.312261785","long":"127.07807858","items":[{"name":"(주)우리투어","tel":"031-265-5550","addr":"경기도 용인시 수지구 성복동 69-1번지 성복제일교회 103호","category":"여행 - 관광여행"},{"name":"번드레포차","tel":"031-266-9233","addr":"경기도 용인시 수지구 성복동 69-1번지 엘지2차 분산상가","category":"일반휴게음식 - 주점"}]},{"lat":"37.317736748","long":"127.068382","items":[{"name":"1%학원","tel":"031-896-7088","addr":"경기도 용인시 수지구 성복동 289-6번지 명인빌딩 2층 205호","category":"학원 - 보습학원"},{"name":"Do","tel":"031-261-2696","addr":"경기도 용인시 수지구 성복동 298-6 외1필지 명인빌딩 103호","category":"보건위생 - 피부미용실"},{"name":"떡나무","tel":"031-898-0804","addr":"경기도 용인시 수지구 성복동 289-6번지 명인빌딩 1층 105호","category":"음료식품 - 제과점"},{"name":"바디클래스","tel":"","addr":"경기도 용인시 수지구 성복동 289-6번지 명인빌딩 B101호","category":"레저업소 - 헬스클럽"},{"name":"헤라드헤어살롱","tel":"031-261-8877","addr":"경기도 용인시 수지구 성복동 289-6번지","category":"보건위생 - 미용원"}]},{"lat":"37.313181069","long":"127.07769595","items":[{"name":"100억종이","tel":"02-000-0000","addr":"경기도 용인시 수지구 성복동 90-4번지 연세프라자 201호","category":"서적문구 - 문구용품"},{"name":"영지칼국수","tel":"031-266-6002","addr":"경기도 용인시 수지구 성복동 90-4번지 연세프라자 101,102,103호","category":"일반휴게음식 - 일반한식"},{"name":"파리바게트 용인데이파크점","tel":"031-266-8279","addr":"경기도 용인시 수지구 성복동 90-4번지 연세프라자 105, 106호","category":"음료식품 - 제과점"},{"name":"헤어포인트","tel":"031-896-3877","addr":"경기도 용인시 수지구 성복동 90-4번지 연세프라자 104호","category":"보건위생 - 미용원"}]},{"lat":"37.315396863","long":"127.07882625","items":[{"name":"170도시까스","tel":"031-747-8874","addr":"경기도 용인시 수지구 성복동 744-3번지 렉스빌 지하1층","category":"일반휴게음식 - 서양음식"},{"name":"호중천","tel":"031-276-8886","addr":"경기도 용인시 수지구 성복동 744-3번지 렉스빌","category":"일반휴게음식 - 중국식"}]},{"lat":"37.310926","long":"127.08157418","items":[{"name":"175도씨치킨","tel":"031-266-1750","addr":"경기도 용인시 수지구 성복동 33-5번지 B127호","category":"일반휴게음식 - 스넥"},{"name":"60계치킨 수지성복점","tel":"031-262-6082","addr":"경기도 용인시 수지구 성복동 33-5번지 수지제일아이조움 B121 , 122호","category":"일반휴게음식 - 스넥"},{"name":"ING휘트니스","tel":"02-968-9024","addr":"경기도 용인시 수지구 성복동 33-5번지 수지제일아이조움B101~B111","category":"레져용품 - 골프용품 전문점"},{"name":"SY옷수선","tel":"031-898-3833","addr":"경기도 용인시 수지구 성복동 33-5번지 수지제일아이조움 B115호","category":"수리서비스 - 세탁소"},{"name":"malin (말린꽃)","tel":"","addr":"경기도 용인시 수지구 성복동 33-5번지 수지제일아이조움 B1층 137호","category":"문화.취미 - 화원"},{"name":"강성자김치","tel":"031-266-0340","addr":"경기도 용인시 수지구 성복동 33-5번지 수지제일아이조움 111호","category":"음료식품 - 기타음료식품"},{"name":"강아지봄","tel":"031-898-4131","addr":"경기도 용인시 수지구 성복동 33-5번지 수지 제일 아이조움 B116호","category":"일반휴게음식 - 서양음식"},{"name":"굿워크스튜디오","tel":"070-4202-1667","addr":"경기도 용인시 수지구 성복동 33-5번지 아이조움상가 지 1층 비135호","category":"문화.취미 - 문화취미기타"},{"name":"기성면옥","tel":"031-265-8569","addr":"경기도 용인시 수지구 성복동 33-5번지 수지제일아이조움 B201-B202호","category":"일반휴게음식 - 일반한식"},{"name":"끌림미장원","tel":"031-898-4802","addr":"경기도 용인시 수지구 성복동 33-5번지 수지제일아이조움 B114호","category":"보건위생 - 미용원"},{"name":"더조은내과의원","tel":"031-898-2820","addr":"경기도 용인시 수지구 성복동 33-5번지 B128,139,140","category":"의원 - 의원"},{"name":"동아바이오","tel":"031-264-3939","addr":"경기도 용인시 수지구 성복동 33-5번지 수지제일아이조움b138호","category":"보건위생 - 의료용품"},{"name":"디보수지주식회사","tel":"031-226-2861","addr":"경기도 용인시 수지구 성복동 33-5번지 수지제일아이조움 1호","category":"레저업소 - 기타레져업소"},{"name":"루루","tel":"031-000-0000","addr":"경기도 용인시 수지구 성복동 33-5번지 수지제일아이조움 B동 117호","category":"의류 - 정장"},{"name":"리뉴아","tel":"031-608-0501","addr":"경기도 용인시 수지구 성복동 33-5번지 수지제일아이조움 104호","category":"보건위생 - 미용원"},{"name":"막꿔","tel":"031-898-3898","addr":"경기도 용인시 수지구 성복동 33-5번지 수지제일아이조움 B203호 B204호","category":"일반휴게음식 - 일반한식"},{"name":"베트남쌀국수 포느황","tel":"031-898-0994","addr":"경기도 용인시 수지구 성복동 33-5번지 수지 제일아지조움 B113호","category":"일반휴게음식 - 일반한식"},{"name":"성복약국","tel":"031-889-6630","addr":"경기도 용인시 수지구 성복동 33-5번지 아이조움빌딩 B동 205호","category":"약국 - 약국"},{"name":"수지제일노인요양원","tel":"031-272-6622","addr":"경기도 용인시 수지구 성복동 33-5번지","category":"기타의료기관 - 기타의료기관 및 기타"},{"name":"씨유수지아이조움점","tel":"02-1577-8007","addr":"경기도 용인시 수지구 성복동 33-5번지 수지 제일 아이조움 지1층 비119, 비120호","category":"유통업 영리 - 편 의 점"},{"name":"아이엔지(ING)휘트니스","tel":"031-262-9660","addr":"경기도 용인시 수지구 성복동 33-5번지 B1층 ING휘트니스","category":"레저업소 - 헬스클럽"},{"name":"연안식당용인성복역점","tel":"031-266-7675","addr":"경기도 용인시 수지구 성복동 33-5번지 수지제일아이조움 B209,B210호","category":"일반휴게음식 - 일반한식"},{"name":"열창 노래연습장","tel":"031-276-1116","addr":"경기도 용인시 수지구 성복동 33-5번지 수지제일아이조움 B123 ~ B125호","category":"레저업소 - 노 래 방"},{"name":"위드에이앤아이(주)","tel":"031-898-3073","addr":"경기도 용인시 수지구 성복동 33-5번지 수지제일아이조움 상가동 B129호","category":"건축자재 - 인테리어전문"},{"name":"육감만족","tel":"031-266-9212","addr":"경기도 용인시 수지구 성복동 33-5번지 수지제일아이조움 B1층 135호","category":"일반휴게음식 - 일반한식"},{"name":"을지로골뱅이","tel":"","addr":"경기도 용인시 수지구 성복동 33-5번지 B134호","category":"일반휴게음식 - 일반한식"},{"name":"이화주야간보호센터","tel":"031-272-7090","addr":"경기도 용인시 수지구 성복동 33-5번지 수지제일아이조움 C동 313호","category":"기타의료기관 - 기타의료기관 및 기타"},{"name":"정정아식당","tel":"031-898-1007","addr":"경기도 용인시 수지구 성복동 33-5번지 수지제일아이조움 1층 112,113호","category":"일반휴게음식 - 일반한식"},{"name":"차이나웍","tel":"031-266-6717","addr":"경기도 용인시 수지구 성복동 33-5번지 수지제일아이조움 지하1층 115호","category":"일반휴게음식 - 중국식"}]},{"lat":"37.312621011","long":"127.07991769","items":[{"name":"24시 사람앤동물메디컬센터","tel":"031-262-0306","addr":"경기도 용인시 수지구 성복동 67-6번지 성복스퀘어 201동 2층 208호","category":"기타의료기관 - 동물병원"},{"name":"김수연정신건강의학과의원","tel":"031-264-1147","addr":"경기도 용인시 수지구 성복동 67-6번지 성복스퀘어/근린생활시설 302호","category":"의원 - 의원"},{"name":"노랑통닭 성복역점","tel":"031-889-9977","addr":"경기도 용인시 수지구 성복동 67-6번지 성복스퀘어/근린생활시설 113호","category":"일반휴게음식 - 스넥"},{"name":"디에이빌리어드펍카페","tel":"","addr":"경기도 용인시 수지구 성복동 67-6번지 성복스퀘어/근린생활시설 지하1층 B101호","category":"레저업소 - 당 구 장"},{"name":"롯데하이마트 (주)수지롯데몰지점","tel":"031-8067-7600","addr":"경기도 용인시 수지구 성복동 67-6번지 (용인시 수지구 성복동 61-7번지 2층)","category":"전기제품 - 가전제품"},{"name":"미즈유 영상의학과의원","tel":"031-896-9040","addr":"경기도 용인시 수지구 성복동 67-6번지 성복스퀘어 409호","category":"의원 - 의원"},{"name":"비전안과","tel":"031-548-1614","addr":"경기도 용인시 수지구 성복동 67-6번지 성복스퀘어/근린생활시설 3층","category":"의원 - 의원"},{"name":"서강흠내과","tel":"031-548-0142","addr":"경기도 용인시 수지구 성복동 67-6번지 성복스퀘어 4층 414,415,416호","category":"의원 - 의원"},{"name":"수지예치과","tel":"031-1833-2828","addr":"경기도 용인시 수지구 성복동 67-6번지 커널유니크상가 5층 405-408,501-508호","category":"의원 - 치과의원"},{"name":"쉘위스파","tel":"031-548-0186","addr":"경기도 용인시 수지구 성복동 67-6번지 성복스퀘어 근린생활시설 212,213호","category":"보건위생 - 피부미용실"},{"name":"앤썸PC카페","tel":"070-2214-1462","addr":"경기도 용인시 수지구 성복동 67-6번지 성복스퀘어근린생활시설 지하1층 B101호","category":"레저업소 - 기타레져업소"},{"name":"엘모 (elmo)","tel":"070-7769-1224","addr":"경기도 용인시 수지구 성복동 67-6번지 용인성본스퀘어 2층 217호","category":"문화.취미 - 애완동물"},{"name":"열린이비인후과의원","tel":"031-261-5075","addr":"경기도 용인시 수지구 성복동 67-6번지 성복스퀘어,근린생활시설 3층 306~308호","category":"의원 - 의원"},{"name":"오레스트 힐링카페&전시장","tel":"031-265-5888","addr":"경기도 용인시 수지구 성복동 67-6번지 2층 209-211호","category":"일반휴게음식 - 서양음식"},{"name":"지니여성의원","tel":"","addr":"경기도 용인시 수지구 성복동 67-6번지 성복스퀘어 314동 316호","category":"의원 - 의원"},{"name":"참소리독일보청기","tel":"031-266-1787","addr":"경기도 용인시 수지구 성복동 67-6번지 성복스퀘어 303호,304호","category":"보건위생 - 의료용품"},{"name":"히룸헤어","tel":"031-1111-1111","addr":"경기도 용인시 수지구 성복동 67-6번지 성복스퀘어 305호","category":"보건위생 - 미용원"}]},{"lat":"37.314907555","long":"127.06835698","items":[{"name":"369 칼갈이","tel":"","addr":"경기도 용인시 수지구 성복동 723번지 성남마을벽산첼시빌2차아파트","category":"수리서비스 - 기타수리서비스"}]},{"lat":"37.324537228","long":"127.054691","items":[{"name":"Cafe Josh (카페 조쉬)","tel":"","addr":"경기도 용인시 수지구 성복동 558번지 B1층","category":"일반휴게음식 - 서양음식"}]},{"lat":"37.312154669","long":"127.07647663","items":[{"name":"G.M.S","tel":"02-511-5985","addr":"경기도 용인시 수지구 성복동 성동마을LG빌리지2차","category":"회원제형태 - 기타4"}]},{"lat":"37.313341526","long":"127.08038093","items":[{"name":"GS25S성복역점","tel":"","addr":"경기도 용인시 수지구 성복동 720-6번지 성복역사 내상가","category":"유통업 영리 - 편 의 점"}]},{"lat":"37.315479821","long":"127.07585941","items":[{"name":"GS25수지엘지점","tel":"","addr":"경기도 용인시 수지구 성복동 97-14번지 107호","category":"유통업 영리 - 편 의 점"}]},{"lat":"37.313261029","long":"127.07946711","items":[{"name":"GS25수지파크점","tel":"02-2006-2485","addr":"경기도 용인시 수지구 성복동 71-3번지 외1필지 B층","category":"유통업 영리 - 편 의 점"},{"name":"남양식물원","tel":"031-262-9663","addr":"경기도 용인시 수지구 성복동 71-3번지","category":"문화.취미 - 화원"},{"name":"디엔애이입시미술학원","tel":"031-266-9902","addr":"경기도 용인시 수지구 성복동 71-3번지 원흥빌딩 A동 3003호","category":"학원 - 예·체능계학원"},{"name":"마운틴당구클럽","tel":"031-204-8057","addr":"경기도 용인시 수지구 성복동 71-3번지 원흥빌딩 B동 3층","category":"레저업소 - 당 구 장"},{"name":"메가커피성복역점","tel":"031-272-6381","addr":"경기도 용인시 수지구 성복동 71-3번지 B동 1층 성복동,원흥 일부","category":"일반휴게음식 - 서양음식"},{"name":"지앤바디앤스킨케어","tel":"031-719-8088","addr":"경기도 용인시 수지구 성복동 71-3번지 외1필지 원흥빌딩 A동 302호","category":"회원제형태 - 기타4"},{"name":"파이씨미술학원/(주)파이씨에이","tel":"031-226-9902","addr":"경기도 용인시 수지구 성복동 71-3번지 원흥빌딩 303호,304호","category":"학원 - 예·체능계학원"}]},{"lat":"37.314875117","long":"127.07749457","items":[{"name":"GTG사고력수학","tel":"031-261-2357","addr":"경기도 용인시 수지구 성복동 82-2번지 401호","category":"학원 - 보습학원"},{"name":"더 바이올린 교습소","tel":"031-266-1546","addr":"경기도 용인시 수지구 성복동 82-2번지 5층 501호","category":"학원 - 예·체능계학원"},{"name":"마임수지남부지사","tel":"031-266-1356","addr":"경기도 용인시 수지구 성복동 82-2번지 501호","category":"보건위생 - 화장품"},{"name":"봄아트테라피연구소","tel":"031-265-1541","addr":"경기도 용인시 수지구 성복동 82-2번지 401호","category":"학원 - 예·체능계학원"},{"name":"양쌤영어교습소","tel":"031-265-1201","addr":"경기도 용인시 수지구 성복동 82-2번지 501호","category":"학원 - 외국어학원"},{"name":"헤더의에프터눈","tel":"070-7383-4843","addr":"경기도 용인시 수지구 성복동 82-2번지 101호","category":"일반휴게음식 - 일반한식"}]},{"lat":"37.315958826","long":"127.0734457","items":[{"name":"J필라테스","tel":"031-266-6633","addr":"경기도 용인시 수지구 성복동 129-1번지 플러스크리닉수지센터 2층 205,209호","category":"레저업소 - 헬스클럽"},{"name":"경희회복한의원","tel":"031-262-5077","addr":"경기도 용인시 수지구 성복동 129-1번지 플러스클리닉수지센터 3층 301호","category":"의원 - 한의원"},{"name":"굽네치킨","tel":"","addr":"경기도 용인시 수지구 성복동 129-1번지 신한은행성복점 1층 117호","category":"일반휴게음식 - 스넥"},{"name":"그레잇밀","tel":"031-000-0000","addr":"경기도 용인시 수지구 성복동 129-1번지 신한은행성복점 108호","category":"음료식품 - 기타음료식품"},{"name":"김가네","tel":"031-247-4455","addr":"경기도 용인시 수지구 성복동 129-1번지 신한은행성복점 107호","category":"일반휴게음식 - 스넥"},{"name":"꿈에동물병원","tel":"031-264-1997","addr":"경기도 용인시 수지구 성복동 129-1번지 플러스클리닉수지센터 111호","category":"기타의료기관 - 동물병원"},{"name":"라보떼","tel":"031-263-7226","addr":"경기도 용인시 수지구 성복동 129-1번지","category":"보건위생 - 미용원"},{"name":"라인엑스피티스튜디오","tel":"031-261-0577","addr":"경기도 용인시 수지구 성복동 129-1번지 플러스클리닉수지센터 304호","category":"회원제형태 - 레져업소"},{"name":"몸편한 세상","tel":"031-272-8811","addr":"경기도 용인시 수지구 성복동 129-1번지 신한은행성복점 204호","category":"보건위생 - 화장품"},{"name":"베로나","tel":"031-896-6171","addr":"경기도 용인시 수지구 성복동 129-1번지 플러스클리닉수지센터 1층 110호","category":"가구 - 일반가구"},{"name":"분식이이래도되는가","tel":"031-000-0000","addr":"경기도 용인시 수지구 성복동 129-1번지 신한은행성복점 118호","category":"일반휴게음식 - 일반한식"},{"name":"사뽀","tel":"031-276-8445","addr":"경기도 용인시 수지구 성복동 129-1번지 플러스클리닉 120호","category":"의류 - 정장"},{"name":"셀레브헤어","tel":"031-276-9184","addr":"경기도 용인시 수지구 성복동 129-1번지 플러스클리닉 121호","category":"보건위생 - 미용원"},{"name":"아이스박스 성복점","tel":"","addr":"경기도 용인시 수지구 성복동 129-1번지 신한은행성복점 1층 112호","category":"음료식품 - 기타음료식품"},{"name":"알마미아","tel":"031-244-7773","addr":"경기도 용인시 수지구 성복동 129-1번지 외4필지 플러스클리닉수지센터 105호","category":"의류 - 정장"},{"name":"예감쪽갈비성복점","tel":"031-264-9292","addr":"경기도 용인시 수지구 성복동 129-1번지","category":"일반휴게음식 - 일반한식"},{"name":"옳치과","tel":"031-276-5275","addr":"경기도 용인시 수지구 성복동 129-1번지 플러스클리닉 208호","category":"의원 - 치과의원"},{"name":"자연과사람","tel":"031-896-2821","addr":"경기도 용인시 수지구 성복동 129-1번지 플러스클리닉수지센터 119호","category":"음료식품 - 기타음료식품"},{"name":"제이(J)헤어","tel":"031-272-0811","addr":"경기도 용인시 수지구 성복동 129-1번지 플러스클리닉수지센터 113호","category":"보건위생 - 미용원"},{"name":"주식회사서울팜","tel":"031-896-6207","addr":"경기도 용인시 수지구 성복동 129-1번지 플러스클리닉수지센터 209호","category":"약국 - 제약회사"},{"name":"지앤느갤러리","tel":"031-276-1002","addr":"경기도 용인시 수지구 성복동 129-1번지 플러스클리닉수지센터 108호","category":"가구 - 일반가구"},{"name":"진국집","tel":"031-262-1008","addr":"경기도 용인시 수지구 성복동 129-1번지 플러스클리닉 116호 114 115","category":"일반휴게음식 - 일반한식"},{"name":"채플린노래연습장","tel":"031-265-2550","addr":"경기도 용인시 수지구 성복동 129-1번지 신한은행성복점 3층 309호","category":"레저업소 - 노 래 방"},{"name":"최서윤무용학원","tel":"031-262-6019","addr":"경기도 용인시 수지구 성복동 129-1번지 플러스클리닉 206호","category":"학원 - 예·체능계학원"},{"name":"콩삼김삼","tel":"031-276-9532","addr":"경기도 용인시 수지구 성복동 129-1번지","category":"일반휴게음식 - 일반한식"},{"name":"프란체","tel":"031-265-5505","addr":"경기도 용인시 수지구 성복동 129-1번지 플러스클리닉 106호","category":"의류 - 정장"},{"name":"플러스약국","tel":"031-264-1531","addr":"경기도 용인시 수지구 성복동 129-1번지 플러스클리닉수지센터 122호","category":"약국 - 약국"},{"name":"플러스약국","tel":"031-264-1531","addr":"경기도 용인시 수지구 성복동 129-1번지 플러스클리닉 121동 122호","category":"약국 - 약국"},{"name":"플러스클리닉118호","tel":"070-8136-3646","addr":"경기도 용인시 수지구 성복동 129-1번지 신한은행성복점 1층 118호","category":"신변잡화 - 기타잡화"},{"name":"행복치킨","tel":"031-262-6677","addr":"경기도 용인시 수지구 성복동 129-1번지 103호,104호","category":"일반휴게음식 - 스넥"},{"name":"행복치킨 성복점","tel":"031-262-6677","addr":"경기도 용인시 수지구 성복동 129-1번지 플러스클리닉수지센터 103,104호","category":"일반휴게음식 - 스넥"}]},{"lat":"37.31711949","long":"127.07616559","items":[{"name":"L.G-FLOWER(엘지플라워)","tel":"031-266-2554","addr":"경기도 용인시 수지구 성복동 155번지 성동마을엘지빌리지1차","category":"문화.취미 - 화원"},{"name":"서울가정의학과의원","tel":"031-266-1191","addr":"경기도 용인시 수지구 성복동 155번지 1차단지 상가 304호","category":"의원 - 의원"}]},{"lat":"37.31812169","long":"127.07274827","items":[{"name":"LG3차세탁소","tel":"03-263-5444","addr":"경기도 용인시 수지구 성복동 726번지 엘지3차 상가동 108호","category":"수리서비스 - 세탁소"},{"name":"가족애 치과","tel":"031-264-2124","addr":"경기도 용인시 수지구 성복동 726번지 성동마을엘지빌리지3차 205호","category":"의원 - 치과의원"},{"name":"고운피부관리실","tel":"031-274-7704","addr":"경기도 용인시 수지구 성복동 726LG3차상가202","category":"회원제형태 - 기타4"},{"name":"김광호치과의원","tel":"031-897-8228","addr":"경기도 용인시 수지구 성복동 726번지 LG빌리지3차APT상가 2층","category":"의원 - 치과의원"},{"name":"랄라푸드","tel":"031-262-3695","addr":"경기도 용인시 수지구 성복동 726번지 성동마을엘지빌리지3차 상가동 208호","category":"일반휴게음식 - 일반한식"},{"name":"사계절","tel":"031-264-1818","addr":"경기도 용인시 수지구 성복동 726번지 성동마을엘지빌리지3차 상가동 106호","category":"의류 - 정장"},{"name":"샤르망","tel":"031-261-4600","addr":"경기도 용인시 수지구 성복동 726번지 엘지빌리지3차 상가동 103호","category":"의류 - 정장"},{"name":"세븐일레븐수지성복점","tel":"031-1577-0711","addr":"경기도 용인시 수지구 성복동 726번지 LG빌리지 3차 단지 내 상가 1층 116호","category":"유통업 영리 - 편 의 점"},{"name":"수지우리약국","tel":"031-276-0561","addr":"경기도 용인시 수지구 성복동 726번지 성동마을LG빌리지3차상가 118호","category":"약국 - 약국"},{"name":"이안경나라","tel":"031-272-0810","addr":"경기도 용인시 수지구 성복동 726번지 성동마을엘지빌리지3차 상가 115호","category":"보건위생 - 안경"},{"name":"임은숙에스테틱","tel":"031-276-4708","addr":"경기도 용인시 수지구 성복동 726번지 엘지빌리지3차 상가동 101호","category":"회원제형태 - 기타4"},{"name":"힐스템 수지센터","tel":"070-7018-5367","addr":"경기도 용인시 수지구 성복동 726번지 성동마을엘지빌리지3차 상가 303호","category":"보건위생 - 화장품"}]},{"lat":"37.318952222","long":"127.06999632","items":[{"name":"LG6차화이트","tel":"031-265-2323","addr":"경기도 용인시 수지구 성복동 731번지 LG6차단지 상가동 114호","category":"수리서비스 - 세탁소"},{"name":"군산세꼬시","tel":"031-276-4994","addr":"경기도 용인시 수지구 성복동 731번지 호","category":"일반휴게음식 - 일식·회집"},{"name":"성복본한의원","tel":"031-896-8028","addr":"경기도 용인시 수지구 성복동 731번지 성동마을엘지빌리지6차 307호","category":"의원 - 한의원"},{"name":"씨유수지엘지점","tel":"080-080-3663","addr":"경기도 용인시 수지구 성복동 731번지 LG빌리지6차 상가동 1층 102호","category":"유통업 영리 - 편 의 점"},{"name":"안종인치과","tel":"031-265-7665","addr":"경기도 용인시 수지구 성복동 731성동마을엘지빌리지상가동301,302","category":"의원 - 치과의원"},{"name":"용인대 선후합기도","tel":"031-266-1147","addr":"경기도 용인시 수지구 성복동 731번지 성동마을엘지빌리지6차 상가동 305호","category":"학원 - 예·체능계학원"},{"name":"우민미용실","tel":"031-889-9488","addr":"경기도 용인시 수지구 성복동 731번지 성동마을엘지빌리지6차 상가동 211호","category":"보건위생 - 미용원"},{"name":"원약국","tel":"031-272-2351","addr":"경기도 용인시 수지구 성복동 731번지 엘지빌리지6차 상가동 105호","category":"약국 - 약국"},{"name":"흑산도향토음식점","tel":"031-261-2252","addr":"경기도 용인시 수지구 성복동 731엘지빌리지6차단지내상가110호","category":"일반휴게음식 - 일반한식"}]},{"lat":"37.315542043","long":"127.07722448","items":[{"name":"LG자이공인중개사사무소","tel":"031-261-8900","addr":"경기도 용인시 수지구 성복동 98-10번지 성동마을LG빌리지1차상가 104호","category":"용역 서비스 - 부동산 중개·임대"},{"name":"곰베만두","tel":"","addr":"경기도 용인시 수지구 성복동 98-10번지 엘지빌리지1차 상가동 1층 107호","category":"일반휴게음식 - 스넥"},{"name":"김창수학교습소","tel":"031-263-2929","addr":"경기도 용인시 수지구 성복동 98-10번지 성동마을LG빌리지1차 상가동 306호","category":"회원제형태 - 학원"},{"name":"꼼지락공방","tel":"070-8250-7272","addr":"경기도 용인시 수지구 성복동 98-10번지 엘지빌리지1차 상가동 112호","category":"문화.취미 - 문화취미기타"},{"name":"낭띠헤어샵","tel":"031-276-0708","addr":"경기도 용인시 수지구 성복동 98-10번지 성동마을엘지빌리지1차 상가동 302호","category":"보건위생 - 미용원"},{"name":"맛나식당","tel":"031-272-1791","addr":"경기도 용인시 수지구 성복동 98-10번지 성동마을엘지빌리지1차 103호 상가동지하1층","category":"일반휴게음식 - 일반한식"},{"name":"솔토","tel":"031-276-1921","addr":"경기도 용인시 수지구 성복동 98-10번지 상가동 지하1층 104호","category":"사무통신 - 통신기기"},{"name":"수지LG점","tel":"031-261-5578","addr":"경기도 용인시 수지구 성복동 98-10번지 성동마을LG빌리지1차 상가동 109호","category":"수리서비스 - 세탁소"},{"name":"승리공인중개사","tel":"031-263-4800","addr":"경기도 용인시 수지구 성복동 98-10번지 엘지빌리지1차 상가 108호","category":"용역 서비스 - 부동산 중개·임대"},{"name":"엘지약국","tel":"031-266-6151","addr":"경기도 용인시 수지구 성복동 98-10번지 LG빌리지1차상가 105호","category":"약국 - 약국"},{"name":"예향치과의원","tel":"031-266-8275","addr":"경기도 용인시 수지구 성복동 98-10번지 엘지빌리지단지 상가 307호","category":"의원 - 치과의원"},{"name":"으뜸영어교습소","tel":"070-4405-7022","addr":"경기도 용인시 수지구 성복동 98-10번지 엘지빌리지1차 상가동 305호","category":"학원 - 외국어학원"},{"name":"지금헤어","tel":"031-266-7181","addr":"경기도 용인시 수지구 성복동 98-10번지 하나은행성복점 상가동 106호","category":"보건위생 - 미용원"},{"name":"지아니(GIANNI)","tel":"031-266-4555","addr":"경기도 용인시 수지구 성복동 98-10번지 성동마을엘지빌리지1차 상가 지하1층 106호","category":"의류 - 정장"},{"name":"헤더의 애프터눈","tel":"070-7648-8384","addr":"경기도 용인시 수지구 성복동 98-10번지 하나은행성복점 지하1층 107호","category":"음료식품 - 제과점"}]},{"lat":"37.31498203","long":"127.07938989","items":[{"name":"TNC 용인수지점","tel":"031-261-3232","addr":"경기도 용인시 수지구 성복동 746-2번지 1층","category":"자동차정비 유지 - 카인테리어"},{"name":"명품아울렛","tel":"031-265-5503","addr":"경기도 용인시 수지구 성복동 746-2.103호~104호","category":"신변잡화 - 기타잡화"}]},{"lat":"37.31310868","long":"127.07818095","items":[{"name":"TS학습센터학원","tel":"031-896-8485","addr":"경기도 용인시 수지구 성복동 89번지 데이파크 B동 406호","category":"학원 - 보습학원"},{"name":"갤러리옷수선","tel":"070-4125-5389","addr":"경기도 용인시 수지구 성복동 89번지 B동 314호 와이케이타운제","category":"수리서비스 - 세탁소"},{"name":"고봉민김밥인 성복점","tel":"031-262-8581","addr":"경기도 용인시 수지구 성복동 89번지 와이케이타운 B동 1층 102호","category":"일반휴게음식 - 일반한식"},{"name":"고후나","tel":"031-261-6330","addr":"경기도 용인시 수지구 성복동 89번지 와이케이타운 B동 115호","category":"의류 - 정장"},{"name":"다르마에듀학원","tel":"031-823-3239","addr":"경기도 용인시 수지구 성복동 89번지 와이케이타운 B동 2층 215호","category":"학원 - 보습학원"},{"name":"데이파크약국","tel":"031-889-5525","addr":"경기도 용인시 수지구 성복동 89 와이케이타운B동1층120","category":"약국 - 약국"},{"name":"두부장수","tel":"031-897-5949","addr":"경기도 용인시 수지구 성복동 89번지 와이케이타운 B동 106호","category":"음료식품 - 기타음료식품"},{"name":"떡그루","tel":"031-897-0909","addr":"경기도 용인시 수지구 성복동 89번지 데이파크 B동 105호","category":"음료식품 - 제과점"},{"name":"맑은한의원","tel":"031-889-5335","addr":"경기도 용인시 수지구 성복동 89 데이파크B동312호~313호","category":"의원 - 한의원"},{"name":"몸편한세상","tel":"031-889-8777","addr":"경기도 용인시 수지구 성복동 89번지 데이파크 B동 309호","category":"보건위생 - 화장품"},{"name":"본죽 수지성복점","tel":"031-895-6288","addr":"경기도 용인시 수지구 성복동 89번지 와이케이타운 B동 108호","category":"일반휴게음식 - 일반한식"},{"name":"빌리지연세치과의원","tel":"031-897-2875","addr":"경기도 용인시 수지구 성복동 89-1번지 데이파크 B동 407호~408호","category":"의원 - 치과의원"},{"name":"살롱드영","tel":"","addr":"경기도 용인시 수지구 성복동 89번지 데이파크 B동 213호","category":"보건위생 - 미용원"},{"name":"선피부비뇨기과","tel":"031-276-8112","addr":"경기도 용인시 수지구 성복동 89번지 와이케이타운 B동 405호","category":"의원 - 의원"},{"name":"세레니끄수지점","tel":"031-262-5352","addr":"경기도 용인시 수지구 성복동 89번지 와이케이타운 B동 311호","category":"보건위생 - 화장품"},{"name":"수지어린이치과의원","tel":"031-895-5275","addr":"경기도 용인시 수지구 성복동 89데이파크B동203호~204호","category":"의원 - 치과의원"},{"name":"신통재활의학과의원","tel":"031-889-4647","addr":"경기도 용인시 수지구 성복동 89 YK타운 B동306.307호","category":"의원 - 의원"},{"name":"씨유수지파크점","tel":"0-0-0","addr":"경기도 용인시 수지구 성복동 89번지 데이파크 B동 114호","category":"유통업 영리 - 편 의 점"},{"name":"약손","tel":"","addr":"경기도 용인시 수지구 성복동 89번지 비동 402호 일부","category":"보건위생 - 피부미용실"},{"name":"오드비","tel":"070-7720-7486","addr":"경기도 용인시 수지구 성복동 89번지 와이케이타운 B동 210호","category":"일반휴게음식 - 주점"},{"name":"온뜨레(성복점)","tel":"031-261-8891","addr":"경기도 용인시 수지구 성복동 89번지 데이파크 B동 101호","category":"보건위생 - 화장품"},{"name":"웨이(WAY)","tel":"031-897-3314","addr":"경기도 용인시 수지구 성복동 89번지 와이케이타운 B동 116호","category":"의류 - 정장"},{"name":"윤지연헤어샵","tel":"031-262-5250","addr":"경기도 용인시 수지구 성복동 89번지 YK타운 B동 110호","category":"보건위생 - 미용원"},{"name":"전민숙찬방","tel":"02-1111-1111","addr":"경기도 용인시 수지구 성복동 89번지 데이파크 B동 1층 118호","category":"음료식품 - 기타음료식품"},{"name":"좋은약국","tel":"031-889-9858","addr":"경기도 용인시 수지구 성복동 89번지 와이케이타운 B동 314호","category":"약국 - 약국"},{"name":"커피보카","tel":"031-262-3288","addr":"경기도 용인시 수지구 성복동 89번지 YK타운 B동 117호","category":"일반휴게음식 - 서양음식"},{"name":"편한이비인후과의원","tel":"031-898-2789","addr":"경기도 용인시 수지구 성복동 89번지 데이파크 B동 305호","category":"의원 - 의원"},{"name":"하루노히","tel":"031-889-7733","addr":"경기도 용인시 수지구 성복동 89번지 데이파크 B동 209호","category":"일반휴게음식 - 일반한식"},{"name":"하루노히","tel":"031-889-7733","addr":"경기도 용인시 수지구 성복동 89번지 YK타운 B동 209호","category":"일반휴게음식 - 일반한식"}]},{"lat":"37.312955023","long":"127.0789366","items":[{"name":"TheKidsTree","tel":"070-8817-9579","addr":"경기도 용인시 수지구 성복동 70-1번지 모던프라자 123호","category":"의류 - 아동의류"},{"name":"경희올한의원","tel":"031-265-2652","addr":"경기도 용인시 수지구 성복동 70-1번지 데이파크 C동 209호~ 211호","category":"의원 - 한의원"},{"name":"고엔스시","tel":"031-889-8427","addr":"경기도 용인시 수지구 성복동 70-1번지 모던프라자 1층 102호","category":"일반휴게음식 - 일식·회집"},{"name":"광교산한방삼계탕","tel":"031-898-1737","addr":"경기도 용인시 수지구 성복동 70-1번지 모던프라자 201호","category":"일반휴게음식 - 일반한식"},{"name":"그림","tel":"031-897-8518","addr":"경기도 용인시 수지구 성복동 70-1번지 모던프라자 128호","category":"의류 - 정장"},{"name":"네일넘버세븐","tel":"031-261-0025","addr":"경기도 용인시 수지구 성복동 70-1번지 모던프라자","category":"보건위생 - 피부미용실"},{"name":"담이 꽃집","tel":"031-889-3270","addr":"경기도 용인시 수지구 성복동 70-1번지 데이파크 1층 118호","category":"문화.취미 - 화원"},{"name":"더하우스오브헤어(The House of Hair)","tel":"031-897-2376","addr":"경기도 용인시 수지구 성복동 70-1번지 모던프라자 205호","category":"보건위생 - 미용원"},{"name":"데이스파","tel":"031-272-7211","addr":"경기도 용인시 수지구 성복동 70-1번지 모던프라자 303호","category":"보건위생 - 화장품"},{"name":"롤링핀성복점","tel":"031-898-4321","addr":"경기도 용인시 수지구 성복동 70-1번지 데이파크 C동 108호","category":"음료식품 - 제과점"},{"name":"루체쥬얼리","tel":"031-889-8799","addr":"경기도 용인시 수지구 성복동 70-1모던프라자이스트파크,시-121","category":"신변잡화 - 귀금속"},{"name":"마피아쥬스수지성복점","tel":"031-265-9009","addr":"경기도 용인시 수지구 성복동 70-1번지 모던프라자 C동 115호","category":"일반휴게음식 - 서양음식"},{"name":"면자기","tel":"031-276-4288","addr":"경기도 용인시 수지구 성복동 70-1번지 모던프라자 C동 206호","category":"일반휴게음식 - 일반한식"},{"name":"면자기성복점","tel":"","addr":"경기도 용인시 수지구 성복동 70-1번지 테이파크 2층 206호","category":"일반휴게음식 - 일반한식"},{"name":"미드라인스파","tel":"031-889-7344","addr":"경기도 용인시 수지구 성복동 70-1번지 데이파크 C동 212호","category":"보건위생 - 피부미용실"},{"name":"버블스토리","tel":"031-272-4088","addr":"경기도 용인시 수지구 성복동 70-1번지 데미파크 C동 213호","category":"보건위생 - 미용원"},{"name":"브리겐","tel":"031-889-8619","addr":"경기도 용인시 수지구 성복동 70-1번지 모던프라자데이파크 309동 310호","category":"일반휴게음식 - 일반한식"},{"name":"생활맥주 수지 성복점","tel":"031-261-7999","addr":"경기도 용인시 수지구 성복동 70-1번지 데이파크 1층 120호","category":"일반휴게음식 - 주점"},{"name":"서울성복치과의원","tel":"031-272-2828","addr":"경기도 용인시 수지구 성복동 70-1번지 2층 203호 204호","category":"의원 - 치과의원"},{"name":"스파코지 주식회사","tel":"031-272-9595","addr":"경기도 용인시 수지구 성복동 70-1번지 모던프라자 3층 303호","category":"보건위생 - 화장품"},{"name":"씨엘(CL)","tel":"031-889-5292","addr":"경기도 용인시 수지구 성복동 70-1번지 모던프라자 1층 125호","category":"의류 - 정장"},{"name":"아이비스안경원","tel":"031-889-9001","addr":"경기도 용인시 수지구 성복동 70-1모던프라자C-108","category":"보건위생 - 안경"},{"name":"아이패밀리안경콘택트수지성복점","tel":"062-433-3079","addr":"경기도 용인시 수지구 성복동 70-1번지 데이파크 101호","category":"보건위생 - 안경"},{"name":"애견카페","tel":"031-898-0989","addr":"경기도 용인시 수지구 성복동 70-1번지 모든프라자 3층 309,310호","category":"일반휴게음식 - 일반한식"},{"name":"에스엠수지","tel":"031-266-8870","addr":"경기도 용인시 수지구 성복동 70-1번지 모던프라자 301호","category":"주방용구 - 주방용구"},{"name":"연세예본치과","tel":"031-889-7528","addr":"경기도 용인시 수지구 성복동 70-1번지 모던프라자이스트파크 307호","category":"의원 - 치과의원"},{"name":"영심이(성복점)","tel":"031-266-0077","addr":"경기도 용인시 수지구 성복동 70-1번지 데이파크 129호","category":"일반휴게음식 - 일반한식"},{"name":"오르쎄","tel":"031-889-5966","addr":"경기도 용인시 수지구 성복동 70-1번지 모던프라자이스트파크동 115호","category":"의류 - 정장"},{"name":"오토야","tel":"031-889-8188","addr":"경기도 용인시 수지구 성복동 70-1번지 모던프라자 116~117호","category":"일반휴게음식 - 일반한식"},{"name":"용인성복데이파크점","tel":"031-261-2990","addr":"경기도 용인시 수지구 성복동 70-1번지 모던프라자 109호","category":"수리서비스 - 세탁소"},{"name":"원더우먼","tel":"031-000-0000","addr":"경기도 용인시 수지구 성복동 70-1번지 데이파크 C동 1층 119호","category":"의류 - 스포츠의류"},{"name":"이디야커피수지성복역점","tel":"031-272-3188","addr":"경기도 용인시 수지구 성복동 70-1번지 모던프라자 114호","category":"일반휴게음식 - 서양음식"},{"name":"이카페 (ECAFE)","tel":"031-898-3351","addr":"경기도 용인시 수지구 성복동 70-1번지 데이파크 215호","category":"학원 - 외국어학원"},{"name":"자성화맛집코다리네 수지성복역점","tel":"031-262-9592","addr":"경기도 용인시 수지구 성복동 70-1번지 모던프라자 C동 202호","category":"일반휴게음식 - 일반한식"},{"name":"장독대 성복PM점","tel":"","addr":"경기도 용인시 수지구 성복동 70-1번지 데이파크 112, 113호","category":"음료식품 - 기타음료식품"},{"name":"주식회사 무한엔터프라이즈","tel":"070-8836-7050","addr":"경기도 용인시 수지구 성복동 70-1번지 모던프라자","category":"사무통신 - 통신기기"},{"name":"최가을 헤어드레서","tel":"031-897-0889","addr":"경기도 용인시 수지구 성복동 70-1번지 데이파크 205호","category":"보건위생 - 미용원"},{"name":"카네기","tel":"","addr":"경기도 용인시 수지구 성복동 70-1번지 3층 311-313호","category":"레저업소 - 노 래 방"},{"name":"테라스9","tel":"070-8700-4749","addr":"경기도 용인시 수지구 성복동 70-1번지 데이파크 124호","category":"의류 - 정장"},{"name":"티알엔(TRN)","tel":"031-897-4638","addr":"경기도 용인시 수지구 성복동 70-1번지 모던프라자제 1동 120호","category":"의류 - 정장"},{"name":"피오니","tel":"031-898-4617","addr":"경기도 용인시 수지구 성복동 70-1번지 모던프라자 123호","category":"의류 - 정장"},{"name":"한양아이소리 심리상담용인센터","tel":"031-898-1500","addr":"경기도 용인시 수지구 성복동 70-1번지 테마파크 302호","category":"보건위생 - 기타대인서비스"}]},{"lat":"37.32148134","long":"127.05785914","items":[{"name":"rangex","tel":"","addr":"경기도 용인시 수지구 성복동 783번지 아이비힐 101동 103호","category":"레저업소 - 스크린골프"}]},{"lat":"37.314118153","long":"127.07766303","items":[{"name":"강남헤어대박스타일","tel":"031-261-3201","addr":"경기도 용인시 수지구 성복동 84번지 강남빌리지 102호","category":"보건위생 - 미용원"},{"name":"강남헤어스타일","tel":"031-896-3888","addr":"경기도 용인시 수지구 성복동 84번지 강남빌리지 상가 106호","category":"보건위생 - 미용원"},{"name":"권나윤 영어연구소","tel":"031-261-4173","addr":"경기도 용인시 수지구 성복동 84번지 강남빌리지 상가동 209호","category":"용역 서비스 - 사무서비스"},{"name":"김은영헤어라인","tel":"031-266-7997","addr":"경기도 용인시 수지구 성복동 84번지 강남빌리지 207호","category":"보건위생 - 미용원"},{"name":"수지농축정육점","tel":"031-266-6624","addr":"경기도 용인시 수지구 성복동 84번지 강남빌리지 상가 103호","category":"음료식품 - 정육점"},{"name":"수지성복데이파크점해법수학교습소","tel":"031-272-6515","addr":"경기도 용인시 수지구 성복동 84번지 강남빌리지 204호","category":"회원제형태 - 학원"},{"name":"수지성복데이파크점해법수학교습소","tel":"031-272-6515","addr":"경기도 용인시 수지구 성복동 84번지 성동마을강남빌리지 상가동 204호","category":"회원제형태 - 학원"},{"name":"신세대코포레이션","tel":"031-272-3678","addr":"경기도 용인시 수지구 성복동 84번지 강남빌리지 201호 상가동제2층","category":"의류 - 맞춤복점"},{"name":"아이엘피아노교습소","tel":"","addr":"경기도 용인시 수지구 성복동 84번지 강남빌리지 205호, 206호","category":"학원 - 예·체능계학원"},{"name":"종로떡집","tel":"031-261-8123","addr":"경기도 용인시 수지구 성복동 84번지 강남빌리지 상가 105호","category":"음료식품 - 제과점"},{"name":"티하우스 비아","tel":"031-265-3233","addr":"경기도 용인시 수지구 성복동 84번지 강남빌리지 101호","category":"일반휴게음식 - 일반한식"},{"name":"플레이팩토510수학교습소","tel":"","addr":"경기도 용인시 수지구 성복동 84번지 성동마을강남빌리지 상가동 201호","category":"학원 - 보습학원"}]},{"lat":"37.31376674","long":"127.07768525","items":[{"name":"갤러리","tel":"031-266-9985","addr":"경기도 용인시 수지구 성복동 84번지 강남빌리지 101동 102호","category":"의류 - 정장"}]},{"lat":"37.314620813","long":"127.08063043","items":[{"name":"경기 성복점(신)","tel":"031-266-6323","addr":"경기도 용인시 수지구 성복동 748-2번지 신봉V샤르망 104호","category":"건강식품 - 홍삼제품"},{"name":"굿모닝점핑다이어트클럽","tel":"031-266-8577","addr":"경기도 용인시 수지구 성복동 748-2번지 신봉샤르망1 502호","category":"건강식품 - 기타건강식품"},{"name":"그린약국","tel":"031-263-9660","addr":"경기도 용인시 수지구 성복동 748-2번지 신봉브이샤르망 102호","category":"약국 - 약국"},{"name":"글로리아현악기","tel":"031-262-9681","addr":"경기도 용인시 수지구 성복동 748-2번지 신봉브이샤르망1제 1층 105호","category":"레져용품 - 악기점"},{"name":"나이스가이성복점","tel":"031-896-8977","addr":"경기도 용인시 수지구 성복동 748-2번지 신봉V샤르망Ⅲ 101호","category":"보건위생 - 미용원"},{"name":"내친김 성복점","tel":"031-265-0907","addr":"경기도 용인시 수지구 성복동 748-2번지 샤르망1 제지층 제지01호,제지02호","category":"일반휴게음식 - 일반한식"},{"name":"메르시마카롱 (Merci Macaron)","tel":"02-1111-1111","addr":"경기도 용인시 수지구 성복동 748-2번지 신봉샤르망1 1층 106호","category":"음료식품 - 기타음료식품"},{"name":"보화금은거래소","tel":"031-3321-8471","addr":"경기도 용인시 수지구 성복동 748-2번지 신봉V샤르망1제1층107","category":"신변잡화 - 귀금속"},{"name":"수담바둑학원","tel":"031-266-8880","addr":"경기도 용인시 수지구 성복동 748-2번지 신봉샤르망1 301호","category":"학원 - 기타 교육기관"},{"name":"시골팥죽","tel":"031-896-3393","addr":"경기도 용인시 수지구 성복동 748-2번지 신봉V샤르망1 108호","category":"일반휴게음식 - 일반한식"},{"name":"알찬(RCHAN)","tel":"031-264-8338","addr":"경기도 용인시 수지구 성복동 748-2번지 신봉샤르망1 103호","category":"음료식품 - 기타음료식품"},{"name":"우노 요가스튜디오","tel":"031-263-3456","addr":"경기도 용인시 수지구 성복동 748-2번지 신봉샤르망1 303,304호","category":"레저업소 - 헬스클럽"},{"name":"정관장 성복점","tel":"031-266-6323","addr":"경기도 용인시 수지구 성복동 748-2번지 신봉브이샤르망 104호","category":"건강식품 - 홍삼제품"},{"name":"토즈멤버십라운지 성복센터","tel":"031-261-4364","addr":"경기도 용인시 수지구 성복동 748-2번지 샤르망1 5층 501호 일부","category":"용역 서비스 - 사무서비스"},{"name":"토즈스터디센터 성복독서실","tel":"031-261-4364","addr":"경기도 용인시 수지구 성복동 748-2번지 샤르망1 5층 501호 일부","category":"학원 - 독서실"},{"name":"팥고을","tel":"031-896-8780","addr":"경기도 용인시 수지구 성복동 748-2번지 신봉V샤르망 101호","category":"일반휴게음식 - 일반한식"}]},{"lat":"37.314397169","long":"127.06229867","items":[{"name":"경남크리닝","tel":"031-889-8982","addr":"경기도 용인시 수지구 성복동 753번지 버들치마을경남아너스빌 상가 102호","category":"수리서비스 - 세탁소"},{"name":"수헤어","tel":"031-889-2446","addr":"경기도 용인시 수지구 성복동 753번지 버들치마을경남아너스빌1차 상가동 103호","category":"보건위생 - 미용원"},{"name":"씨유수지성복점","tel":"031-898-6568","addr":"경기도 용인시 수지구 성복동 753번지 버들치마을경남아너스빌1차 상가동 101호","category":"유통업 영리 - 편 의 점"},{"name":"오늘반찬","tel":"031-264-4465","addr":"경기도 용인시 수지구 성복동 753번지 버들치마을경남아너스빌1차 상가 104,108호","category":"음료식품 - 기타음료식품"},{"name":"피아노이야기음악교습소","tel":"031-266-1919","addr":"경기도 용인시 수지구 성복동 753번지 버들치마을경남아너스빌1차 상가동 105호","category":"학원 - 예·체능계학원"}]},{"lat":"37.320151526","long":"127.06830512","items":[{"name":"경희대탑태권도장","tel":"031-265-2228","addr":"경기도 용인시 수지구 성복동 752번지 성동마을수지자이1차 상가동 303,304호","category":"학원 - 예·체능계학원"},{"name":"손희순 hair shop","tel":"031-266-1999","addr":"경기도 용인시 수지구 성복동 752번지 성동마을수지자이1차 상가동 1층 111호","category":"보건위생 - 화장품"},{"name":"에듀탑학원","tel":"","addr":"경기도 용인시 수지구 성복동 752번지 성동마을수지자이1차 상가동 2층 201호","category":"학원 - 보습학원"},{"name":"유레아 인터네셔널 (EUREA international)","tel":"070-8811-0007","addr":"경기도 용인시 수지구 성복동 752번지 수지골드프라자 B층 314호","category":"보건위생 - 화장품"},{"name":"장꼬방","tel":"031-261-3732","addr":"경기도 용인시 수지구 성복동 752번지 골드프라자 B204호","category":"일반휴게음식 - 일반한식"}]},{"lat":"37.313234586","long":"127.07855334","items":[{"name":"고삐251","tel":"031-675-5678","addr":"경기도 용인시 수지구 성복동 89번지","category":"일반휴게음식 - 일반한식"},{"name":"깐부1.5","tel":"031-898-0471","addr":"경기도 용인시 수지구 성복동 89번지 와이케이타운 A동 116,117호","category":"일반휴게음식 - 스넥"},{"name":"네일킹","tel":"031-889-1769","addr":"경기도 용인시 수지구 성복동 89번지 YK타운제비동제109호","category":"신변잡화 - 액세서리"},{"name":"단아한미인의원","tel":"031-263-2260","addr":"경기도 용인시 수지구 성복동 89번지 B동 211호 212","category":"의원 - 의원"},{"name":"뚜레쥬르용인데이파크","tel":"031-889-5189","addr":"경기도 용인시 수지구 성복동 89번지","category":"음료식품 - 제과점"},{"name":"라베베(La bebe)","tel":"031-897-0020","addr":"경기도 용인시 수지구 성복동 89번지 YK타운호 B동 401,402","category":"일반휴게음식 - 일반한식"},{"name":"명동면옥","tel":"031-889-5570","addr":"경기도 용인시 수지구 성복동 89번지 와이케이타운 A동 105, 106호","category":"일반휴게음식 - 일반한식"},{"name":"베아토 알베로","tel":"070-4085-7677","addr":"경기도 용인시 수지구 성복동 89번지 YK타운제비동 119호","category":"의류 - 정장"},{"name":"수입 빈티지","tel":"","addr":"경기도 용인시 수지구 성복동 89번지 데이파크 1층 128호","category":"의류 - 기타의류"},{"name":"수지경희한의원","tel":"031-889-9881","addr":"경기도 용인시 수지구 성복동 89번지 Y.K타운 B동 404호","category":"의원 - 한의원"},{"name":"양가네","tel":"","addr":"경기도 용인시 수지구 성복동 89번지 YK타운 1층 119호","category":"일반휴게음식 - 일반한식"},{"name":"이즘","tel":"031-272-3585","addr":"경기도 용인시 수지구 성복동 89번지 와이케이타운제비동2층214","category":"보건위생 - 피부미용실"},{"name":"제이필라테스앤바디웍스","tel":"031-889-9883","addr":"경기도 용인시 수지구 성복동 89번지 YK타운 215호","category":"회원제형태 - 레져업소"},{"name":"주식회사조은여행사","tel":"031-889-8801","addr":"경기도 용인시 수지구 성복동 89번지 와이케이타운 2층","category":"여행 - 관광여행"},{"name":"태광약국","tel":"031-889-3054","addr":"경기도 용인시 수지구 성복동 89번지 303호 , 데이파크에이동","category":"약국 - 약국"},{"name":"한기쁨 스팀세차","tel":"031-889-4795","addr":"경기도 용인시 수지구 성복동 89번지 데이파크 지하1층 주차장 내","category":"자동차정비 유지 - 세차장"}]},{"lat":"37.314702045","long":"127.08041617","items":[{"name":"고수학학원","tel":"031-264-0104","addr":"경기도 용인시 수지구 성복동 748-1번지 신봉샤르망2 2층 3호","category":"학원 - 보습학원"},{"name":"국어생각고등관학원","tel":"031-264-2139","addr":"경기도 용인시 수지구 성복동 748-1번지 신봉샤르망2 403호","category":"학원 - 보습학원"},{"name":"국어생각학원","tel":"031-2064-2139","addr":"경기도 용인시 수지구 성복동 748-1번지 신봉샤르망2 4층 403호","category":"학원 - 보습학원"},{"name":"라라베이비","tel":"031-111-1111","addr":"경기도 용인시 수지구 성복동 748-1번지 신봉샤르망2 101호","category":"의류 - 아동의류"},{"name":"로제타스톤영어학원","tel":"031-272-9640","addr":"경기도 용인시 수지구 성복동 748-1번지 신봉브이샤르망-2제4층401호","category":"학원 - 보습학원"},{"name":"밀빛초계국수","tel":"031-276-2828","addr":"경기도 용인시 수지구 성복동 748-1번지 신봉샤르망2 B101호","category":"일반휴게음식 - 일반한식"},{"name":"수지그린성장운동센터","tel":"031-266-2729","addr":"경기도 용인시 수지구 성복동 748-1신봉브이샤르망2제301,302,303호","category":"회원제형태 - 건강식품"},{"name":"수지그린정형외과","tel":"031-266-2792","addr":"경기도 용인시 수지구 성복동 748-1신봉브이샤르망2,201호~202호","category":"의원 - 의원"},{"name":"조선일보신수지지국","tel":"031-263-7740","addr":"경기도 용인시 수지구 성복동 748-1번지 신봉샤르망2 402호","category":"서적문구 - 정기간행물"},{"name":"튼튼영어용인수지","tel":"031-261-8255","addr":"경기도 용인시 수지구 성복동 748-1번지 신봉브이샤르망 4층","category":"회원제형태 - 서적"},{"name":"플라디","tel":"","addr":"경기도 용인시 수지구 성복동 748-1번지 샤르망2 101호 플라디","category":"문화.취미 - 화원"},{"name":"혁신수학학원","tel":"031-265-7342","addr":"경기도 용인시 수지구 성복동 748-1번지 신봉샤르망 2동 203호","category":"학원 - 보습학원"}]},{"lat":"37.315514226","long":"127.07846538","items":[{"name":"고인돌돌판구이","tel":"031-276-0446","addr":"경기도 용인시 수지구 성복동 744-1번지 청담빌 51층","category":"일반휴게음식 - 일반한식"}]},{"lat":"37.315035791","long":"127.07985246","items":[{"name":"굼터","tel":"031-889-1329","addr":"경기도 용인시 수지구 성복동 746-5번지 1층","category":"일반휴게음식 - 일반한식"}]},{"lat":"37.319377742","long":"127.06629631","items":[{"name":"그린인벤스","tel":"","addr":"경기도 용인시 수지구 성복동 762번지 성동마을수지자이2차","category":"학원 - 기타 교육기관"}]},{"lat":"37.313540221","long":"127.07965917","items":[{"name":"김낙훈포토그래피","tel":"070-7783-8747","addr":"경기도 용인시 수지구 성복동 74-6번지","category":"광학제품 - 사진관"},{"name":"빌리엔젤","tel":"031-265-2003","addr":"경기도 용인시 수지구 성복동 74-6번지 1층","category":"일반휴게음식 - 서양음식"},{"name":"성복365괜추나한의원","tel":"031-272-3650","addr":"경기도 용인시 수지구 성복동 74-6번지 세훈빌딩 2층","category":"의원 - 한의원"},{"name":"성복온누리약국","tel":"031-272-3952","addr":"경기도 용인시 수지구 성복동 74-6번지","category":"약국 - 약국"},{"name":"참좋은치과의원","tel":"031-261-2804","addr":"경기도 용인시 수지구 성복동 74-6번지 3층","category":"의원 - 치과의원"},{"name":"쿤스튜디오","tel":"","addr":"경기도 용인시 수지구 성복동 74-6번지 1층","category":"광학제품 - 사진관"}]},{"lat":"37.316673619","long":"127.0682457","items":[{"name":"김민기피아노교습소","tel":"031-276-2221","addr":"경기도 용인시 수지구 성복동 278-1번지 벽산프라자 1층 101호","category":"학원 - 예·체능계학원"},{"name":"김용한내과의원","tel":"031-896-2767","addr":"경기도 용인시 수지구 성복동 278-1번지 벽산프라자 301호","category":"의원 - 의원"},{"name":"꽁블떡케익","tel":"031-263-3962","addr":"경기도 용인시 수지구 성복동 278-1번지 벽산프라자 106호","category":"학원 - 기능학원"},{"name":"내고향한우정육식당","tel":"031-265-8485","addr":"경기도 용인시 수지구 성복동 278-1번지 벽산프라자 110호","category":"일반휴게음식 - 일반한식"},{"name":"디자인헤어 (아바&마미)","tel":"031-261-4904","addr":"경기도 용인시 수지구 성복동 278-1번지 벽산프라자 108호","category":"보건위생 - 미용원"},{"name":"리듬음악학원","tel":"031-965-1193","addr":"경기도 용인시 수지구 성복동 278-1번지 벽산프라자 1층 109호","category":"학원 - 예·체능계학원"},{"name":"매쓰매티스트(mathmatist)학원","tel":"031-709-8800","addr":"경기도 용인시 수지구 성복동 278-1번지 벽산프라자제지층제비 10호-1","category":"학원 - 보습학원"},{"name":"뮤엠영어효자학원","tel":"031-263-1318","addr":"경기도 용인시 수지구 성복동 278-1번지 벽산프라자","category":"학원 - 외국어학원"},{"name":"미르안경","tel":"031-261-2961","addr":"경기도 용인시 수지구 성복동 278-1번지 벽산프라자비 05호","category":"보건위생 - 안경"},{"name":"미코 에스테틱","tel":"031-8005-7717","addr":"경기도 용인시 수지구 성복동 278-1번지 벽산프라자 지층 B09호","category":"보건위생 - 피부미용실"},{"name":"바른뜸한의원","tel":"031-261-1475","addr":"경기도 용인시 수지구 성복동 278-1번지 벽산프라자 102호~103호","category":"의원 - 한의원"},{"name":"버무리떡볶이용인성복점","tel":"031-261-8001","addr":"경기도 용인시 수지구 성복동 278-1번지 벽산프라자 1층 105호","category":"일반휴게음식 - 일반한식"},{"name":"벅스헤어디자인","tel":"031-896-9221","addr":"경기도 용인시 수지구 성복동 278-1번지 벽산프라자 B1호","category":"보건위생 - 미용원"},{"name":"부부 장독대","tel":"031-3256-9488","addr":"경기도 용인시 수지구 성복동 278-1번지 벽산프라자 B08호","category":"음료식품 - 기타음료식품"},{"name":"브레인탑수학교습소","tel":"031-263-8069","addr":"경기도 용인시 수지구 성복동 278-1번지 벽산프라자 210호","category":"회원제형태 - 학원"},{"name":"블랑제리","tel":"031-265-0480","addr":"경기도 용인시 수지구 성복동 278-1번지 벽산프라자 111,112호","category":"음료식품 - 제과점"},{"name":"삼성하이덴치과의원","tel":"031-264-2100","addr":"경기도 용인시 수지구 성복동 276-1벽산프라자2층206호,207호","category":"의원 - 의원"},{"name":"새로나 의류수선","tel":"031-244-7076","addr":"경기도 용인시 수지구 성복동 278-1번지 벽산프라자 204호","category":"수리서비스 - 세탁소"},{"name":"서진인테리어","tel":"031-213-3104","addr":"경기도 용인시 수지구 성복동 278-1번지 벽산프라자 113호","category":"건축자재 - 인테리어전문"},{"name":"안선생미술학원","tel":"031-266-2199","addr":"경기도 용인시 수지구 성복동 278-1번지 외5필지벽산프라자 208호","category":"학원 - 예·체능계학원"},{"name":"엠케이쥬얼리카페","tel":"050-5378-5378","addr":"경기도 용인시 수지구 성복동 278-1번지 벽산프라자 B10호","category":"일반휴게음식 - 일반한식"},{"name":"이화약국","tel":"031-276-9872","addr":"경기도 용인시 수지구 성복동 278-1번지 외5필지 지하층 B04호","category":"약국 - 약국"},{"name":"이화약국","tel":"031-276-9872","addr":"경기도 용인시 수지구 성복동 278-1번지 외5필지 지하층 B04호","category":"약국 - 약국"},{"name":"전통떡고을","tel":"031-266-4088","addr":"경기도 용인시 수지구 성복동 278-1번지 외5필지벽산프라자 지하층 108호","category":"음료식품 - 제과점"},{"name":"초록마을성복주민센터점","tel":"031-276-6249","addr":"경기도 용인시 수지구 성복동 278-1번지 벽산프라자 B07호","category":"유통업 영리 - 슈퍼마켓"},{"name":"칸지고고","tel":"031-261-3737","addr":"경기도 용인시 수지구 성복동 278-1번지 벽산프라자","category":"일반휴게음식 - 중국식"},{"name":"칸지고고","tel":"031-261-3737","addr":"경기도 용인시 수지구 성복동 278-1번지 벽산프라자 302호","category":"일반휴게음식 - 중국식"},{"name":"크린토피아 성복프라자점","tel":"031-263-2639","addr":"경기도 용인시 수지구 성복동 278-1번지 벽산프라자 지층 B6호","category":"수리서비스 - 세탁소"},{"name":"토프레소 성복점","tel":"031-266-5652","addr":"경기도 용인시 수지구 성복동 278-1번지 벽산프라자 109호","category":"일반휴게음식 - 서양음식"},{"name":"해담은동물병원","tel":"031-892-7775","addr":"경기도 용인시 수지구 성복동 278-1번지 벽산프라자 1층 107호","category":"기타의료기관 - 동물병원"},{"name":"화미가","tel":"031-262-1083","addr":"경기도 용인시 수지구 성복동 278-1번지 벽산프라자 111동 112호","category":"일반휴게음식 - 일반한식"},{"name":"효성정육점","tel":"031-265-7396","addr":"경기도 용인시 수지구 성복동 278-1번지 벽산프라자 B동 지층 4-1호","category":"음료식품 - 정육점"},{"name":"효자문구서점","tel":"031-263-4861","addr":"경기도 용인시 수지구 성복동 278-1번지 벽산프라자 지하1층 2호","category":"서적문구 - 문구용품"},{"name":"효자태권도장","tel":"031-276-1830","addr":"경기도 용인시 수지구 성복동 278-1번지 벽산프라자 201,202호","category":"학원 - 예·체능계학원"}]},{"lat":"37.31479231","long":"127.08016808","items":[{"name":"김밥천국","tel":"031-896-3883","addr":"경기도 용인시 수지구 성복동 748번지 신봉V샤르망Ⅲ 103호","category":"일반휴게음식 - 스넥"},{"name":"신봉브이샤르망lll-2","tel":"032-329-9270","addr":"경기도 용인시 수지구 성복동 748번지 201호,301호,401호","category":"자동차정비 유지 - 주차장"},{"name":"커피콩","tel":"031-889-1477","addr":"경기도 용인시 수지구 성복동 748번지 신봉샤르망3 102호","category":"일반휴게음식 - 서양음식"},{"name":"통영회관 멸치칼국수","tel":"031-111-1111","addr":"경기도 용인시 수지구 성복동 748번지 신봉샤르망3 107호 108호","category":"일반휴게음식 - 일반한식"},{"name":"헤더의 애프터눈","tel":"070-4678-1678","addr":"경기도 용인시 수지구 성복동 748번지 신봉샤르망3 105,106호","category":"일반휴게음식 - 서양음식"}]},{"lat":"37.318159883","long":"127.06900285","items":[{"name":"김병두영어번역평생교육원","tel":"","addr":"경기도 용인시 수지구 성복동 731번지 성동마으레엘지빌리지6차 605동 1001호","category":"학원 - 기타 교육기관"},{"name":"나루배움","tel":"031-276-5602","addr":"경기도 용인시 수지구 성복동 731번지 성동마을엘지빌리지 605동 1603호","category":"서적문구 - 기타서적문구"}]},{"lat":"37.318958509","long":"127.0578009","items":[{"name":"김영숙도예연구소","tel":"070-7715-9151","addr":"경기도 용인시 수지구 성복동 516번지 105호","category":"문화.취미 - 민예·공예품"},{"name":"더리틀포레스트 아트스튜디오","tel":"031-263-0911","addr":"경기도 용인시 수지구 성복동 516번지 상가동 106호","category":"학원 - 예·체능계학원"},{"name":"카페파이","tel":"031-3661-5149","addr":"경기도 용인시 수지구 성복동 516번지","category":"음료식품 - 제과점"}]},{"lat":"37.320844999","long":"127.06886982","items":[{"name":"꼼지락 작업실","tel":"","addr":"경기도 용인시 수지구 성복동 752번지 성동마을수지자이1차 109동 8층 4호","category":"문화.취미 - 문화취미기타"}]},{"lat":"37.31399233","long":"127.07715527","items":[{"name":"꿈꾸는 다락방","tel":"","addr":"경기도 용인시 수지구 성복동 84번지 성동마을강남빌리지 102동 901호","category":"신변잡화 - 기타잡화"}]},{"lat":"37.313423648","long":"127.07879043","items":[{"name":"나인","tel":"","addr":"경기도 용인시 수지구 성복동 89번지 데이파크 A동 1층 130호","category":"의류 - 정장"},{"name":"노만디자인(normann design)","tel":"","addr":"경기도 용인시 수지구 성복동 89번지 와이케이타운 A동 112호","category":"건축자재 - 인테리어전문"},{"name":"다은케익팩토리","tel":"031-0000-0000","addr":"경기도 용인시 수지구 성복동 89번지 데이파크 A동 110호","category":"음료식품 - 기타음료식품"},{"name":"벨루카스테이블","tel":"031-897-0019","addr":"경기도 용인시 수지구 성복동 89번지 와이케이타운 A동 1층 109호","category":"일반휴게음식 - 스넥"},{"name":"센스오브스타일루이","tel":"031-897-3314","addr":"경기도 용인시 수지구 성복동 89번지 YK타운 A동 107호","category":"의류 - 정장"},{"name":"씨엘","tel":"031-262-8388","addr":"경기도 용인시 수지구 성복동 89번지 데이파크 A동 132호","category":"의류 - 정장"},{"name":"양푼이","tel":"031-713-0442","addr":"경기도 용인시 수지구 성복동 89번지 YK타운 A동 115호","category":"일반휴게음식 - 일반한식"},{"name":"엔젤키즈","tel":"031-305-0411","addr":"경기도 용인시 수지구 성복동 89번지 YK타운 A동 131호","category":"의류 - 아동의류"},{"name":"오뎅에필꼬치면","tel":"031-266-5532","addr":"경기도 용인시 수지구 성복동 89번지 YK타운 A동 114호","category":"일반휴게음식 - 일식·회집"},{"name":"와라그릴(What A Grill)","tel":"031-266-3848","addr":"경기도 용인시 수지구 성복동 89번지 YK타운 A동 104호","category":"일반휴게음식 - 서양음식"},{"name":"용인수지 코딩센터","tel":"031-204-7423","addr":"경기도 용인시 수지구 성복동 89번지 데이파크 A동 122호","category":"학원 - 학습지 교육"},{"name":"저울집","tel":"031-262-6065","addr":"경기도 용인시 수지구 성복동 89번지 YK타운 A동 118호","category":"일반휴게음식 - 일반한식"},{"name":"조가네성복전집","tel":"031-272-4533","addr":"경기도 용인시 수지구 성복동 89번지 YK타운 A동 113호","category":"일반휴게음식 - 일반한식"},{"name":"조은화장품","tel":"031-276-8332","addr":"경기도 용인시 수지구 성복동 89번지 와이케이타운 A동 121호","category":"보건위생 - 화장품"},{"name":"청춘여행 성복역점","tel":"031-261-2911","addr":"경기도 용인시 수지구 성복동 89번지 와이케이타운 A동 103호","category":"일반휴게음식 - 주점"},{"name":"쿤","tel":"","addr":"경기도 용인시 수지구 성복동 89번지 와이케이타운 A동 127호","category":"의류 - 정장"},{"name":"클로이","tel":"070-4154-7275","addr":"경기도 용인시 수지구 성복동 89번지 와이케이타운 A동 111호","category":"의류 - 정장"},{"name":"클로이(CLOY)","tel":"031-265-8792","addr":"경기도 용인시 수지구 성복동 89번지 데이파크 A동 112호","category":"의류 - 정장"},{"name":"튼튼영어베이비리그용인수지센터","tel":"031-261-8205","addr":"경기도 용인시 수지구 성복동 89번지 YK타운 A동 122호","category":"서적문구 - 일반서적"},{"name":"플로라스케어","tel":"031-897-3311","addr":"경기도 용인시 수지구 성복동 89번지 데이파크 A동 121호","category":"회원제형태 - 기타4"},{"name":"행복이가득한집","tel":"031-889-9464","addr":"경기도 용인시 수지구 성복동 89번지 YK타운 A동 123호","category":"가구 - 일반가구"},{"name":"힐링의원","tel":"031-263-7800","addr":"경기도 용인시 수지구 성복동 89번지 데이파크 A동 301호","category":"의원 - 의원"}]},{"lat":"37.312512586","long":"127.08038008","items":[{"name":"남다른재활의학과의원","tel":"031-262-7585","addr":"경기도 용인시 수지구 성복동 66-10번지 2층 201호","category":"의원 - 의원"},{"name":"더공감정신건강의학과의원","tel":"031-261-0323","addr":"경기도 용인시 수지구 성복동 66-10번지 5층 B","category":"의원 - 의원"},{"name":"더트리니티","tel":"031-262-0288","addr":"경기도 용인시 수지구 성복동 66-10번지 301호","category":"보건위생 - 화장품"},{"name":"미소치과의원","tel":"031-896-2727","addr":"경기도 용인시 수지구 성복동 66-10번지 3층","category":"의원 - 치과의원"},{"name":"성복역 우리약국","tel":"031-265-7654","addr":"경기도 용인시 수지구 성복동 66-10번지 107호","category":"약국 - 약국"},{"name":"세븐일레븐성복역점","tel":"031-1577-0711","addr":"경기도 용인시 수지구 성복동 66-10번지 1층 105호","category":"유통업 영리 - 편 의 점"},{"name":"수지금은거래소","tel":"031-272-4989","addr":"경기도 용인시 수지구 성복동 66-10번지 성복프라자 1층 108호","category":"신변잡화 - 귀금속"},{"name":"약초마을","tel":"031-276-8181","addr":"경기도 용인시 수지구 성복동 66-10번지 1층 일부","category":"일반휴게음식 - 일반한식"},{"name":"커피에반하다","tel":"031-276-5707","addr":"경기도 용인시 수지구 성복동 66-10번지 103호","category":"일반휴게음식 - 서양음식"}]},{"lat":"37.314045418","long":"127.07868952","items":[{"name":"남서울FLOWERSHOP","tel":"031-305-0244","addr":"경기도 용인시 수지구 성복동 84번지 강남빌리지 108동 701호","category":"문화.취미 - 화원"}]},{"lat":"37.319943152","long":"127.07033566","items":[{"name":"네오컨설팅","tel":"031-752-2985","addr":"경기도 용인시 수지구 성복동 731번지 성동마을엘지빌리지6차","category":"회원제형태 - 학원"}]},{"lat":"37.311848012","long":"127.07697267","items":[{"name":"노블레스헤어펌","tel":"031-718-4026","addr":"경기도 용인시 수지구 성복동 90-1번지 LG2차 상가 203호","category":"보건위생 - 미용원"},{"name":"산트(THE SANT)","tel":"","addr":"경기도 용인시 수지구 성복동 90-1번지 성동마을엘지빌리지2차아파트","category":"의류 - 기타의류"},{"name":"씨.에프숯불바베큐","tel":"031-266-0888","addr":"경기도 용인시 수지구 성복동 90-1번지 성동마을엘지빌리지2차아파트 상가 111호","category":"일반휴게음식 - 일반한식"},{"name":"아이디몰","tel":"070-8704-7000","addr":"경기도 용인시 수지구 성복동 90-1번지 성동마을엘지빌리지2차아파트","category":"회원제형태 - 기타4"},{"name":"아티시안","tel":"","addr":"경기도 용인시 수지구 성복동 90-1번지 성동마을엘지빌리지2차아파트","category":"의류 - 맞춤복점"},{"name":"야미박스(Yummy Box)","tel":"031-261-4942","addr":"경기도 용인시 수지구 성복동 90-1번지 엘지빌리지2차 주상가 105호","category":"일반휴게음식 - 스넥"},{"name":"엔젤 인터네셔널 코리아(Angel Internation","tel":"","addr":"경기도 용인시 수지구 성복동 90-1번지 성동마을엘지빌리지2차아파트","category":"용역 서비스 - 사무서비스"},{"name":"행복청국장보리밥","tel":"031-263-8245","addr":"경기도 용인시 수지구 성복동 90-1번지 lg분산상가104,105,106","category":"일반휴게음식 - 일반한식"},{"name":"헬레나","tel":"031-276-3663","addr":"경기도 용인시 수지구 성복동 90-1번지 성동마을LG빌리지 203호 2차상가동","category":"보건위생 - 피부미용실"}]},{"lat":"37.318202023","long":"127.07402315","items":[{"name":"누누컬렉션","tel":"","addr":"경기도 용인시 수지구 성복동 726번지 성동마을엘지빌리지3차","category":"신변잡화 - 가방"}]},{"lat":"37.316261413","long":"127.07949271","items":[{"name":"뉴리라음악학원","tel":"031-306-3330","addr":"경기도 용인시 수지구 성복동 741번지 푸른마을푸르지오 상가동 204,205,206","category":"학원 - 예·체능계학원"},{"name":"미래우산","tel":"031-897-9300","addr":"경기도 용인시 수지구 성복동 741번지 푸른마을푸르지오","category":"기타 - 기타 전문점"}]},{"lat":"37.319174586","long":"127.05816207","items":[{"name":"담화","tel":"031-265-7225","addr":"경기도 용인시 수지구 성복동 516-3번지","category":"음료식품 - 기타음료식품"},{"name":"베니(benit)","tel":"031-602-0502","addr":"경기도 용인시 수지구 성복동 516-3번지 101호","category":"의류 - 정장"},{"name":"엠마스키친","tel":"070-7797-1008","addr":"경기도 용인시 수지구 성복동 516-3번지 102-104호","category":"일반휴게음식 - 일반한식"},{"name":"주식회사 하나엘리베이터","tel":"031-266-2019","addr":"경기도 용인시 수지구 성복동 516-3번지 1동 401호","category":"용역 서비스 - 기타용역서비스"}]},{"lat":"37.313258393","long":"127.08343794","items":[{"name":"대명유리","tel":"031-264-6280","addr":"경기도 용인시 수지구 성복동 20-1","category":"건축자재 - 유리"}]},{"lat":"37.325120221","long":"127.06046806","items":[{"name":"도마치 힐","tel":"031-265-9101","addr":"경기도 용인시 수지구 성복동 357-6번지 1층","category":"일반휴게음식 - 서양음식"},{"name":"버드소리","tel":"070-4649-1101","addr":"경기도 용인시 수지구 성복동 357-6번지 일부호","category":"일반휴게음식 - 서양음식"}]},{"lat":"37.315487562","long":"127.07789001","items":[{"name":"동문인테리어","tel":"031-265-7755","addr":"경기도 용인시 수지구 성복동 743-2번지 지하 103호 102","category":"건축자재 - 인테리어전문"},{"name":"베이지","tel":"031-466-6285","addr":"경기도 용인시 수지구 성복동 743-2번지 청풍 지하 104호","category":"의류 - 정장"},{"name":"삼천포","tel":"031-276-0222","addr":"경기도 용인시 수지구 성복동 743-2번지 청풍빌딩 1층","category":"일반휴게음식 - 일식·회집"},{"name":"성복동 국수집","tel":"031-276-8865","addr":"경기도 용인시 수지구 성복동 743-2번지 청풍 지하1층","category":"일반휴게음식 - 일반한식"},{"name":"세희피부관리","tel":"031-272-9919","addr":"경기도 용인시 수지구 성복동 743-2번지 청풍","category":"회원제형태 - 기타4"},{"name":"채민헤어","tel":"031-889-9916","addr":"경기도 용인시 수지구 성복동 743-2번지 청풍 지하1층","category":"보건위생 - 미용원"}]},{"lat":"37.312098477","long":"127.07982691","items":[{"name":"두산티엠에스주식회사","tel":"031-260-1949","addr":"경기도 용인시 수지구 성복동 39-3번지 두산빌딩 6층","category":"용역 서비스 - 소프트웨어"}]},{"lat":"37.319871592","long":"127.05077303","items":[{"name":"디엘린산후조리원주식회사","tel":"031-263-8855","addr":"경기도 용인시 수지구 성복동 598-8번지","category":"기타의료기관 - 산후조리원"},{"name":"보뇌르","tel":"031-265-1003","addr":"경기도 용인시 수지구 성복동 598-8번지","category":"일반휴게음식 - 스넥"},{"name":"테스파","tel":"031-263-8855","addr":"경기도 용인시 수지구 성복동 598-8번지 1층","category":"보건위생 - 피부미용실"}]},{"lat":"37.315090385","long":"127.079029","items":[{"name":"디자인 갤러리","tel":"02-1111-1111","addr":"경기도 용인시 수지구 성복동 746번지 영진","category":"건축자재 - 인테리어전문"},{"name":"로즈엔데코","tel":"031-896-6526","addr":"경기도 용인시 수지구 성복동 746번지 영진 B4호","category":"문화.취미 - 민예·공예품"},{"name":"비비큐(BBQ)성복점","tel":"031-261-9287","addr":"경기도 용인시 수지구 성복동 746번지 지하1층 일부","category":"일반휴게음식 - 스넥"},{"name":"양양입암막국수","tel":"031-265-2250","addr":"경기도 용인시 수지구 성복동 746번지 영진 1층","category":"일반휴게음식 - 일반한식"}]},{"lat":"37.318875631","long":"127.06152377","items":[{"name":"라이킷PC","tel":"031-0000-0000","addr":"경기도 용인시 수지구 성복동 424-18번지 1층 101호","category":"레저업소 - 기타레져업소"},{"name":"수꼬치&치킨","tel":"031-263-8892","addr":"경기도 용인시 수지구 성복동 424-18번지 B101,B102호","category":"일반휴게음식 - 일반한식"}]},{"lat":"37.31520772","long":"127.07871325","items":[{"name":"랩디자인","tel":"031-898-1185","addr":"경기도 용인시 수지구 성복동 743-6번지 B01호","category":"직물 - 카페트,커튼,천막,지물"}]},{"lat":"37.31786698","long":"127.07674167","items":[{"name":"렘프스퀘어(LEMP SQUARE)","tel":"031-262-2973","addr":"경기도 용인시 수지구 성복동 155번지 성동마을엘지빌리지1차","category":"수리서비스 - 사무·통신기기수리"}]},{"lat":"37.316458799","long":"127.08077898","items":[{"name":"루디아(명품.구제)","tel":"","addr":"경기도 용인시 수지구 성복동 741번지 푸른마을푸르지오","category":"의류 - 정장"}]},{"lat":"37.316684691","long":"127.06439879","items":[{"name":"루시룸","tel":"","addr":"경기도 용인시 수지구 성복동 758번지 버들치마을성복자이1차","category":"신변잡화 - 기타잡화"}]},{"lat":"37.315094114","long":"127.07299365","items":[{"name":"리안헤어 성복느티나무점","tel":"031-276-2209","addr":"경기도 용인시 수지구 성복동 167번지 1층 101호,102호","category":"보건위생 - 미용원"}]},{"lat":"37.314288265","long":"127.07935534","items":[{"name":"리윰필라테스 성복점","tel":"031-261-3693","addr":"경기도 용인시 수지구 성복동 76번지 영진빌딩 2층","category":"레저업소 - 헬스클럽"},{"name":"설빙성복점","tel":"031-261-0499","addr":"경기도 용인시 수지구 성복동 76번지 (103.104호)","category":"일반휴게음식 - 서양음식"},{"name":"수지이다치과의원","tel":"031-263-2825","addr":"경기도 용인시 수지구 성복동 76번지","category":"의원 - 치과의원"},{"name":"아이벨르팜므수지성복역점","tel":"031-272-4700","addr":"경기도 용인시 수지구 성복동 76번지 영진빌딩 202호","category":"보건위생 - 미용원"},{"name":"어니스트키친성복점","tel":"031-264-0971","addr":"경기도 용인시 수지구 성복동 76번지 영진빌딩 107,108호","category":"일반휴게음식 - 일식·회집"}]},{"lat":"37.320998598","long":"127.06810278","items":[{"name":"마마포레스트","tel":"070-5123-4620","addr":"경기도 용인시 수지구 성복동 752번지 성동마을수지자이1차 110동 16층 4호","category":"신변잡화 - 기타잡화"},{"name":"스튜디오폴(Studio paul)","tel":"02-3442-7734","addr":"경기도 용인시 수지구 성복동 752","category":"회원제형태 - 기타2"}]},{"lat":"37.321091285","long":"127.06322906","items":[{"name":"마이라넌","tel":"031-476-7834","addr":"경기도 용인시 수지구 성복동 760번지 버들치마을힐스테이트3차 306동 1604호","category":"문화.취미 - 화원"}]},{"lat":"37.314814117","long":"127.07413277","items":[{"name":"마주보고(MAJUBOGO)","tel":"070-8887-2428","addr":"경기도 용인시 수지구 성복동 170-6번지","category":"일반휴게음식 - 서양음식"}]},{"lat":"37.315910473","long":"127.07878164","items":[{"name":"마테바움","tel":"031-897-6287","addr":"경기도 용인시 수지구 성복동 741번지 푸른마을푸르지오","category":"서적문구 - 출판 및 인쇄물"}]},{"lat":"37.314873659","long":"127.07977333","items":[{"name":"만두전문점","tel":"031-262-3006","addr":"경기도 용인시 수지구 성복동 746-4번지 B102호","category":"일반휴게음식 - 일반한식"},{"name":"카페37.5 수지성복점","tel":"031-262-3705","addr":"경기도 용인시 수지구 성복동 746-4번지 1층","category":"일반휴게음식 - 서양음식"}]},{"lat":"37.312486151","long":"127.07946632","items":[{"name":"만빵카페","tel":"031-261-0027","addr":"경기도 용인시 수지구 성복동 68-1번지 2층","category":"일반휴게음식 - 일반한식"},{"name":"애이치 한의원","tel":"031-897-0005","addr":"경기도 용인시 수지구 성복동 68-1번지 3층","category":"의원 - 한의원"},{"name":"온누리치과","tel":"031-261-1455","addr":"경기도 용인시 수지구 성복동 68-1번지 커널유니크상가 4층 402호","category":"의원 - 치과의원"},{"name":"티&테라피","tel":"031-265-7889","addr":"경기도 용인시 수지구 성복동 68-1번지 4층","category":"일반휴게음식 - 일반한식"}]},{"lat":"37.314925948","long":"127.06768014","items":[{"name":"명품갤러리","tel":"02-6340-5385","addr":"경기도 용인시 수지구 성복동 723번지 성남마을벽산첼시빌2차아파트","category":"회원제형태 - 기타4"}]},{"lat":"37.315397359","long":"127.07804786","items":[{"name":"무노엔케이","tel":"02-2297-5000","addr":"경기도 용인시 수지구 성복동 743-3번지","category":"주방용구 - 주방용식기"},{"name":"엘리네일","tel":"031-262-9077","addr":"경기도 용인시 수지구 성복동 743-3번지 지하","category":"보건위생 - 피부미용실"},{"name":"정으로달리는자전거범바이크","tel":"031-264-3002","addr":"경기도 용인시 수지구 성복동 743-3 지하1층","category":"레져용품 - 스포츠·레져용품"}]},{"lat":"37.31617095","long":"127.06470297","items":[{"name":"물댄동산","tel":"070-4401-3455","addr":"경기도 용인시 수지구 성복동 758번지 버들치마을성복자이1차 101동 402호","category":"문화.취미 - 화원"}]},{"lat":"37.319506877","long":"127.06044121","items":[{"name":"뮤직레슨음악학원","tel":"","addr":"경기도 용인시 수지구 성복동 400-1번지 2층","category":"학원 - 예·체능계학원"},{"name":"비에이치씨치킨(BHC)성복점","tel":"031-889-9229","addr":"경기도 용인시 수지구 성복동 400-1번지 103호","category":"일반휴게음식 - 스넥"},{"name":"세탁119크린클럽","tel":"031-272-7119","addr":"경기도 용인시 수지구 성복동 400-1번지 연안빌딩 B101호","category":"수리서비스 - 세탁소"},{"name":"세탁119크린클럽","tel":"031-272-7119","addr":"경기도 용인시 수지구 성복동 400-1번지 연안빌딩 비 101호","category":"수리서비스 - 세탁소"},{"name":"족황상제 수지성복점","tel":"031-266-1982","addr":"경기도 용인시 수지구 성복동 400-1번지 102호","category":"일반휴게음식 - 일반한식"},{"name":"코어핏짐(Core Fit Gym)","tel":"070-4236-8014","addr":"경기도 용인시 수지구 성복동 400-1번지","category":"레져용품 - 스포츠·레져용품"}]},{"lat":"37.314546045","long":"127.07031955","items":[{"name":"미립 부티크","tel":"","addr":"경기도 용인시 수지구 성복동 771번지 버들치마을성복힐스테이트1차","category":"의류 - 정장"}]},{"lat":"37.313792346","long":"127.0799076","items":[{"name":"미시간에스테틱","tel":"031-266-7589","addr":"경기도 용인시 수지구 성복동 74번지 세호빌딩 201호","category":"보건위생 - 화장품"},{"name":"미시간피부과의원","tel":"031-266-7589","addr":"경기도 용인시 수지구 성복동 74번지 세호빌딩 201호","category":"의원 - 의원"},{"name":"씨갤러리","tel":"031-272-6333","addr":"경기도 용인시 수지구 성복동 74번지","category":"일반휴게음식 - 일반한식"},{"name":"연세바른신경외과의원","tel":"031-261-8922","addr":"경기도 용인시 수지구 성복동 74번지 2층","category":"의원 - 의원"}]},{"lat":"37.315784813","long":"127.07802568","items":[{"name":"밀밭","tel":"031-276-2526","addr":"경기도 용인시 수지구 성복동 743번지 1층","category":"일반휴게음식 - 일반한식"}]},{"lat":"37.316767994","long":"127.07632319","items":[{"name":"베니스통상","tel":"031-261-1668","addr":"경기도 용인시 수지구 성복동 155번지 성동마을엘지빌리지1차","category":"의류 - 정장"},{"name":"지나제이 패션아카데미","tel":"031-890-8569","addr":"경기도 용인시 수지구 성복동 155번지 성동마을 엘지빌리지1차 108동 11층 1호","category":"문화.취미 - 문화취미기타"}]},{"lat":"37.316848195","long":"127.06180423","items":[{"name":"보스토니안 커피","tel":"070-7755-1862","addr":"경기도 용인시 수지구 성복동 464-1번지","category":"일반휴게음식 - 서양음식"}]},{"lat":"37.315261919","long":"127.07849897","items":[{"name":"불타는 돼지들","tel":"031-261-6141","addr":"경기도 용인시 수지구 성복동 743-5번지 동현 지층 4호","category":"일반휴게음식 - 일반한식"},{"name":"수지코다리&시래기돌솥밥","tel":"031-264-3979","addr":"경기도 용인시 수지구 성복동 743-5번지 동현 1층","category":"일반휴게음식 - 일반한식"},{"name":"제이윤자동차외형복원","tel":"031-265-3118","addr":"경기도 용인시 수지구 성복동 743-5번지 지하1층 동동편1칸호","category":"자동차정비 유지 - 카인테리어"},{"name":"크라운쇼파천갈이","tel":"031-262-8802","addr":"경기도 용인시 수지구 성복동 743-5번지 동현 지층 3호","category":"수리서비스 - 가정용품수리"}]},{"lat":"37.322461179","long":"127.06255323","items":[{"name":"비케이엠","tel":"","addr":"경기도 용인시 수지구 성복동 780번지 용인성복아이파크","category":"문화.취미 - 화원"}]},{"lat":"37.316297818","long":"127.07892869","items":[{"name":"빈카토리","tel":"","addr":"경기도 용인시 수지구 성복동 741번지 푸른마을푸르지오","category":"의류 - 정장"}]},{"lat":"37.324705834","long":"127.06029851","items":[{"name":"서수지요양원","tel":"031-265-1188","addr":"경기도 용인시 수지구 성복동 358-3번지","category":"기타의료기관 - 기타의료기관 및 기타"},{"name":"서수지요양원","tel":"031-265-1688","addr":"경기도 용인시 수지구 성복동 358-3번지","category":"기타의료기관 - 기타의료기관 및 기타"}]},{"lat":"37.315343155","long":"127.07827343","items":[{"name":"서수지인테리어","tel":"031-262-3604","addr":"경기도 용인시 수지구 성복동 743-4번지 백야 G동 1층 3호","category":"건축자재 - 인테리어전문"},{"name":"센세이션","tel":"","addr":"경기도 용인시 수지구 성복동 743-4번지 백야","category":"의류 - 내의판매"},{"name":"오드리뷰티","tel":"031-266-3655","addr":"경기도 용인시 수지구 성복동 743-4번지 백야 가동 지층 4호","category":"보건위생 - 미용원"},{"name":"올리비안화장품","tel":"031-261-5612","addr":"경기도 용인시 수지구 성복동 743-4번지 백야 지하층 4호","category":"보건위생 - 화장품"},{"name":"중앙열쇠","tel":"031-896-0003","addr":"경기도 용인시 수지구 성복동 743-4번지 백야","category":"기타 - 기계공구"}]},{"lat":"37.322317568","long":"127.06144747","items":[{"name":"성복 I-Mart","tel":"031-266-6066","addr":"경기도 용인시 수지구 성복동 780번지 용인성복아이파크 상가동 101호","category":"유통업 영리 - 슈퍼마켓"}]},{"lat":"37.318979398","long":"127.05122373","items":[{"name":"성복가든","tel":"031-262-4694","addr":"경기도 용인시 수지구 성복동 607-2번지","category":"일반휴게음식 - 일반한식"}]},{"lat":"37.314596939","long":"127.07566678","items":[{"name":"성복골잔치국수","tel":"031-261-9811","addr":"경기도 용인시 수지구 성복동 172번지","category":"일반휴게음식 - 일반한식"}]},{"lat":"37.315180218","long":"127.07944649","items":[{"name":"성복자동차공업사","tel":"031-265-7121","addr":"경기도 용인시 수지구 성복동 745-2번지","category":"자동차정비 유지 - 자동차정비"},{"name":"엄수학교습소","tel":"","addr":"경기도 용인시 수지구 성복동 745-2번지 수초빌딩 403-1호","category":"학원 - 보습학원"}]},{"lat":"37.316372233","long":"127.07520596","items":[{"name":"세모(semo)","tel":"031-262-3356","addr":"경기도 용인시 수지구 성복동 155번지 성동마을엘지빌리지1차","category":"회원제형태 - 학원"}]},{"lat":"37.314927844","long":"127.07958161","items":[{"name":"수지갈비","tel":"031-264-9480","addr":"경기도 용인시 수지구 성복동 746-3번지 1층","category":"일반휴게음식 - 일반한식"},{"name":"아우토글라스","tel":"031-926-2216","addr":"경기도 용인시 수지구 성복동 746-3번지 세광 지층 B03,B04호","category":"자동차정비 유지 - 자동차부품"},{"name":"아트포미 미술치료교육 연구소","tel":"031-264-8825","addr":"경기도 용인시 수지구 성복동 746-3","category":"보건위생 - 기타대인서비스"}]},{"lat":"37.312899176","long":"127.08166648","items":[{"name":"수지현대써비스주식회사","tel":"031-262-8772","addr":"경기도 용인시 수지구 성복동 61-3,4","category":"자동차정비 유지 - 자동차정비"}]},{"lat":"37.315617742","long":"127.071223","items":[{"name":"순남시래기용인수지점","tel":"","addr":"경기도 용인시 수지구 성복동 168-10번지 성복서희스타힐스애비뉴 104호","category":"일반휴게음식 - 일반한식"},{"name":"원더팔레트","tel":"","addr":"경기도 용인시 수지구 성복동 168-10번지 성복서희스타힐스애비뉴 2층 204호","category":"학원 - 예·체능계학원"},{"name":"인투엠수학과학학원","tel":"02-545-0988","addr":"경기도 용인시 수지구 성복동 168-10번지 성복서희스타힐스애비뉴 217호","category":"학원 - 보습학원"},{"name":"창논술교습소","tel":"","addr":"경기도 용인시 수지구 성복동 168-10번지 성복서희스타힐스애비뉴 2층 202호","category":"학원 - 보습학원"},{"name":"커피에반하다 성복동점","tel":"031-302-2833","addr":"경기도 용인시 수지구 성복동 168-10번지 성복서희스타힐스애비뉴 109호","category":"일반휴게음식 - 서양음식"},{"name":"커피와느티나무","tel":"031-265-5135","addr":"경기도 용인시 수지구 성복동 168-10번지 성복서희스타힐스애비뉴 101호","category":"일반휴게음식 - 서양음식"},{"name":"하루비어 성복느티나무점","tel":"","addr":"경기도 용인시 수지구 성복동 168-10번지 성복서희스타힐스애비뉴 1층 103호","category":"일반휴게음식 - 주점"},{"name":"홍루이젠 수지성복점","tel":"031-306-7888","addr":"경기도 용인시 수지구 성복동 168-10번지 서희스타힐스에비뉴 201호","category":"일반휴게음식 - 스넥"}]},{"lat":"37.316674419","long":"127.06677913","items":[{"name":"스카이발레학원","tel":"","addr":"경기도 용인시 수지구 성복동 246-10번지 3층","category":"학원 - 예·체능계학원"},{"name":"스카이키즈폴(SKY KIDS POOL)","tel":"031-263-1102","addr":"경기도 용인시 수지구 성복동 246-10번지 B2,B3층","category":"레저업소 - 수 영 장"},{"name":"위아카데미학원","tel":"031-263-1102","addr":"경기도 용인시 수지구 성복동 246-10번지 교육연구시설주건축물 1동 2호","category":"학원 - 외국어학원"},{"name":"키즈애듀플렉스학원","tel":"031-263-1102","addr":"경기도 용인시 수지구 성복동 246-10번지","category":"학원 - 보습학원"}]},{"lat":"37.316674242","long":"127.06710629","items":[{"name":"스카이스포츠","tel":"","addr":"경기도 용인시 수지구 성복동 246-1번지 외1필지","category":"학원 - 기타 교육기관"}]},{"lat":"37.315955714","long":"127.06273987","items":[{"name":"스타일앤디","tel":"","addr":"경기도 용인시 수지구 성복동 753번지 버들치마을경남아너스빌1차 100동 105호","category":"보건위생 - 화장품"}]},{"lat":"37.317480246","long":"127.07560187","items":[{"name":"씨티에스","tel":"031-263-5822","addr":"경기도 용인시 수지구 성복동 155번지 성동마을엘지빌리지1차 111동 1601호","category":"사무통신 - 컴퓨터"}]},{"lat":"37.314735605","long":"127.06971055","items":[{"name":"아로마바이현","tel":"070-8885-8522","addr":"경기도 용인시 수지구 성복동 771번지 버들치마을성복힐스테이트1차 104동 201호","category":"신변잡화 - 기타잡화"}]},{"lat":"37.314331051","long":"127.06808574","items":[{"name":"아미쿠스","tel":"070-4192-0402","addr":"경기도 용인시 수지구 성복동 723번지 성남마을벽산첼시빌2차아파트","category":"의류 - 정장"}]},{"lat":"37.322696538","long":"127.06034211","items":[{"name":"안진솔홈트레이닝","tel":"070-5567-2076","addr":"경기도 용인시 수지구 성복동 780번지 용인성복아이파크","category":"레저업소 - 헬스클럽"}]},{"lat":"37.315649695","long":"127.07796914","items":[{"name":"앙뜨와넷","tel":"","addr":"경기도 용인시 수지구 성복동 743-1번지","category":"의류 - 정장"},{"name":"옥수수공방(손끝으로꾸는꿈)","tel":"031-8068-1471","addr":"경기도 용인시 수지구 성복동 743-1번지 103호","category":"문화.취미 - 문화취미기타"},{"name":"코너(CORNER)","tel":"","addr":"경기도 용인시 수지구 성복동 743-1번지 지하1층 104호","category":"일반휴게음식 - 서양음식"}]},{"lat":"37.314649883","long":"127.0774605","items":[{"name":"애니안","tel":"02-558-1061","addr":"경기도 용인시 수지구 성복동 84번지 강남빌리지 105동 1203호","category":"의류 - 정장"}]},{"lat":"37.316704071","long":"127.06172514","items":[{"name":"양샘수학학원","tel":"031-265-5604","addr":"경기도 용인시 수지구 성복동 464-3번지 2층","category":"학원 - 보습학원"},{"name":"윤선생IGSE아카데미 용인성복학원","tel":"","addr":"경기도 용인시 수지구 성복동 464-3번지 3층","category":"학원 - 외국어학원"},{"name":"짬뽕나라","tel":"031-265-0202","addr":"경기도 용인시 수지구 성복동 464-3번지 버들치상가 1층","category":"일반휴게음식 - 중국식"}]},{"lat":"37.324483309","long":"127.05436377","items":[{"name":"에그앤올리브","tel":"031-266-1585","addr":"경기도 용인시 수지구 성복동 557-5번지 지하1층","category":"일반휴게음식 - 서양음식"}]},{"lat":"37.318191244","long":"127.06073353","items":[{"name":"에스앤피","tel":"070-7733-5262","addr":"경기도 용인시 수지구 성복동 767번지 버들치마을성복자이2차 207동 1301호","category":"전기제품 - 가전제품"}]},{"lat":"37.318466966","long":"127.06767189","items":[{"name":"에어소프트건코리아(ASGK)","tel":"070-8733-1911","addr":"경기도 용인시 수지구 성복동 752번지 성동마을수지자이1차","category":"서적문구 - 완구점"}]},{"lat":"37.31432938","long":"127.07105262","items":[{"name":"에이치와이씨(HYC)컨설팅","tel":"070-4211-1455","addr":"경기도 용인시 수지구 성복동 771번지 버들치마을성복힐스테이트1차","category":"회원제형태 - 기타4"}]},{"lat":"37.315036222","long":"127.07918688","items":[{"name":"엘레강떼","tel":"031-272-3588","addr":"경기도 용인시 수지구 성복동 746-1번지 동원 B02호","category":"의류 - 정장"},{"name":"오토챠밍","tel":"031-284-8245","addr":"경기도 용인시 수지구 성복동 746-1번지 B03 B04호","category":"자동차정비 유지 - 카인테리어"},{"name":"진짜순대","tel":"031-276-4563","addr":"경기도 용인시 수지구 성복동 746-1번지 동원 1층","category":"일반휴게음식 - 일반한식"}]},{"lat":"37.322010343","long":"127.06319595","items":[{"name":"예레브","tel":"","addr":"경기도 용인시 수지구 성복동 760번지 버들치마을성복힐스테이트3차 305동 1104호","category":"의류 - 기타의류"}]},{"lat":"37.31556841","long":"127.07827365","items":[{"name":"오토스타일(레이노 성복점)","tel":"","addr":"경기도 용인시 수지구 성복동 744번지 지층","category":"자동차정비 유지 - 카인테리어"}]},{"lat":"37.319344879","long":"127.06005751","items":[{"name":"원타임","tel":"031-263-0051","addr":"경기도 용인시 수지구 성복동 398-9번지","category":"유통업 영리 - 슈퍼마켓"}]},{"lat":"37.317823234","long":"127.05777751","items":[{"name":"웬즈데이 블루(Wednesday Blue)","tel":"070-4238-3248","addr":"경기도 용인시 수지구 성복동 767번지 버들치마을성복자이2차 210동 702호","category":"신변잡화 - 기타잡화"}]},{"lat":"37.321064818","long":"127.06211213","items":[{"name":"웰아이(Well I)","tel":"031-266-5980","addr":"경기도 용인시 수지구 성복동 760번지 버들치마을성복힐스테이트3차 302동 604호","category":"보건위생 - 화장품"}]},{"lat":"37.32150268","long":"127.06898321","items":[{"name":"유나이티드","tel":"02-2138-0075","addr":"경기도 용인시 수지구 성복동 752번지 성동마을수지자이1차","category":"건강식품 - 기타건강식품"}]},{"lat":"37.323453684","long":"127.05974472","items":[{"name":"유니버셜카페 수지점","tel":"0507-1380-3355","addr":"경기도 용인시 수지구 성복동 359-3번지 101호","category":"일반휴게음식 - 서양음식"},{"name":"주식회사 하이보","tel":"031-264-9966","addr":"경기도 용인시 수지구 성복동 359-3번지","category":"일반휴게음식 - 중국식"},{"name":"홍익돈까스","tel":"031-264-6221","addr":"경기도 용인시 수지구 성복동 359-3번지","category":"일반휴게음식 - 일반한식"}]},{"lat":"37.318011744","long":"127.0757716","items":[{"name":"유어뮤지움 (Your Museum)","tel":"031-000-0000","addr":"경기도 용인시 수지구 성복동 155번지 성동마을엘지빌리지1차","category":"문화.취미 - 화랑"}]},{"lat":"37.315334027","long":"127.06270553","items":[{"name":"유퍼스트코리아","tel":"031-765-5347","addr":"경기도 용인시 수지구 성복동 753 버들치마을경남아너스빌 1 102-1102 18/","category":"유통업 영리 - 기타유통업"}]},{"lat":"37.317484581","long":"127.06816743","items":[{"name":"유화산업","tel":"031-263-6181","addr":"경기도 용인시 수지구 성복동 289-5번지","category":"보건위생 - 의료용품"}]},{"lat":"37.3184286","long":"127.0540212","items":[{"name":"이거이뻐","tel":"031-263-7914","addr":"경기도 용인시 수지구 성복동 532-3번지","category":"의류 - 정장"}]},{"lat":"37.318896185","long":"127.05616502","items":[{"name":"이레숲카페","tel":"031-111-1111","addr":"경기도 용인시 수지구 성복동 522-1번지 A동 1층","category":"일반휴게음식 - 서양음식"}]},{"lat":"37.318787736","long":"127.05688696","items":[{"name":"이레체험센터","tel":"031-262-5977","addr":"경기도 용인시 수지구 성복동 520-3번지","category":"학원 - 기타 교육기관"}]},{"lat":"37.315675604","long":"127.07971774","items":[{"name":"이룸교육","tel":"031-897-9115","addr":"경기도 용인시 수지구 성복동 741번지 푸른마을푸르지오","category":"서적문구 - 일반서적"}]},{"lat":"37.321344016","long":"127.06234927","items":[{"name":"이으뜸프로골퍼","tel":"070-4139-6262","addr":"경기도 용인시 수지구 성복동 760번지 버들치마을성복힐스테이트3차 304동 1903호","category":"레저업소 - 골프연습장"}]},{"lat":"37.322621703","long":"127.04555113","items":[{"name":"일조원","tel":"031-263-7773","addr":"경기도 용인시 수지구 성복동 641-17번지","category":"일반휴게음식 - 일반한식"}]},{"lat":"37.311507552","long":"127.07382508","items":[{"name":"자연유치원","tel":"031-262-7783","addr":"경기도 용인시 수지구 성복동 209-3번지","category":"학원 - 유치원"}]},{"lat":"37.322982188","long":"127.04533697","items":[{"name":"장수촌","tel":"031-266-1117","addr":"경기도 용인시 수지구 성복동 641-1번지","category":"일반휴게음식 - 일반한식"}]},{"lat":"37.3190134","long":"127.07325677","items":[{"name":"전성원 잭니클라우스","tel":"031-705-6202","addr":"경기도 용인시 수지구 성복동 726번지 성동마을LG빌리지3차313-1801","category":"회원제형태 - 레져업소"}]},{"lat":"37.312702","long":"127.0800757","items":[{"name":"정구찬갤러리","tel":"031-897-0056","addr":"경기도 용인시 수지구 성복동 63-1번지 미도부동산 101호","category":"문화.취미 - 화랑"}]},{"lat":"37.314620225","long":"127.06652921","items":[{"name":"제제(ZeZe)","tel":"070-7556-0002","addr":"경기도 용인시 수지구 성복동 723번지 성남마을벽산첼시빌2차아파트","category":"의류 - 정장"}]},{"lat":"37.32436625","long":"127.05419446","items":[{"name":"주식회사 레지오교육연구센터","tel":"031-262-8800","addr":"경기도 용인시 수지구 성복동 557-4번지 지하1층","category":"서적문구 - 기타서적문구"},{"name":"주식회사 레지오뚜띠","tel":"031-262-8830","addr":"경기도 용인시 수지구 성복동 557-4번지 1층","category":"학원 - 외국어학원"}]},{"lat":"37.319094632","long":"127.05566877","items":[{"name":"주식회사 탑스포츠클럽","tel":"031-266-7727","addr":"경기도 용인시 수지구 성복동 526-1번지","category":"학원 - 예·체능계학원"}]},{"lat":"37.319283512","long":"127.05641349","items":[{"name":"주식회사CKS","tel":"031-276-6999","addr":"경기도 용인시 수지구 성복동 525-1번지","category":"자동차정비 유지 - 자동차정비"}]},{"lat":"37.319115867","long":"127.06736785","items":[{"name":"주식회사레몬하우스","tel":"070-7553-0369","addr":"경기도 용인시 수지구 성복동 762번지 성동마을수지자이 201동 102호","category":"회원제형태 - 기타4"},{"name":"츄쿠츄(chucuchu)","tel":"","addr":"경기도 용인시 수지구 성복동 762번지 성동마을수지자이2차","category":"의류 - 정장"}]},{"lat":"37.315512242","long":"127.06651868","items":[{"name":"지미텍","tel":"031-304-9199","addr":"경기도 용인시 수지구 성복동 723번지 벽산성남마을 507동 1602호","category":"회원제형태 - 기타4"}]},{"lat":"37.319651497","long":"127.05949366","items":[{"name":"진갤러리","tel":"031-263-0746","addr":"경기도 용인시 수지구 성복동 393-41번지","category":"문화.취미 - 화랑"}]},{"lat":"37.316825123","long":"127.07120153","items":[{"name":"책보다","tel":"070-7766-2592","addr":"경기도 용인시 수지구 성복동 726번지 성동마을엘지빌리지3차 303동 103호","category":"서적문구 - 출판 및 인쇄물"}]},{"lat":"37.318896802","long":"127.05477738","items":[{"name":"처갓집보리밥","tel":"031-266-1118","addr":"경기도 용인시 수지구 성복동 534-1번지","category":"일반휴게음식 - 일반한식"}]},{"lat":"37.322846998","long":"127.04543843","items":[{"name":"초코랩(choco Lab)/코코몰리","tel":"070-8874-0714","addr":"경기도 용인시 수지구 성복동 641-2번지","category":"일반휴게음식 - 서양음식"}]},{"lat":"37.318175851","long":"127.05508149","items":[{"name":"카페메르헨","tel":"031-263-7230","addr":"경기도 용인시 수지구 성복동 523번지 1층","category":"일반휴게음식 - 서양음식"}]},{"lat":"37.31937223","long":"127.05939192","items":[{"name":"커피철공소","tel":"031-262-6079","addr":"경기도 용인시 수지구 성복동 397번지","category":"일반휴게음식 - 서양음식"}]},{"lat":"37.318496712","long":"127.06250497","items":[{"name":"클랍 안티에이징 스튜디오","tel":"031-8002-5811","addr":"경기도 용인시 수지구 성복동 759번지 버들치마을성복힐스테이트2차 208동 2004호","category":"보건위생 - 화장품"}]},{"lat":"37.324507703","long":"127.06010655","items":[{"name":"태양유통","tel":"","addr":"경기도 용인시 수지구 성복동 358-4번지","category":"문화.취미 - 애완동물"}]},{"lat":"37.323652156","long":"127.05922588","items":[{"name":"테라스토리/주식회사 토리아이앤디","tel":"031-272-7552","addr":"경기도 용인시 수지구 성복동 570-11번지","category":"일반휴게음식 - 일반한식"},{"name":"파리봉강아지 미용실","tel":"031-265-8201","addr":"경기도 용인시 수지구 성복동 570-11번지","category":"문화.취미 - 애완동물"}]},{"lat":"37.317094331","long":"127.05574634","items":[{"name":"티제이우드","tel":"070-4789-2381","addr":"경기도 용인시 수지구 성복동 510-4번지","category":"건축자재 - 목재·석재·철물"}]},{"lat":"37.31950659","long":"127.06102786","items":[{"name":"파스쿠찌수지성복점","tel":"031-262-8497","addr":"경기도 용인시 수지구 성복동 401번지 1층","category":"일반휴게음식 - 서양음식"}]},{"lat":"37.319651373","long":"127.05975314","items":[{"name":"팔표테크노","tel":"031-276-5782","addr":"경기도 용인시 수지구 성복동 393-42번지","category":"기타 - 기계공구"}]},{"lat":"37.316898936","long":"127.06813308","items":[{"name":"프라자미용실","tel":"031-272-8955","addr":"경기도 용인시 수지구 성복동 276-1 외4필지벽산프라자상가 2층 205호","category":"보건위생 - 미용원"}]},{"lat":"37.318792713","long":"127.06509997","items":[{"name":"피치에듀케이션 (PEACH Education)","tel":"","addr":"경기도 용인시 수지구 성복동 759번지 버들치마을성복힐스테이트2차 205동 802호","category":"학원 - 기타 교육기관"}]},{"lat":"37.32229066","long":"127.06119924","items":[{"name":"한국시스템","tel":"02-383-9600","addr":"경기도 용인시 수지구 성복동 780번지 용인성복아이파크 103동 901호","category":"회원제형태 - 기타4"}]},{"lat":"37.314170304","long":"127.06542331","items":[{"name":"한국에너하임 서비스센터","tel":"070-4686-9412","addr":"경기도 용인시 수지구 성복동 723번지 성남마을벽산첼시빌2차아파트","category":"주방용구 - 주방용구"}]},{"lat":"37.312551489","long":"127.07587914","items":[{"name":"한국파워텍","tel":"070-7868-8336","addr":"경기도 용인시 수지구 성복동 90 성동마을엘지빌리지2차 206-304 9/","category":"회원제형태 - 기타3"}]},{"lat":"37.31399655","long":"127.07009345","items":[{"name":"한아름","tel":"031-237-6585","addr":"경기도 용인시 수지구 성복동 771번지 버들치마을성복힐스테이트1차 108동 201호","category":"보건위생 - 화장품"}]},{"lat":"37.31494466","long":"127.0664054","items":[{"name":"해피스누펫","tel":"031-265-7547","addr":"경기도 용인시 수지구 성복동 723번지 성남마을벽산첼시빌2차아파트","category":"문화.취미 - 애완동물"}]}]