[{"lat":"37.070464354","long":"127.40064024","imageIndex":4,"items":[{"name":"나주집 나주곰탕","tel":"031-676-0855","addr":"경기도 안성시 죽산면 두현리 547-4번지","indutype":"일반휴게음식 - 일반한식","category":"restaurant"}]},{"lat":"37.072659318","long":"127.40438503","imageIndex":4,"items":[{"name":"동해  동태탕","tel":"031-677-6256","addr":"경기도 안성시 죽산면 두현리 305-3번지 1층","indutype":"일반휴게음식 - 일반한식","category":"restaurant"},{"name":"바다양푼이동태탕안성죽산점","tel":"031-677-6256","addr":"경기도 안성시 죽산면 두현리 305-3번지","indutype":"일반휴게음식 - 일반한식","category":"restaurant"}]},{"lat":"37.071074569","long":"127.40138558","imageIndex":4,"items":[{"name":"민상이네코다리조림","tel":"031-675-0321","addr":"경기도 안성시 죽산면 두현리 524번지 1동 1층","indutype":"일반휴게음식 - 일반한식","category":"restaurant"}]},{"lat":"37.073460549","long":"127.40724551","imageIndex":4,"items":[{"name":"쇠고개식당","tel":"031-675-3082","addr":"경기도 안성시 죽산면 두현리 337-4번지","indutype":"일반휴게음식 - 일반한식","category":"restaurant"}]},{"lat":"37.072272565","long":"127.41469457","imageIndex":4,"items":[{"name":"원조생선조림.동태탕","tel":"031-677-0416","addr":"경기도 안성시 죽산면 두현리 87-13번지 1층","indutype":"일반휴게음식 - 일반한식","category":"restaurant"},{"name":"원조생선조림.동태탕","tel":"031-677-0416","addr":"경기도 안성시 죽산면 두현리 87-13번지","indutype":"일반휴게음식 - 일반한식","category":"restaurant"}]}]