[{"lat":"37.985653718","long":"127.23718792","imageIndex":17,"items":[{"name":"(주)푸른들","tel":"031-535-6676","addr":"경기도 포천시 영중면 거사리 241-6번지","indutype":"기타 - 기계공구","category":"other"}]},{"lat":"37.99348676","long":"127.23512954","imageIndex":17,"items":[{"name":"계남텍스","tel":"031-111-1111","addr":"경기도 포천시 영중면 거사리 354번지","indutype":"직물 - 옷감·직물","category":"other"}]},{"lat":"37.976296047","long":"127.2264596","imageIndex":17,"items":[{"name":"대한불교조계종 마태사","tel":"","addr":"경기도 포천시 영중면 거사리 851-1번지","indutype":"기타 - 비영리/대상","category":"other"}]},{"lat":"38.002704299","long":"127.22990987","imageIndex":17,"items":[{"name":"로아시스템","tel":"","addr":"경기도 포천시 영중면 거사리 511-6번지","indutype":"가구 - 기타가구","category":"other"}]},{"lat":"37.97673931","long":"127.24379501","imageIndex":17,"items":[{"name":"숲속의대장간","tel":"031-534-1576","addr":"경기도 포천시 영중면 거사리 90번지","indutype":"농업 - 농기계","category":"other"}]},{"lat":"37.973323804","long":"127.24429599","imageIndex":17,"items":[{"name":"큐브광고","tel":"050-5775-5050","addr":"경기도 포천시 영중면 거사리 61번지 102호","indutype":"용역 서비스 - 사무서비스","category":"other"}]},{"lat":"37.989264005","long":"127.23838328","imageIndex":17,"items":[{"name":"하네뜨","tel":"070-4177-9066","addr":"경기도 포천시 영중면 거사리 328-2번지","indutype":"제조업 - 유제품가공.체험","category":"other"}]},{"lat":"37.986373175","long":"127.23782766","imageIndex":5,"items":[{"name":"거사울펜션","tel":"","addr":"경기도 포천시 영중면 거사리 242번지 1층","indutype":"숙박업 - 여관/기타숙박업","category":"hotel"}]},{"lat":"38.004489168","long":"127.22463236","imageIndex":7,"items":[{"name":"시골농장","tel":"031-535-1292","addr":"경기도 포천시 영중면 거사리 978-4번지","indutype":"음료식품 - 농·축·수산품","category":"food"}]},{"lat":"37.988732855","long":"127.23818807","imageIndex":7,"items":[{"name":"하네뜨","tel":"031-533-9066","addr":"경기도 포천시 영중면 거사리 328-4","indutype":"음료식품 - 기타음료식품","category":"food"}]}]