[{"lat":"37.176389676","long":"127.02614595","items":[{"name":"(주)동광레이저","tel":"031-352-8599","addr":"경기도 오산시 지곶동 269-3번지","category":"건축자재 - 목재·석재·철물"},{"name":"주식회사 동광레이저","tel":"031-352-8599","addr":"경기도 오산시 지곶동 269-3번지","category":"건축자재 - 목재·석재·철물"}]},{"lat":"37.175164236","long":"127.02625817","items":[{"name":"(주)플러스에이","tel":"031-8043-0235","addr":"경기도 오산시 지곶동 269-15번지 1층","category":"전기제품 - 기타전기제품"}]},{"lat":"37.168469281","long":"127.02725818","items":[{"name":"1988추억의통닭 지곶점","tel":"031-378-1987","addr":"경기도 오산시 지곶동 577번지 e편한세상 123호","category":"일반휴게음식 - 스넥"},{"name":"GS25세교대림점","tel":"","addr":"경기도 오산시 지곶동 577번지 e편한세상오산세교근린생활시설 1층 133~134호","category":"유통업 영리 - 편 의 점"},{"name":"e-편한어린이집[아이행복]","tel":"070-4065-7305","addr":"경기도 오산시 지곶동 577번지 e편한세상 104동 104호","category":"학원 - 유아원"},{"name":"e편한축산","tel":"031-373-0711","addr":"경기도 오산시 지곶동 577번지 e편한세상 122호","category":"음료식품 - 정육점"},{"name":"가문의족발","tel":"031-373-0304","addr":"경기도 오산시 지곶동 577번지 e편한세상 단지내 상가 B103호","category":"일반휴게음식 - 일반한식"},{"name":"개인과외","tel":"031-111-1111","addr":"경기도 오산시 지곶동 577번지 e편한세상 118동 102호","category":"학원 - 기타 교육기관"},{"name":"개인과외","tel":"070-4686-9412","addr":"경기도 오산시 지곶동 577번지 세교e편한세상 113동 102호","category":"학원 - 기타 교육기관"},{"name":"경성술집지곶점","tel":"070-5121-6771","addr":"경기도 오산시 지곶동 577번지 e편한세상 1층 101호","category":"일반휴게음식 - 주점"},{"name":"김밥속으로지곶점","tel":"031-372-8551","addr":"경기도 오산시 지곶동 577번지 e편한세상 130호","category":"일반휴게음식 - 스넥"},{"name":"다원쥬얼리","tel":"","addr":"경기도 오산시 지곶동 577번지 e편한세상오산세교 120호","category":"신변잡화 - 액세서리"},{"name":"대림천사어린이집[아이행복]","tel":"031-8058-3800","addr":"경기도 오산시 지곶동 577번지 e편한세상 106동 103호","category":"학원 - 유아원"},{"name":"대림퍼스트 공부방","tel":"","addr":"경기도 오산시 지곶동 577번지 e편한세상 112동 302호","category":"학원 - 기타 교육기관"},{"name":"도담약국","tel":"031-373-5852","addr":"경기도 오산시 지곶동 577번지 e편한세상 단지내상가 218호,219호","category":"약국 - 약국"},{"name":"드림중문/리모델링","tel":"031-8050-6001","addr":"경기도 오산시 지곶동 577번지 e편한세상 111동 1303호","category":"건축자재 - 인테리어전문"},{"name":"마므레","tel":"02-1234-1234","addr":"경기도 오산시 지곶동 577번지 e편한세상 상가동 128호","category":"음료식품 - 제과점"},{"name":"마약먹태 지곶점","tel":"031-376-9222","addr":"경기도 오산시 지곶동 577번지 e편한세상 1층 102호","category":"일반휴게음식 - 주점"},{"name":"맑은하늘디자인","tel":"","addr":"경기도 오산시 지곶동 577번지 e편한세상 112동 402호","category":"문화.취미 - 화원"},{"name":"메이릴리","tel":"","addr":"경기도 오산시 지곶동 577번지 e편한세상 110동 2층 4호","category":"신변잡화 - 액세서리"},{"name":"뮤엠대림영어교습소","tel":"031-273-0560","addr":"경기도 오산시 지곶동 577번지 e편한세상 상가 216호","category":"학원 - 외국어학원"},{"name":"별수아그림책어린이집[아이행복]","tel":"031-375-7801","addr":"경기도 오산시 지곶동 577번지 e편한세상 107동 102호","category":"학원 - 유아원"},{"name":"사랑담은 아로마 테라피","tel":"","addr":"경기도 오산시 지곶동 577번지 e편한세상 1층 111호","category":"보건위생 - 화장품"},{"name":"세교이편한치과의원","tel":"031-373-3391","addr":"경기도 오산시 지곶동 577번지 e편한세상 단지 상가동 2층 213호","category":"의원 - 치과의원"},{"name":"세마지앤비(GnB)영어교습소","tel":"070-4711-8059","addr":"경기도 오산시 지곶동 577번지 e편한세상 205호","category":"학원 - 외국어학원"},{"name":"세븐일레븐오산세교대림점","tel":"031-1577-0711","addr":"경기도 오산시 지곶동 577번지 오산세교 e편한세상 근린시설상가동 116호,117호","category":"유통업 영리 - 편 의 점"},{"name":"속시원한수선","tel":"031-377-7174","addr":"경기도 오산시 지곶동 577번지 e편한세상단지내상가 1층 115호","category":"수리서비스 - 세탁소"},{"name":"쇼팽음악학원","tel":"031-373-7995","addr":"경기도 오산시 지곶동 577번지 e편한세상 2층 203,204일부호","category":"학원 - 예·체능계학원"},{"name":"시립한아름어린이집[아이행복]","tel":"031-373-3365","addr":"경기도 오산시 지곶동 577번지 e편한세상","category":"학원 - 유아원"},{"name":"아소비","tel":"031-663-0447","addr":"경기도 오산시 지곶동 577번지 세교e-편한세상 121동 802호","category":"학원 - 기타 교육기관"},{"name":"아이스크림","tel":"070-7423-6603","addr":"경기도 오산시 지곶동 577번지 e편한세상 125호","category":"음료식품 - 기타음료식품"},{"name":"애기똥풀어린이집[아이행복]","tel":"031-376-9805","addr":"경기도 오산시 지곶동 577번지 e편한세상 105동 101호","category":"학원 - 유아원"},{"name":"오가네칼국수","tel":"031-373-5178","addr":"경기도 오산시 지곶동 577번지 이편한세상오산세교 근린생활시설 118호","category":"일반휴게음식 - 일반한식"},{"name":"용인대 박사 태권도장","tel":"031-376-4655","addr":"경기도 오산시 지곶동 577번지 e편한세상 단지내상가 212호","category":"학원 - 예·체능계학원"},{"name":"우리동네포차","tel":"","addr":"경기도 오산시 지곶동 577번지 e편한세상 상가동 113호","category":"일반휴게음식 - 일반한식"},{"name":"이은숙","tel":"","addr":"경기도 오산시 지곶동 577번지 e편한세상 112동 1301호","category":"학원 - 기타 교육기관"},{"name":"이한올과외","tel":"","addr":"경기도 오산시 지곶동 577번지 e편한세상 117동 402호","category":"학원 - 기타 교육기관"},{"name":"잉글리시아이 세교이편한세상점","tel":"","addr":"경기도 오산시 지곶동 577번지 e편한세상 105동 702호","category":"학원 - 기타 교육기관"},{"name":"정짬뽕","tel":"031-000-0000","addr":"경기도 오산시 지곶동 577번지 e편한세상 132호","category":"일반휴게음식 - 중국식"},{"name":"제이스타","tel":"031-000-0000","addr":"경기도 오산시 지곶동 577번지 세교e편한세상 상가 107호","category":"보건위생 - 미용원"},{"name":"제이영헤어","tel":"","addr":"경기도 오산시 지곶동 577번지 e편한세상 상가동 106호","category":"보건위생 - 미용원"},{"name":"지수영과외","tel":"","addr":"경기도 오산시 지곶동 577번지 e편한세상 117동 402호","category":"학원 - 기타 교육기관"},{"name":"찬찬찬","tel":"031-377-7931","addr":"경기도 오산시 지곶동 577번지 e편한세상 109호","category":"음료식품 - 기타음료식품"},{"name":"태광서비스","tel":"","addr":"경기도 오산시 지곶동 577번지 e편한세상 111동 501호","category":"수리서비스 - 가정용품수리"},{"name":"태후사랑헤어샵지곶점","tel":"","addr":"경기도 오산시 지곶동 577번지 e편한세상 207호","category":"보건위생 - 미용재료"},{"name":"투다리 지곶점","tel":"070-7543-9743","addr":"경기도 오산시 지곶동 577번지 e편한세상 124호","category":"일반휴게음식 - 일반한식"},{"name":"프라이머리","tel":"031-374-8776","addr":"경기도 오산시 지곶동 577번지 지곡동e편한세상 120호","category":"보건위생 - 미용원"},{"name":"피아트(fiat)","tel":"","addr":"경기도 오산시 지곶동 577번지 e편한세상 118동 2202호","category":"직물 - 카페트,커튼,천막,지물"},{"name":"햇살머믄꼬마김밥","tel":"031-378-7897","addr":"경기도 오산시 지곶동 577번지 e편한세상 108호","category":"일반휴게음식 - 스넥"},{"name":"형설수학교습소","tel":"031-8043-3204","addr":"경기도 오산시 지곶동 577번지 e편한세상 상가동 206호","category":"학원 - 보습학원"}]},{"lat":"37.178470975","long":"127.02669836","items":[{"name":"J.Hcommunication","tel":"031-372-8592","addr":"경기도 오산시 지곶동 250번지","category":"용역 서비스 - 종합용역"},{"name":"노다지상사","tel":"031-372-2693","addr":"경기도 오산시 지곶동 250번지 202호","category":"가구 - 기타가구"},{"name":"부민상사","tel":"031-8003-2685","addr":"경기도 오산시 지곶동 250번지","category":"건축자재 - 기타건축자재"}]},{"lat":"37.177027401","long":"127.03480545","items":[{"name":"KH에너지(주)직영오산주유소(과천방향)","tel":"031-378-5258","addr":"경기도 오산시 지곶동 58-1외39필지","category":"연료판매점 - SK주유소"}]},{"lat":"37.175080488","long":"127.03716928","items":[{"name":"KH에너지(주)직영오산주유소(동탄방향)","tel":"031-375-5157","addr":"경기도 오산시 지곶동 산51-9 외35필지","category":"연료판매점 - SK주유소"},{"name":"KH에너지(주)직영오산충전소(동탄방향)","tel":"031-376-5158","addr":"경기도 오산시 지곶동 산 51-9 외35필지","category":"연료판매점 - SK가스충전소"}]},{"lat":"37.178558952","long":"127.03561687","items":[{"name":"KH에너지(주)직영오산충전소(과천방향)","tel":"031-377-5259","addr":"경기도 오산시 지곶동 산 58-1 외39필지","category":"연료판매점 - SK가스충전소"}]},{"lat":"37.172975236","long":"127.02336371","items":[{"name":"거영주방","tel":"031-373-7964","addr":"경기도 오산시 지곶동 462","category":"주방용구 - 주방용구"}]},{"lat":"37.181750034","long":"127.03011153","items":[{"name":"고집에살어리랏다","tel":"031-373-8510","addr":"경기도 오산시 지곶동 24-2번지","category":"일반휴게음식 - 일반한식"}]},{"lat":"37.181443868","long":"127.02927809","items":[{"name":"고향유통","tel":"031-377-5319","addr":"경기도 오산시 지곶동 32-2번지 1층","category":"음료식품 - 기타음료식품"}]},{"lat":"37.179551968","long":"127.02794865","items":[{"name":"곤지암할매소머리국밥","tel":"031-376-5988","addr":"경기도 오산시 지곶동 87-2번지 1층","category":"일반휴게음식 - 일반한식"},{"name":"주식회사 삼정물류","tel":"032-1899-2880","addr":"경기도 오산시 지곶동 87-2번지 2층","category":"사무통신 - 기타 사무용품"}]},{"lat":"37.177777341","long":"127.02584234","items":[{"name":"골프존파크 세마독산성골프","tel":"031-376-2911","addr":"경기도 오산시 지곶동 257번지 2층","category":"레저업소 - 스크린골프"},{"name":"송탄부대찌개","tel":"031-373-7521","addr":"경기도 오산시 지곶동 257번지 1층","category":"일반휴게음식 - 일반한식"},{"name":"아리아레스토랑","tel":"031-375-0355","addr":"경기도 오산시 지곶동 257번지 1층","category":"일반휴게음식 - 서양음식"}]},{"lat":"37.18172342","long":"127.0282309","items":[{"name":"국가대표영양탕삼계탕","tel":"031-376-8945","addr":"경기도 오산시 지곶동 99번지","category":"일반휴게음식 - 일반한식"}]},{"lat":"37.178857832","long":"127.02947989","items":[{"name":"귀례정","tel":"031-375-9989","addr":"경기도 오산시 지곶동 83번지","category":"일반휴게음식 - 일반한식"}]},{"lat":"37.176192411","long":"127.02056075","items":[{"name":"금호식당","tel":"031-1111-1111","addr":"경기도 오산시 지곶동 373-1번지","category":"일반휴게음식 - 일반한식"}]},{"lat":"37.177056327","long":"127.02675422","items":[{"name":"니드포펫 (NEED FOR PET)","tel":"","addr":"경기도 오산시 지곶동 260-12번지","category":"문화.취미 - 애완동물"}]},{"lat":"37.178055709","long":"127.03033541","items":[{"name":"다솔주방가구","tel":"031-245-2455","addr":"경기도 오산시 지곶동 79-16번지","category":"주방용구 - 주방용구"}]},{"lat":"37.177723042","long":"127.02703594","items":[{"name":"대덕공방(우드아뜰리에)","tel":"070-8807-0322","addr":"경기도 오산시 지곶동 260-8번지 1층","category":"문화.취미 - 문화취미기타"}]},{"lat":"37.170918757","long":"127.03317025","items":[{"name":"대성이엔에프(주)","tel":"031-378-0222","addr":"경기도 오산시 지곶동 514-24번지","category":"건축자재 - 기타건축자재"}]},{"lat":"37.178027756","long":"127.03406267","items":[{"name":"대영다이아몬드","tel":"031-372-4434","addr":"경기도 오산시 지곶동 69-6번지","category":"기타 - 기계공구"}]},{"lat":"37.178579172","long":"127.02633805","items":[{"name":"대운주유소","tel":"031-372-0080","addr":"경기도 오산시 지곶동 249-1번지","category":"연료판매점 - SK주유소"}]},{"lat":"37.177723551","long":"127.0243897","items":[{"name":"대창기계서비스","tel":"031-377-6931","addr":"경기도 오산시 지곶동 265-2번지","category":"기타 - 기계공구"},{"name":"두산테크","tel":"031-377-6532","addr":"경기도 오산시 지곶동 265-2번지","category":"기타 - 기계공구"}]},{"lat":"37.183662208","long":"127.01948139","items":[{"name":"대한불교조계종보적사","tel":"031-372-3433","addr":"경기도 오산시 지곶동 150번지","category":"기타 - 비영리/대상"}]},{"lat":"37.179166387","long":"127.01650755","items":[{"name":"덕담오리","tel":"031-372-3212","addr":"경기도 오산시 지곶동 344번지","category":"일반휴게음식 - 스넥"},{"name":"선녀와나뭇꾼","tel":"031-372-2440","addr":"경기도 오산시 지곶동 344번지","category":"일반휴게음식 - 일반한식"}]},{"lat":"37.176831864","long":"127.02239635","items":[{"name":"도르프커피","tel":"031-374-2891","addr":"경기도 오산시 지곶동 289-1번지","category":"일반휴게음식 - 서양음식"}]},{"lat":"37.180218811","long":"127.02761104","items":[{"name":"독산성노래연습장","tel":"031-375-6266","addr":"경기도 오산시 지곶동 96번지 2층","category":"레저업소 - 노 래 방"},{"name":"산풀들풀","tel":"031-375-0650","addr":"경기도 오산시 지곶동 96번지","category":"일반휴게음식 - 일반한식"}]},{"lat":"37.179804324","long":"127.02764469","items":[{"name":"독산성산자락","tel":"031-373-6692","addr":"경기도 오산시 지곶동 88-1번지","category":"일반휴게음식 - 일반한식"},{"name":"독산성산자락정육","tel":"031-373-6692","addr":"경기도 오산시 지곶동 88-1번지 1층","category":"음료식품 - 정육점"}]},{"lat":"37.17916452","long":"127.02794853","items":[{"name":"독산성실내포차","tel":"031-374-9287","addr":"경기도 오산시 지곶동 86-4번지 삼성공인중개사 2동 1호","category":"일반휴게음식 - 일반한식"},{"name":"뽀빠이편의점","tel":"031-373-8248","addr":"경기도 오산시 지곶동 86-4번지 삼성공인중개사 1호","category":"유통업 영리 - 편 의 점"},{"name":"평양메밀숯불돼지갈비","tel":"031-375-9956","addr":"경기도 오산시 지곶동 86-4번지 삼성공인중개사 1동 1층","category":"일반휴게음식 - 일반한식"}]},{"lat":"37.177606973","long":"127.02105654","items":[{"name":"독산성전통찻집","tel":"031-377-2007","addr":"경기도 오산시 지곶동 300-4번지","category":"일반휴게음식 - 일반한식"}]},{"lat":"37.181830965","long":"127.03080975","items":[{"name":"두레보쌈","tel":"031-372-8668","addr":"경기도 오산시 지곶동 26-2번지","category":"일반휴게음식 - 일반한식"}]},{"lat":"37.176445149","long":"127.01726151","items":[{"name":"또봉이통닭 오산세교이편한세상점","tel":"031-375-5382","addr":"경기도 오산시 지곶동 559-1번지 성심학교 104호","category":"일반휴게음식 - 일반한식"}]},{"lat":"37.175939268","long":"127.02556027","items":[{"name":"맛고을한식부페","tel":"031-372-8448","addr":"경기도 오산시 지곶동 271번지 1동 1층","category":"일반휴게음식 - 일반한식"}]},{"lat":"37.178029581","long":"127.02611267","items":[{"name":"매니아","tel":"031-378-7245","addr":"경기도 오산시 지곶동 253-1 지하1층,1층2층","category":"일반휴게음식 - 일식·회집"}]},{"lat":"37.170614891","long":"127.02097605","items":[{"name":"명품타이어 파라다 (주)","tel":"031-223-4666","addr":"경기도 오산시 지곶동 402번지","category":"자동차정비 유지 - 자동차시트·타이어"}]},{"lat":"37.177939866","long":"127.02402943","items":[{"name":"밀밭","tel":"031-375-7759","addr":"경기도 오산시 지곶동 265-12번지 1층","category":"일반휴게음식 - 일반한식"}]},{"lat":"37.180723027","long":"127.02931162","items":[{"name":"베이직푸드 주식회사","tel":"031-378-5533","addr":"경기도 오산시 지곶동 34-2번지","category":"음료식품 - 정육점"}]},{"lat":"37.178614245","long":"127.03080857","items":[{"name":"별사랑카페","tel":"031-377-8416","addr":"경기도 오산시 지곶동 77번지","category":"일반휴게음식 - 스넥"}]},{"lat":"37.179084601","long":"127.02158615","items":[{"name":"보듬너싱홈","tel":"031-373-3303","addr":"경기도 오산시 지곶동 328-6번지","category":"기타의료기관 - 기타의료기관 및 기타"}]},{"lat":"37.177634553","long":"127.01703652","items":[{"name":"비엠플랜 주식회사","tel":"070-4459-5603","addr":"경기도 오산시 지곶동 353-8번지","category":"용역 서비스 - 종합용역"}]},{"lat":"37.177777746","long":"127.02364652","items":[{"name":"삽다리정육","tel":"031-372-4410","addr":"경기도 오산시 지곶동 282-1번지","category":"음료식품 - 정육점"},{"name":"삽다리정육식당","tel":"031-372-4410","addr":"경기도 오산시 지곶동 282-1번지 1층","category":"일반휴게음식 - 일반한식"},{"name":"템카페","tel":"031-372-4420","addr":"경기도 오산시 지곶동 282-1번지 2층","category":"일반휴게음식 - 서양음식"}]},{"lat":"37.178028546","long":"127.03089844","items":[{"name":"성일이네양봉원","tel":"031-372-0015","addr":"경기도 오산시 지곶동 74번지","category":"건강식품 - 기타건강식품"}]},{"lat":"37.175669455","long":"127.0227789","items":[{"name":"세마가든","tel":"031-372-3353","addr":"경기도 오산시 지곶동 294번지","category":"일반휴게음식 - 일반한식"}]},{"lat":"37.169388278","long":"127.027585","items":[{"name":"세마초등학교","tel":"031-375-9372","addr":"경기도 오산시 지곶동 578번지","category":"학원 - 초중고교육기관"}]},{"lat":"37.176390508","long":"127.02142784","items":[{"name":"세븐일레븐오산세마대점","tel":"031-1577-0711","addr":"경기도 오산시 지곶동 296-1번지","category":"유통업 영리 - 편 의 점"}]},{"lat":"37.178553046","long":"127.02120316","items":[{"name":"세이지앤선","tel":"031-373-5224","addr":"경기도 오산시 지곶동 328-2번지","category":"일반휴게음식 - 서양음식"}]},{"lat":"37.177579433","long":"127.02411941","items":[{"name":"순가네","tel":"031-372-2586","addr":"경기도 오산시 지곶동 278-1번지 1,2층","category":"일반휴게음식 - 스넥"}]},{"lat":"37.176669503","long":"127.02342101","items":[{"name":"신성가스","tel":"031-377-5600","addr":"경기도 오산시 지곶동 290-3번지","category":"연료판매점 - LPG 취급점"}]},{"lat":"37.179083581","long":"127.02720529","items":[{"name":"씨엠","tel":"031-212-2266","addr":"경기도 오산시 지곶동 243-1번지","category":"사무통신 - 통신기기"}]},{"lat":"37.17855251","long":"127.02438994","items":[{"name":"어부나라생선구이","tel":"031-212-2188","addr":"경기도 오산시 지곶동 231-1번지","category":"일반휴게음식 - 일반한식"}]},{"lat":"37.17760664","long":"127.02311723","items":[{"name":"옛날가마솥추어탕","tel":"031-373-0543","addr":"경기도 오산시 지곶동 286-1번지","category":"일반휴게음식 - 일반한식"}]},{"lat":"37.176165169","long":"127.02192324","items":[{"name":"오산체험학습장 랩타일랜드","tel":"031-372-9670","addr":"경기도 오산시 지곶동 293번지","category":"문화.취미 - 애완동물"}]},{"lat":"37.177414712","long":"127.03531234","items":[{"name":"오산휴게소(과천-던킨도너츠)/우림개발(주)","tel":"031-000-0000","addr":"경기도 오산시 지곶동 56-8번지","category":"음료식품 - 제과점"},{"name":"오산휴게소(상)하이샵","tel":"043-0000-0000","addr":"경기도 오산시 지곶동 56-8번지","category":"신변잡화 - 기타잡화"},{"name":"우림개발(주)오산휴게소(과천)","tel":"031-370-5550","addr":"경기도 오산시 지곶동 56-8","category":"일반휴게음식 - 일반한식"}]},{"lat":"37.17591308","long":"127.02061698","items":[{"name":"원다육","tel":"070-8870-7411","addr":"경기도 오산시 지곶동 374번지","category":"문화.취미 - 화원"}]},{"lat":"37.18063407","long":"127.02353469","items":[{"name":"유가네 밀알","tel":"031-372-4333","addr":"경기도 오산시 지곶동 185-4번지","category":"음료식품 - 농·축·수산품"}]},{"lat":"37.177552167","long":"127.02539185","items":[{"name":"은혜가든","tel":"031-372-3230","addr":"경기도 오산시 지곶동 261번지 은혜가든 A동 1층","category":"일반휴게음식 - 일반한식"}]},{"lat":"37.171585683","long":"127.03256249","items":[{"name":"일품한식부페","tel":"031-378-3247","addr":"경기도 오산시 지곶동 514-12번지 1층","category":"일반휴게음식 - 일반한식"}]},{"lat":"37.170414851","long":"127.03038895","items":[{"name":"재정한식부페","tel":"031-377-6644","addr":"경기도 오산시 지곶동 산183-1번지","category":"일반휴게음식 - 일반한식"},{"name":"한라합기도","tel":"","addr":"경기도 오산시 지곶동 산183-1번지 3층","category":"학원 - 예·체능계학원"}]},{"lat":"37.176110353","long":"127.02614586","items":[{"name":"제이비떠블유(JBW)","tel":"031-226-7047","addr":"경기도 오산시 지곶동 269-1","category":"자동차정비 유지 - 자동차부품"}]},{"lat":"37.17061313","long":"127.03017509","items":[{"name":"주식회사 아침애","tel":"031-376-9931","addr":"경기도 오산시 지곶동 산183번지","category":"음료식품 - 정육점"}]},{"lat":"37.173029166","long":"127.02411814","items":[{"name":"주식회사 지구산업개발","tel":"031-377-4741","addr":"경기도 오산시 지곶동 462-3번지 1층","category":"용역 서비스 - 기타용역서비스"}]},{"lat":"37.176030058","long":"127.0216417","items":[{"name":"주식회사 트윈전기조명","tel":"031-378-7172","addr":"경기도 오산시 지곶동 295-6번지","category":"건축자재 - 조명기구"}]},{"lat":"37.180218723","long":"127.0280277","items":[{"name":"주식회사대항수산","tel":"050-4343-5250","addr":"경기도 오산시 지곶동 92-1번지 1층","category":"음료식품 - 농·축·수산품"}]},{"lat":"37.179751111","long":"127.0231741","items":[{"name":"참소망요양원","tel":"031-372-3863","addr":"경기도 오산시 지곶동 192번지","category":"기타의료기관 - 기타의료기관 및 기타"}]},{"lat":"37.186192698","long":"127.02770309","items":[{"name":"초록유통","tel":"02-6499-1566","addr":"경기도 오산시 지곶동 12","category":"음료식품 - 농·축·수산품"}]},{"lat":"37.182390361","long":"127.02742031","items":[{"name":"캠미&올유카라반","tel":"","addr":"경기도 오산시 지곶동 109-2번지","category":"레져용품 - 스포츠·레져용품"},{"name":"페페라페","tel":"070-4144-3933","addr":"경기도 오산시 지곶동 109-2번지 A동 전체","category":"음료식품 - 기타음료식품"}]},{"lat":"37.177363173","long":"127.02417565","items":[{"name":"콩마당","tel":"031-372-3334","addr":"경기도 오산시 지곶동 278-3번지","category":"일반휴게음식 - 일반한식"}]},{"lat":"37.172001293","long":"127.02764215","items":[{"name":"풀무원푸드앤컬처 티로보틱스","tel":"070-4363-0524","addr":"경기도 오산시 지곶동 560번지 1층 구내식당","category":"일반휴게음식 - 위탁급식업"}]}]