[{"lat":"37.607582151","long":"126.84533897","items":[{"name":"(주)미다스홀세일","tel":"031-979-3310","addr":"경기도 고양시 덕양구 강매동 144-2번지","category":""},{"name":"(주)미다스홀세일","tel":"031-979-3310","addr":"경기도 고양시 덕양구 강매동 144-2번지","category":"약국 - 약국"}]},{"lat":"37.60838373","long":"126.8451221","items":[{"name":"(주)이음에프앤비","tel":"031-938-7880","addr":"경기도 고양시 덕양구 강매동 98-3번지","category":""}]},{"lat":"37.59924626","long":"126.8439524","items":[{"name":"DIVE WAY 다이브웨이","tel":"070-888-4803","addr":"경기도 고양시 덕양구 강매동","category":"레져용품 - 스포츠·레져용품"},{"name":"DIVE WAY 다이브웨이","tel":"070-888-4803","addr":"경기도 고양시 덕양구 강매동 265번지","category":""}]},{"lat":"37.606633971","long":"126.84373284","items":[{"name":"KARMAN(카르만)","tel":"031-938-0702","addr":"경기도 고양시 덕양구 강매동 205-7번지","category":""},{"name":"KARMAN(카르만)","tel":"031-938-0702","addr":"경기도 고양시 덕양구 강매동 205-7번지","category":"자동차정비 유지 - 자동차정비"},{"name":"그린","tel":"031-978-9740","addr":"경기도 고양시 덕양구 강매동 205-7번지","category":""}]},{"lat":"37.607022851","long":"126.8448192","items":[{"name":"강고산쉼터","tel":"070-5031-0313","addr":"경기도 고양시 덕양구 강매동 204-1번지","category":""},{"name":"강고산쉼터","tel":"070-5031-0313","addr":"경기도 고양시 덕양구 강매동 204-1번지","category":"음료식품 - 기타음료식품"}]},{"lat":"37.609274173","long":"126.84398769","items":[{"name":"강매가든","tel":"031-970-6863","addr":"경기도 고양시 덕양구 강매동 81번지","category":"일반휴게음식 - 일반한식"},{"name":"강매가든","tel":"031-970-6863","addr":"경기도 고양시 덕양구 강매동 81번지","category":""}]},{"lat":"37.60905119","long":"126.84567563","items":[{"name":"강매마트","tel":"031-971-6110","addr":"경기도 고양시 덕양구 강매동 165-2번지","category":"유통업 영리 - 슈퍼마켓"},{"name":"강매마트","tel":"031-971-6110","addr":"경기도 고양시 덕양구 강매동 165-2번지","category":""}]},{"lat":"37.608996618","long":"126.84529069","items":[{"name":"강매자동차공업사","tel":"031-979-5311","addr":"경기도 고양시 덕양구 강매동 93번지","category":""},{"name":"강매자동차공업사","tel":"031-979-5311","addr":"경기도 고양시 덕양구 강매동 93번지","category":"자동차정비 유지 - 자동차정비"}]},{"lat":"37.608664735","long":"126.84640126","items":[{"name":"나무","tel":"031-971-5455","addr":"경기도 고양시 덕양구 강매동 174번지","category":""},{"name":"나무","tel":"031-971-5455","addr":"경기도 고양시 덕양구 강매동 174번지","category":"레져용품 - 스포츠·레져용품"},{"name":"비이","tel":"031-938-5259","addr":"경기도 고양시 덕양구 강매동 174번지","category":""},{"name":"비이","tel":"031-938-5259","addr":"경기도 고양시 덕양구 강매동 174번지","category":"레져용품 - 스포츠·레져용품"},{"name":"에스엠케이프로모션","tel":"031-974-0421","addr":"경기도 고양시 덕양구 강매동 174번지","category":""},{"name":"에스엠케이프로모션","tel":"031-974-0421","addr":"경기도 고양시 덕양구 강매동 174번지","category":"레져용품 - 스포츠·레져용품"},{"name":"주식회사 모모코퍼레이션","tel":"031-971-5499","addr":"경기도 고양시 덕양구 강매동 174번지","category":""}]},{"lat":"37.609051522","long":"126.84592479","items":[{"name":"나비미디어","tel":"031-971-7797","addr":"경기도 고양시 덕양구 강매동 164-1번지","category":"광학제품 - 사진관"},{"name":"나비미디어","tel":"031-971-7797","addr":"경기도 고양시 덕양구 강매동 164-1번지","category":""},{"name":"스튜디오 나비","tel":"031-971-7797","addr":"경기도 고양시 덕양구 강매동 164-1번지","category":""},{"name":"스튜디오나비","tel":"031-971-7797","addr":"경기도 고양시 덕양구 강매동 164-1번지","category":""}]},{"lat":"37.609635931","long":"126.84500621","items":[{"name":"농업회사법인 주식회사 팔도동행","tel":"031-482-2454","addr":"경기도 고양시 덕양구 강매동 89번지","category":"음료식품 - 기타음료식품"}]},{"lat":"37.598887556","long":"126.8452101","items":[{"name":"뚝방상회","tel":"031-970-0461","addr":"경기도 고양시 덕양구 강매동 269-3번지","category":""},{"name":"뚝방상회","tel":"031-970-0461","addr":"경기도 고양시 덕양구 강매동 269-3번지","category":"음료식품 - 기타음료식품"}]},{"lat":"37.605803081","long":"126.84226238","items":[{"name":"만능프라자","tel":"","addr":"경기도 고양시 덕양구 강매동","category":"전기제품 - 냉열기기"},{"name":"만능프라자","tel":"","addr":"경기도 고양시 덕양구 강매동 398-1번지","category":""}]},{"lat":"37.604667515","long":"126.84201568","items":[{"name":"명품컴퓨터","tel":"070-8831-8733","addr":"경기도 고양시 덕양구 강매동 395-7번지","category":""}]},{"lat":"37.598192759","long":"126.84443023","items":[{"name":"목향","tel":"031-979-9965","addr":"경기도 고양시 덕양구 강매동 286-5번지","category":"일반휴게음식 - 일반한식"},{"name":"목향","tel":"031-979-9965","addr":"경기도 고양시 덕양구 강매동 286-5번지","category":""},{"name":"카페2865","tel":"02-1111-1111","addr":"경기도 고양시 덕양구 강매동 286-5번지","category":"일반휴게음식 - 서양음식"}]},{"lat":"37.608717196","long":"126.84520068","items":[{"name":"블루아이스","tel":"031-970-5091","addr":"경기도 고양시 덕양구 강매동 94-1번지","category":""},{"name":"블루아이스","tel":"031-970-5091","addr":"경기도 고양시 덕양구 강매동 94-1번지","category":"기타 - 기타 전문점"}]},{"lat":"37.600608376","long":"126.85206881","items":[{"name":"삼성철강","tel":"02-3159-9010","addr":"경기도 고양시 덕양구 강매동","category":"건축자재 - 기타건축자재"},{"name":"삼성철강","tel":"02-3159-9010","addr":"경기도 고양시 덕양구 강매동 234-6번지","category":""}]},{"lat":"37.611441351","long":"126.83448087","items":[{"name":"서도유통","tel":"031-978-5129","addr":"경기도 고양시 덕양구 강매동 613-3번지","category":""},{"name":"서도유통","tel":"031-978-5129","addr":"경기도 고양시 덕양구 강매동 613-3번지","category":"음료식품 - 기타음료식품"},{"name":"코레일 고양 어린이집[아이행복]","tel":"070-7613-3051","addr":"경기도 고양시 덕양구 강매동 613-3번지","category":"학원 - 유아원"}]},{"lat":"37.608995755","long":"126.84464515","items":[{"name":"스카이행거","tel":"031-971-2080","addr":"경기도 고양시 덕양구 강매동 109번지","category":""},{"name":"스카이행거","tel":"031-971-2080","addr":"경기도 고양시 덕양구 강매동 109번지","category":"신변잡화 - 기타잡화"}]},{"lat":"37.602776764","long":"126.8497656","items":[{"name":"승진건재","tel":"02-3158-1110","addr":"경기도 고양시 덕양구 강매동 235-8","category":""},{"name":"승진건재","tel":"02-3158-1110","addr":"경기도 고양시 덕양구 강매동","category":"건축자재 - 기타건축자재"}]},{"lat":"37.606191852","long":"126.84325813","items":[{"name":"신선유통","tel":"031-973-3212","addr":"경기도 고양시 덕양구 강매동 206번지","category":"음료식품 - 기타음료식품"},{"name":"신선유통","tel":"031-973-3212","addr":"경기도 고양시 덕양구 강매동 206번지","category":""}]},{"lat":"37.609106107","long":"126.84632106","items":[{"name":"안성비철","tel":"031-970-6864","addr":"경기도 고양시 덕양구 강매동 168-2번지","category":""},{"name":"안성비철","tel":"031-970-6864","addr":"경기도 고양시 덕양구 강매동 168-2번지","category":"기타 - 기타 전문점"}]},{"lat":"37.607808074","long":"126.84584813","items":[{"name":"에스에스공사주식회사","tel":"02-2069-0231","addr":"경기도 고양시 덕양구 강매동 147번지","category":"건축자재 - 기타건축자재"},{"name":"에스에스공사주식회사","tel":"02-2069-0231","addr":"경기도 고양시 덕양구 강매동 147번지","category":""},{"name":"행신수산","tel":"070-8945-3313","addr":"경기도 고양시 덕양구 강매동 147번지","category":""},{"name":"행신수산","tel":"070-8945-3313","addr":"경기도 고양시 덕양구 강매동 147번지","category":"음료식품 - 농·축·수산품"}]},{"lat":"37.599805272","long":"126.83137039","items":[{"name":"연흥사","tel":"02-309-5590","addr":"경기도 고양시 덕양구 강매동 640번지","category":""},{"name":"연흥사","tel":"02-309-5590","addr":"경기도 고양시 덕양구 강매동","category":"자동차정비 유지 - 자동차시트·타이어"}]},{"lat":"37.602359645","long":"126.84101279","items":[{"name":"오늘도목수","tel":"031-111-1111","addr":"경기도 고양시 덕양구 강매동 390번지","category":""},{"name":"오늘도목수","tel":"031-111-1111","addr":"경기도 고양시 덕양구 강매동 390번지","category":"문화.취미 - 문화취미기타"}]},{"lat":"37.608806702","long":"126.8447588","items":[{"name":"우드빈","tel":"031-111-1111","addr":"경기도 고양시 덕양구 강매동 107-4번지","category":"가구 - 일반가구"},{"name":"우드빈","tel":"031-111-1111","addr":"경기도 고양시 덕양구 강매동 107-4번지","category":""}]},{"lat":"37.606552624","long":"126.84354049","items":[{"name":"워시엔카","tel":"070-4789-2381","addr":"경기도 고양시 덕양구 강매동 205-6번지","category":"자동차정비 유지 - 세차장"},{"name":"워시엔카","tel":"070-4789-2381","addr":"경기도 고양시 덕양구 강매동 205-6번지","category":""},{"name":"워시엔카","tel":"031-979-2558","addr":"경기도 고양시 덕양구 강매동 205-6번지","category":""},{"name":"워시엔카","tel":"031-979-2558","addr":"경기도 고양시 덕양구 강매동 205-6번지","category":"자동차정비 유지 - 세차장"}]},{"lat":"37.609327896","long":"126.84373842","items":[{"name":"위즈소닉주식회사","tel":"02-2665-3044","addr":"경기도 고양시 덕양구 강매동 82번지","category":""}]},{"lat":"37.60547092","long":"126.84314643","items":[{"name":"이기성플라워디자인","tel":"031-979-7962","addr":"경기도 고양시 덕양구 강매동 225번지","category":""},{"name":"이기성플라워디자인","tel":"031-979-7962","addr":"경기도 고양시 덕양구 강매동 225번지","category":"문화.취미 - 화원"}]},{"lat":"37.601720512","long":"126.8481484","items":[{"name":"일욱상사","tel":"02-879-1975","addr":"경기도 고양시 덕양구 강매동","category":"음료식품 - 기타음료식품"},{"name":"일욱상사","tel":"02-879-1975","addr":"경기도 고양시 덕양구 강매동 237번지","category":""},{"name":"해태상사","tel":"031-111-1111","addr":"경기도 고양시 덕양구 강매동","category":"음료식품 - 기타음료식품"},{"name":"해태상사","tel":"02-879-1975","addr":"경기도 고양시 덕양구 강매동 237번지","category":""},{"name":"해태상사","tel":"02-879-1975","addr":"경기도 고양시 덕양구 강매동","category":"음료식품 - 기타음료식품"}]},{"lat":"37.602913011","long":"126.84378606","items":[{"name":"장승고을유황오리구이","tel":"031-973-5293","addr":"경기도 고양시 덕양구 강매동 212-6번지","category":""},{"name":"장승고을유황오리구이","tel":"031-973-5293","addr":"경기도 고양시 덕양구 강매동 212-6번지","category":"일반휴게음식 - 일반한식"},{"name":"장승고을유황오리구이","tel":"031-973-5293","addr":"경기도 고양시 덕양구 강매동 212-6번지","category":""}]},{"lat":"37.609222902","long":"126.84607166","items":[{"name":"주식회사 더진","tel":"02-324-6631","addr":"경기도 고양시 덕양구 강매동 168번지","category":""},{"name":"주식회사 더진","tel":"02-324-6631","addr":"경기도 고양시 덕양구 강매동 168번지","category":"음료식품 - 기타음료식품"}]},{"lat":"37.608221585","long":"126.8451451","items":[{"name":"주식회사 홍바이크","tel":"031-972-6815","addr":"경기도 고양시 덕양구 강매동 98-7번지","category":"자동차판매 - 이륜차판매"}]},{"lat":"37.607996901","long":"126.8455646","items":[{"name":"집꾸미는남자빠빠메종","tel":"031-974-8886","addr":"경기도 고양시 덕양구 강매동 97-3번지","category":"가구 - 일반가구"},{"name":"집꾸미는남자빠빠메종","tel":"031-974-8886","addr":"경기도 고양시 덕양구 강매동 97-3번지","category":""}]},{"lat":"37.606471307","long":"126.84337079","items":[{"name":"초코나무","tel":"070-4150-2029","addr":"경기도 고양시 덕양구 강매동 205-4번지","category":"가구 - 일반가구"},{"name":"초코나무","tel":"070-4150-2029","addr":"경기도 고양시 덕양구 강매동 205-4번지","category":""}]},{"lat":"37.600444651","long":"126.83115376","items":[{"name":"폐기물처리업체","tel":"031-000-0000","addr":"경기도 고양시 덕양구 강매동 640번지","category":"용역 서비스 - 기타용역서비스"}]},{"lat":"37.607750918","long":"126.84353793","items":[{"name":"해달별유치원[아이행복]","tel":"031-978-6669","addr":"경기도 고양시 덕양구 강매동 113번지","category":"학원 - 유치원"}]},{"lat":"37.610057486","long":"126.84358964","items":[{"name":"현경푸드시스템","tel":"031-971-8485","addr":"경기도 고양시 덕양구 강매동 48번지","category":""}]},{"lat":"37.603280833","long":"126.84261886","items":[{"name":"황제보신탕","tel":"031-938-5262","addr":"경기도 고양시 덕양구 강매동 212-7번지","category":"일반휴게음식 - 일반한식"},{"name":"황제보신탕","tel":"031-938-5262","addr":"경기도 고양시 덕양구 강매동 212-7번지","category":""}]}]