[{"lat":"37.295684829","long":"127.42223622","imageIndex":16,"items":[{"name":"누리어린이집[아이행복]","tel":"031-635-8520","addr":"경기도 이천시 사음동 206-3번지","indutype":"학원 - 유아원","category":"study"}]},{"lat":"37.291267432","long":"127.42796318","imageIndex":16,"items":[{"name":"다산고등학교","tel":"031-645-7113","addr":"경기도 이천시 사음동 150-6번지 다산고등학교","indutype":"학원 - 초중고교육기관","category":"study"}]},{"lat":"37.291134491","long":"127.4093773","imageIndex":16,"items":[{"name":"아카밸리숲유치원[아이행복]","tel":"031-633-5115","addr":"경기도 이천시 사음동 482-68번지","indutype":"학원 - 유치원","category":"study"},{"name":"아카밸리어린이집[아이행복]","tel":"031-1688-3424","addr":"경기도 이천시 사음동 482-68번지","indutype":"학원 - 유아원","category":"study"}]},{"lat":"37.29585346","long":"127.42295896","imageIndex":16,"items":[{"name":"참좋은어린이집[아이행복]","tel":"031-635-3222","addr":"경기도 이천시 사음동 206-1번지","indutype":"학원 - 유아원","category":"study"}]},{"lat":"37.298570089","long":"127.41135721","imageIndex":16,"items":[{"name":"평화어린이집[아이행복]","tel":"031-694-2366","addr":"경기도 이천시 사음동 586-5번지 서이천교회 1층","indutype":"학원 - 유아원","category":"study"}]}]