[{"lat":"37.769124338","long":"127.10331502","imageIndex":7,"items":[{"name":"달성축산","tel":"031-873-7159","addr":"경기도 의정부시 자일동 155-3번지","indutype":"음료식품 - 농·축·수산품","category":"food"}]},{"lat":"37.763289671","long":"127.09911944","imageIndex":7,"items":[{"name":"자일농원","tel":"031-844-6916","addr":"경기도 의정부시 자일동 199,193","indutype":"음료식품 - 농·축·수산품","category":"food"}]},{"lat":"37.763515407","long":"127.0985069","imageIndex":7,"items":[{"name":"자일농원 매점","tel":"031-844-6916","addr":"경기도 의정부시 자일동 197번지","indutype":"음료식품 - 기타음료식품","category":"food"},{"name":"자일농원체험장","tel":"031-846-7993","addr":"경기도 의정부시 자일동 197번지","indutype":"음료식품 - 기타음료식품","category":"food"},{"name":"자일농원체험장","tel":"031-846-7993","addr":"경기도 의정부시 자일동 197번지","indutype":"음료식품 - 기타음료식품","category":"food"}]},{"lat":"37.767814313","long":"127.09681001","imageIndex":7,"items":[{"name":"창운 무역","tel":"070-4133-9595","addr":"경기도 의정부시 자일동 산21번지","indutype":"음료식품 - 농·축·수산품","category":"food"}]},{"lat":"37.75915544","long":"127.08575734","imageIndex":7,"items":[{"name":"푸드365","tel":"031-874-9600","addr":"경기도 의정부시 자일동 310-10","indutype":"음료식품 - 기타음료식품","category":"food"}]}]