[{"lat":"37.911823169","long":"127.06603945","imageIndex":16,"items":[{"name":"YES ALL 어린이집[아이행복]","tel":"031-864-4853","addr":"경기도 동두천시 생연동 180-2번지","indutype":"학원 - 유아원","category":"study"}]},{"lat":"37.908963417","long":"127.05545051","imageIndex":16,"items":[{"name":"little해피아이어린이집[아이행복]","tel":"031-865-1253","addr":"경기도 동두천시 생연동 615-2","indutype":"학원 - 유아원","category":"study"},{"name":"예꼬리틀어린이집[아이행복]","tel":"031-865-1253","addr":"경기도 동두천시 생연동 615-2번지 오페라맨션","indutype":"학원 - 유아원","category":"study"},{"name":"천사랑어린이집[아이행복]","tel":"031-865-1255","addr":"경기도 동두천시 생연동 615-2번지","indutype":"학원 - 유아원","category":"study"},{"name":"해피아이어린이집[아이행복]","tel":"031-865-1255","addr":"경기도 동두천시 생연동 615-2","indutype":"학원 - 유아원","category":"study"}]},{"lat":"37.897022605","long":"127.06272972","imageIndex":16,"items":[{"name":"가브리엘음악학원","tel":"031-863-8806","addr":"경기도 동두천시 생연동 342-5번지 305-306호","indutype":"학원 - 예·체능계학원","category":"study"},{"name":"브람스피아노학원","tel":"031-864-0021","addr":"경기도 동두천시 생연동 342-5번지 에이스상가 206호, 207호","indutype":"학원 - 예·체능계학원","category":"study"},{"name":"에이스태권도장","tel":"031-866-5062","addr":"경기도 동두천시 생연동 342-5번지 303, 304호","indutype":"학원 - 예·체능계학원","category":"study"},{"name":"에이스프라임","tel":"031-857-0808","addr":"경기도 동두천시 생연동 342-5번지 에이스상가 301동 302호","indutype":"학원 - 보습학원","category":"study"}]},{"lat":"37.903882413","long":"127.05490112","imageIndex":16,"items":[{"name":"경기북부명원다도예절문화원","tel":"031-861-1518","addr":"경기도 동두천시 생연동 648-2번지","indutype":"학원 - 기타 교육기관","category":"study"}]},{"lat":"37.897610488","long":"127.05806876","imageIndex":16,"items":[{"name":"고려대아카데미학원","tel":"031-863-9113","addr":"경기도 동두천시 생연동 361-22번지","indutype":"학원 - 보습학원","category":"study"}]},{"lat":"37.898718187","long":"127.05901326","imageIndex":16,"items":[{"name":"꿈그리는아이들미술음악학원","tel":"031-858-6638","addr":"경기도 동두천시 생연동 369-8번지","indutype":"학원 - 예·체능계학원","category":"study"}]},{"lat":"37.910772188","long":"127.05995486","imageIndex":16,"items":[{"name":"꿈나래어린이집[아이행복]","tel":"031-862-9502","addr":"경기도 동두천시 생연동 522-8번지","indutype":"학원 - 유아원","category":"study"}]},{"lat":"37.898717356","long":"127.06073005","imageIndex":16,"items":[{"name":"내행어린이집[아이행복]","tel":"031-864-2610","addr":"경기도 동두천시 생연동 386-2번지","indutype":"학원 - 유아원","category":"study"}]},{"lat":"37.909024719","long":"127.05925988","imageIndex":16,"items":[{"name":"단비어린이집[아이행복]","tel":"031-867-7700","addr":"경기도 동두천시 생연동 498-13번지","indutype":"학원 - 유아원","category":"study"}]},{"lat":"37.913440663","long":"127.05628384","imageIndex":16,"items":[{"name":"도담도담 전래 놀이 연구소","tel":"","addr":"경기도 동두천시 생연동 541-41번지","indutype":"학원 - 기타 교육기관","category":"study"}]},{"lat":"37.906717543","long":"127.06089551","imageIndex":16,"items":[{"name":"동두천여자중학교","tel":"031-860-7391","addr":"경기도 동두천시 생연동 산43-1번지 동두천여자중학교","indutype":"학원 - 초중고교육기관","category":"study"}]},{"lat":"37.905045374","long":"127.05315088","imageIndex":16,"items":[{"name":"동두천요리학원","tel":"031-861-2587","addr":"경기도 동두천시 생연동 592-4번지 2층","indutype":"학원 - 예·체능계학원","category":"study"}]},{"lat":"37.904664494","long":"127.05867666","imageIndex":16,"items":[{"name":"동두천중학교","tel":"031-860-1305","addr":"경기도 동두천시 생연동 451번지","indutype":"학원 - 초중고교육기관","category":"study"}]},{"lat":"37.899770756","long":"127.06211798","imageIndex":16,"items":[{"name":"동산어린이집[아이행복]","tel":"031-857-5867","addr":"경기도 동두천시 생연동 400-7번지","indutype":"학원 - 유아원","category":"study"}]},{"lat":"37.906802739","long":"127.05184444","imageIndex":16,"items":[{"name":"두칸 피아노","tel":"","addr":"경기도 동두천시 생연동 825-121번지","indutype":"학원 - 기타 교육기관","category":"study"}]},{"lat":"37.90310787","long":"127.07192177","imageIndex":16,"items":[{"name":"드림스카이무인항공교육원지점","tel":"031-862-3001","addr":"경기도 동두천시 생연동 83번지","indutype":"학원 - 기능학원","category":"study"}]},{"lat":"37.907269592","long":"127.05561987","imageIndex":16,"items":[{"name":"또래예꼬키즈어린이집","tel":"031-857-7948","addr":"경기도 동두천시 생연동 613-71번지","indutype":"학원 - 유아원","category":"study"},{"name":"또래예꼬키즈어린이집[아이행복]","tel":"031-857-7948","addr":"경기도 동두천시 생연동 613-71번지","indutype":"학원 - 유아원","category":"study"}]},{"lat":"37.90827047","long":"127.05369888","imageIndex":16,"items":[{"name":"로데오","tel":"031-862-1087","addr":"경기도 동두천시 생연동 577-13번지","indutype":"회원제형태 - 학원","category":"study"}]},{"lat":"37.901246189","long":"127.06614411","imageIndex":16,"items":[{"name":"리라어린이집","tel":"031-864-2827","addr":"경기도 동두천시 생연동 268-20번지","indutype":"학원 - 유치원","category":"study"}]},{"lat":"37.900887617","long":"127.06269874","imageIndex":16,"items":[{"name":"리베도만스쿨어린이집[아이행복]","tel":"031-867-1477","addr":"경기도 동두천시 생연동 403-4번지","indutype":"학원 - 유아원","category":"study"}]},{"lat":"37.902828977","long":"127.05339952","imageIndex":16,"items":[{"name":"리빙아트문화센터(구)비즈랜드","tel":"031-857-3663","addr":"경기도 동두천시 생연동 669-16번지 2층","indutype":"회원제형태 - 학원","category":"study"}]},{"lat":"37.905549074","long":"127.05503874","imageIndex":16,"items":[{"name":"리틀키즈어린이집[아이행복]","tel":"031-859-5979","addr":"경기도 동두천시 생연동 597-2번지 1층","indutype":"학원 - 유아원","category":"study"}]},{"lat":"37.911213211","long":"127.06084218","imageIndex":16,"items":[{"name":"보영여자중학교","tel":"031-865-2670","addr":"경기도 동두천시 생연동 522-1번지","indutype":"학원 - 초중고교육기관","category":"study"}]},{"lat":"37.898418383","long":"127.06402697","imageIndex":16,"items":[{"name":"불현어린이집[아이행복]","tel":"031-866-0080","addr":"경기도 동두천시 생연동 831","indutype":"학원 - 유아원","category":"study"}]},{"lat":"37.903384196","long":"127.06069959","imageIndex":16,"items":[{"name":"비둘기어린이집[아이행복]","tel":"031-859-4560","addr":"경기도 동두천시 생연동 438번지 동두천시청 내","indutype":"학원 - 유아원","category":"study"}]},{"lat":"37.906690716","long":"127.06048614","imageIndex":16,"items":[{"name":"비전에니어그램교육연구소","tel":"031-785-5455","addr":"경기도 동두천시 생연동 471-1번지","indutype":"학원 - 기타 교육기관","category":"study"}]},{"lat":"37.896883863","long":"127.05092833","imageIndex":16,"items":[{"name":"상명음악학원","tel":"031-862-3688","addr":"경기도 동두천시 생연동 714-5 대방노블래드상가303호~305호","indutype":"학원 - 예·체능계학원","category":"study"}]},{"lat":"37.908691217","long":"127.05958938","imageIndex":16,"items":[{"name":"새별꽃어린이집[아이행복]","tel":"031-861-2744","addr":"경기도 동두천시 생연동 468-4번지","indutype":"학원 - 유아원","category":"study"}]},{"lat":"37.899165877","long":"127.06456196","imageIndex":16,"items":[{"name":"생연미술학원","tel":"031-867-8973","addr":"경기도 동두천시 생연동 304번지 생연오피스텔 2층","indutype":"학원 - 예·체능계학원","category":"study"}]},{"lat":"37.899075623","long":"127.06486886","imageIndex":16,"items":[{"name":"승리태권도","tel":"031-858-7850","addr":"경기도 동두천시 생연동 304-3번지 3층","indutype":"학원 - 예·체능계학원","category":"study"},{"name":"축복어린이집[아이행복]","tel":"031-858-8894","addr":"경기도 동두천시 생연동 304-3번지","indutype":"학원 - 유아원","category":"study"}]},{"lat":"37.904801472","long":"127.05465162","imageIndex":16,"items":[{"name":"신일평생교육학원","tel":"031-865-6421","addr":"경기도 동두천시 생연동 644-14번지 혜린빌딩","indutype":"학원 - 컴퓨터학원","category":"study"}]},{"lat":"37.904160469","long":"127.05761883","imageIndex":16,"items":[{"name":"신화컴퓨터전산회계학원","tel":"031-865-0722","addr":"경기도 동두천시 생연동 448-9번지","indutype":"학원 - 기능학원","category":"study"}]},{"lat":"37.91226709","long":"127.06126375","imageIndex":16,"items":[{"name":"신흥어린이집[아이행복]","tel":"031-865-1176","addr":"경기도 동두천시 생연동 523-1번지","indutype":"학원 - 유아원","category":"study"}]},{"lat":"37.896494897","long":"127.05462306","imageIndex":16,"items":[{"name":"아장아장 어린이집[아이행복]","tel":"031-8083-4775","addr":"경기도 동두천시 생연동 715-7번지 부영아파트","indutype":"학원 - 유아원","category":"study"}]},{"lat":"37.900330157","long":"127.06045844","imageIndex":16,"items":[{"name":"엘드림어린이집[아이행복]","tel":"031-865-5588","addr":"경기도 동두천시 생연동 411-1번지","indutype":"학원 - 유아원","category":"study"},{"name":"이반젤음악학원","tel":"","addr":"경기도 동두천시 생연동 411-1번지 1층","indutype":"학원 - 예·체능계학원","category":"study"}]},{"lat":"37.900941823","long":"127.06240316","imageIndex":16,"items":[{"name":"연지속셈보습학원","tel":"031-864-5533","addr":"경기도 동두천시 생연동 404-2","indutype":"학원 - 보습학원","category":"study"}]},{"lat":"37.897048244","long":"127.06540152","imageIndex":16,"items":[{"name":"예사랑어린이집[아이행복]","tel":"031-862-2692","addr":"경기도 동두천시 생연동 329-36번지","indutype":"학원 - 유아원","category":"study"}]},{"lat":"37.904188221","long":"127.05603837","imageIndex":16,"items":[{"name":"용두체육관","tel":"031-865-3793","addr":"경기도 동두천시 생연동 641-1번지 1층 3호","indutype":"학원 - 예·체능계학원","category":"study"}]},{"lat":"37.900081351","long":"127.05289737","imageIndex":16,"items":[{"name":"용인k-tigers태권도","tel":"031-867-6565","addr":"경기도 동두천시 생연동 696-3번지 3층","indutype":"학원 - 예·체능계학원","category":"study"},{"name":"정성하이스트","tel":"031-866-3260","addr":"경기도 동두천시 생연동 696-3번지 평화빌딩 2층","indutype":"학원 - 보습학원","category":"study"}]},{"lat":"37.898053727","long":"127.0541239","imageIndex":16,"items":[{"name":"우선생피아노교습소","tel":"031-857-7414","addr":"경기도 동두천시 생연동 715-1.2층201호","indutype":"회원제형태 - 학원","category":"study"}]},{"lat":"37.906855678","long":"127.05445975","imageIndex":16,"items":[{"name":"이데아창조미술학원","tel":"031-842-3007","addr":"경기도 동두천시 생연동 605-1.2층전부","indutype":"회원제형태 - 학원","category":"study"}]},{"lat":"37.904832402","long":"127.06519206","imageIndex":16,"items":[{"name":"이든어린이집[아이행복]","tel":"031-868-8234","addr":"경기도 동두천시 생연동 231번지 동두천생연동월드메르디앙 105동 105호","indutype":"학원 - 유아원","category":"study"}]},{"lat":"37.909855398","long":"127.05531469","imageIndex":16,"items":[{"name":"제이 엔 케이 유도클럽","tel":"070-7319-5150","addr":"경기도 동두천시 생연동 555-4번지 4층","indutype":"학원 - 예·체능계학원","category":"study"}]},{"lat":"37.89963324","long":"127.04700758","imageIndex":16,"items":[{"name":"좋은열매어린이집[아이행복]","tel":"031-864-8853","addr":"경기도 동두천시 생연동 791-2번지 올리어린이집","indutype":"학원 - 유아원","category":"study"}]},{"lat":"37.90915913","long":"127.06076097","imageIndex":16,"items":[{"name":"천사음악학원","tel":"031-863-9322","addr":"경기도 동두천시 생연동 466-3번지 1층","indutype":"학원 - 예·체능계학원","category":"study"}]},{"lat":"37.911156095","long":"127.06675528","imageIndex":16,"items":[{"name":"크레용어린이집","tel":"031-862-3880","addr":"경기도 동두천시 생연동 175-11번지","indutype":"학원 - 유치원","category":"study"},{"name":"크레용어린이집[아이행복]","tel":"031-862-3880","addr":"경기도 동두천시 생연동 175-11번지","indutype":"학원 - 유아원","category":"study"}]},{"lat":"37.897997496","long":"127.05889901","imageIndex":16,"items":[{"name":"키즈스포츠","tel":"070-0000-0000","addr":"경기도 동두천시 생연동 832번지 브라운스톤동두천 103동 302호","indutype":"학원 - 기타 교육기관","category":"study"}]},{"lat":"37.909692206","long":"127.05756607","imageIndex":16,"items":[{"name":"피노키오 어린이집[아이행복]","tel":"031-859-2210","addr":"경기도 동두천시 생연동 491-27번지","indutype":"학원 - 유아원","category":"study"}]},{"lat":"37.896189686","long":"127.05204206","imageIndex":16,"items":[{"name":"한국 치매 예방 협회","tel":"031-866-8457","addr":"경기도 동두천시 생연동 714-12번지 은혜빌딩 4층","indutype":"학원 - 기타 교육기관","category":"study"}]},{"lat":"37.896356226","long":"127.06211524","imageIndex":16,"items":[{"name":"한양대 멘토 태권도","tel":"031-858-2423","addr":"경기도 동두천시 생연동 353-2번지","indutype":"학원 - 예·체능계학원","category":"study"}]},{"lat":"37.908302808","long":"127.06164724","imageIndex":16,"items":[{"name":"화랑보습학원","tel":"031-857-6606","addr":"경기도 동두천시 생연동 466-44번지","indutype":"회원제형태 - 학원","category":"study"}]}]