[{"lat":"37.180048528","long":"126.77563655","items":[{"name":"(주)가라타","tel":"031-431-1252","addr":"경기도 화성시 마도면 청원리 685-8번지","category":"자동차정비 유지 - 자동차부품"}]},{"lat":"37.189216084","long":"126.77303002","items":[{"name":"(주)나노에이엠티","tel":"070-4816-4873","addr":"경기도 화성시 마도면 청원리 12-4번지","category":"기타 - 기계공구"}]},{"lat":"37.189658027","long":"126.77325393","items":[{"name":"(주)두리켐/원격지","tel":"031-355-0767","addr":"경기도 화성시 마도면 청원리 5-3","category":"기타 - 기타 전문점"}]},{"lat":"37.167741797","long":"126.7764165","items":[{"name":"(주)커피클랜","tel":"02-2108-5044","addr":"경기도 화성시 마도면 청원리 1396번지","category":"음료식품 - 기타음료식품"}]},{"lat":"37.178158315","long":"126.77666693","items":[{"name":"(주)풍산바이오세라믹","tel":"070-8872-2788","addr":"경기도 화성시 마도면 청원리 721번지","category":"농업 - 비료,사료,종자"}]},{"lat":"37.171775809","long":"126.77503078","items":[{"name":"GS25화성바이오점","tel":"","addr":"경기도 화성시 마도면 청원리 1365번지 101호","category":"유통업 영리 - 편 의 점"},{"name":"정부대찌개 삼겹살","tel":"031-357-6775","addr":"경기도 화성시 마도면 청원리 1365번지 103호","category":"일반휴게음식 - 일반한식"}]},{"lat":"37.171853534","long":"126.77328529","items":[{"name":"경성짬뽕","tel":"031-355-2868","addr":"경기도 화성시 마도면 청원리 1354번지 오송빌딩 1층 101호","category":"일반휴게음식 - 중국식"},{"name":"고구려","tel":"","addr":"경기도 화성시 마도면 청원리 1354번지 오성빌딩 110호","category":"일반휴게음식 - 일반한식"},{"name":"주식회사 신포가빈 화성바이오밸리점","tel":"031-336-7892","addr":"경기도 화성시 마도면 청원리 1354번지 201 ,202호","category":"일반휴게음식 - 일반한식"}]},{"lat":"37.17180083","long":"126.76484069","items":[{"name":"고다감자탕","tel":"","addr":"경기도 화성시 마도면 청원리 1331번지 1층 102호","category":"일반휴게음식 - 일반한식"},{"name":"명가네뚝배기","tel":"031-648-7678","addr":"경기도 화성시 마도면 청원리 1331번지 102호","category":"일반휴게음식 - 일반한식"},{"name":"이마트24 마도바이오점","tel":"","addr":"경기도 화성시 마도면 청원리 1331번지","category":"유통업 영리 - 편 의 점"},{"name":"이마트24 마도바이오점","tel":"031-000-0000","addr":"경기도 화성시 마도면 청원리 1331번지","category":"유통업 영리 - 편 의 점"}]},{"lat":"37.18868703","long":"126.76519314","items":[{"name":"고향식당","tel":"031-357-6387","addr":"경기도 화성시 마도면 청원리 66-12번지 2동","category":"일반휴게음식 - 일반한식"}]},{"lat":"37.171854166","long":"126.77361182","items":[{"name":"광이네","tel":"02-1111-1111","addr":"경기도 화성시 마도면 청원리 1355번지 101호","category":"일반휴게음식 - 스넥"},{"name":"동네슈퍼","tel":"","addr":"경기도 화성시 마도면 청원리 1355번지 경인빌딩 1층 103호","category":"유통업 영리 - 슈퍼마켓"}]},{"lat":"37.182914505","long":"126.76228328","items":[{"name":"구내식당","tel":"031-356-2718","addr":"경기도 화성시 마도면 청원리 375-10번지","category":"일반휴게음식 - 위탁급식업"}]},{"lat":"37.189441327","long":"126.76842306","items":[{"name":"노여사집밥","tel":"031-356-5111","addr":"경기도 화성시 마도면 청원리 37번지 1층","category":"일반휴게음식 - 일반한식"}]},{"lat":"37.17716537","long":"126.78047593","items":[{"name":"다오퍼니처","tel":"031-831-5500","addr":"경기도 화성시 마도면 청원리 825-1번지 다오퍼니처","category":"가구 - 기타가구"}]},{"lat":"37.166861376","long":"126.77778146","items":[{"name":"다울패키지","tel":"031-355-0619","addr":"경기도 화성시 마도면 청원리 1381번지 3층","category":"유통업 영리 - 기타유통업"},{"name":"피엔에스코리아(P&S Korea)","tel":"031-357-7812","addr":"경기도 화성시 마도면 청원리 1381번지 나동","category":"유통업 영리 - 기타유통업"}]},{"lat":"37.183551161","long":"126.7652205","items":[{"name":"다원쇼파","tel":"031-356-7842","addr":"경기도 화성시 마도면 청원리 435-4 1,2동","category":"가구 - 일반가구"}]},{"lat":"37.17485222","long":"126.76778128","items":[{"name":"다원식당","tel":"070-8828-8529","addr":"경기도 화성시 마도면 청원리 1280번지 1층 일부","category":"일반휴게음식 - 위탁급식업"}]},{"lat":"37.179772579","long":"126.75919651","items":[{"name":"대복부페식당","tel":"031-357-4550","addr":"경기도 화성시 마도면 청원리 351-63번지 1층","category":"일반휴게음식 - 일반한식"}]},{"lat":"37.17541405","long":"126.77872447","items":[{"name":"동양하이텍","tel":"070-7702-5114","addr":"경기도 화성시 마도면 청원리 886번지","category":"신변잡화 - 기타잡화"}]},{"lat":"37.179608495","long":"126.75394949","items":[{"name":"동원갈비","tel":"031-355-7488","addr":"경기도 화성시 마도면 청원리 1116","category":"일반휴게음식 - 일반한식"}]},{"lat":"37.187884726","long":"126.7650042","items":[{"name":"동해정밀","tel":"","addr":"경기도 화성시 마도면 청원리 241-3번지","category":"기타 - 기계공구"}]},{"lat":"37.183128407","long":"126.75675328","items":[{"name":"드림모터스 청원점","tel":"031-357-2957","addr":"경기도 화성시 마도면 청원리 316번지 1층","category":"자동차정비 유지 - 자동차정비"}]},{"lat":"37.172189766","long":"126.76558261","items":[{"name":"마도공단점 호야치킨","tel":"031-366-7608","addr":"경기도 화성시 마도면 청원리 1335번지 101호","category":"일반휴게음식 - 스넥"},{"name":"미가정","tel":"031-356-9767","addr":"경기도 화성시 마도면 청원리 1335번지 한화바이오밸리오피스텔 1동 107호","category":"일반휴게음식 - 일반한식"},{"name":"송손노래연습장","tel":"031-355-3830","addr":"경기도 화성시 마도면 청원리 1335번지 203호","category":"레저업소 - 노 래 방"},{"name":"카페유니드201(CAFE UNEED 201)","tel":"031-8043-5212","addr":"경기도 화성시 마도면 청원리 1335번지 105-1호","category":"일반휴게음식 - 서양음식"}]},{"lat":"37.172163636","long":"126.76603309","items":[{"name":"마도바이오마트","tel":"031-366-7399","addr":"경기도 화성시 마도면 청원리 1341번지 131호 ,132,133호","category":"유통업 영리 - 슈퍼마켓"},{"name":"씨유화성누리자점","tel":"080-080-3663","addr":"경기도 화성시 마도면 청원리 1341번지 누리자타워 1층 105호, 106호","category":"유통업 영리 - 편 의 점"},{"name":"육대장 화성바이오밸리점","tel":"031-8043-8541","addr":"경기도 화성시 마도면 청원리 1341번지 누리자타운 1층 118,119,120호","category":"일반휴게음식 - 일반한식"}]},{"lat":"37.166526235","long":"126.77685922","items":[{"name":"마스터테크","tel":"031-8077-9410","addr":"경기도 화성시 마도면 청원리 1386번지","category":"기타 - 기계공구"}]},{"lat":"37.188716863","long":"126.76211847","items":[{"name":"만물공구","tel":"031-355-4704","addr":"경기도 화성시 마도면 청원리 228-25번지","category":"기타 - 기계공구"}]},{"lat":"37.171827614","long":"126.77385962","items":[{"name":"메밀근면&비비랩","tel":"031-1688-1329","addr":"경기도 화성시 마도면 청원리 1356번지 103,104,105호","category":"일반휴게음식 - 일반한식"}]},{"lat":"37.188298759","long":"126.76034038","items":[{"name":"명륜마트","tel":"031-355-5136","addr":"경기도 화성시 마도면 청원리 215-1번지 일부","category":"유통업 영리 - 슈퍼마켓"}]},{"lat":"37.187656054","long":"126.76780916","items":[{"name":"명우산업","tel":"031-357-6442","addr":"경기도 화성시 마도면 청원리 241-26번지","category":"건축자재 - 기타건축자재"}]},{"lat":"37.190295019","long":"126.76277794","items":[{"name":"명지","tel":"","addr":"경기도 화성시 마도면 청원리 74-2번지","category":"건강식품 - 기타건강식품"}]},{"lat":"37.176523076","long":"126.7607834","items":[{"name":"명품구제샵","tel":"","addr":"경기도 화성시 마도면 청원리 1168-1번지 1동","category":"의류 - 정장"}]},{"lat":"37.167303099","long":"126.77789274","items":[{"name":"무지개식당","tel":"","addr":"경기도 화성시 마도면 청원리 1380번지 1층","category":"일반휴게음식 - 위탁급식업"},{"name":"주식회사 아이앤티산업","tel":"031-319-2755","addr":"경기도 화성시 마도면 청원리 1380번지","category":"기타 - 기계공구"}]},{"lat":"37.172215419","long":"126.76489569","items":[{"name":"미가한식뷔페","tel":"031-356-9767","addr":"경기도 화성시 마도면 청원리 1333번지 1동 105,106,107호","category":"일반휴게음식 - 일반한식"},{"name":"정일품두루치기","tel":"031-356-6553","addr":"경기도 화성시 마도면 청원리 1333번지 1층 103,104호","category":"일반휴게음식 - 일반한식"},{"name":"짬뽕전문점궁","tel":"031-356-6911","addr":"경기도 화성시 마도면 청원리 1333번지 1층 108,109호","category":"일반휴게음식 - 중국식"}]},{"lat":"37.192379725","long":"126.7644157","items":[{"name":"미니스톱 화성청원점","tel":"031-1577-9621","addr":"경기도 화성시 마도면 청원리 107-6번지","category":"유통업 영리 - 편 의 점"},{"name":"황금성","tel":"031-355-6607","addr":"경기도 화성시 마도면 청원리 107-6번지","category":"일반휴게음식 - 중국식"}]},{"lat":"37.1885519","long":"126.76075627","items":[{"name":"바니치킨","tel":"031-355-3680","addr":"경기도 화성시 마도면 청원리 224-5번지 1층 102호","category":"일반휴게음식 - 일반한식"},{"name":"수원순대국","tel":"031-355-6968","addr":"경기도 화성시 마도면 청원리 224-5번지 1층 101호","category":"일반휴게음식 - 일반한식"}]},{"lat":"37.185439153","long":"126.75872784","items":[{"name":"삼성백년식당","tel":"031-356-9277","addr":"경기도 화성시 마도면 청원리 289-1번지","category":"일반휴게음식 - 일반한식"}]},{"lat":"37.170717536","long":"126.76833454","items":[{"name":"삼일특수강정공","tel":"031-297-3265","addr":"경기도 화성시 마도면 청원리 1442번지","category":"기타 - 기계공구"}]},{"lat":"37.175798486","long":"126.76786843","items":[{"name":"세믹코리아","tel":"031-8059-2761","addr":"경기도 화성시 마도면 청원리 1273번지 나동(바이오밸리2-1블럭)","category":"기타 - 기계공구"}]},{"lat":"37.17137998","long":"126.7753585","items":[{"name":"세븐일레븐화성바이오밸리점","tel":"031-1577-0711","addr":"경기도 화성시 마도면 청원리 1368번지","category":"유통업 영리 - 편 의 점"},{"name":"아리랑한식부페","tel":"031-747-8874","addr":"경기도 화성시 마도면 청원리 1368번지 1층","category":"일반휴게음식 - 일반한식"}]},{"lat":"37.172189111","long":"126.76525608","items":[{"name":"손식당","tel":"031-357-3218","addr":"경기도 화성시 마도면 청원리 1334번지","category":"일반휴게음식 - 중국식"},{"name":"정명품 부대찌개","tel":"031-355-4493","addr":"경기도 화성시 마도면 청원리 1334번지 동학타운 1층 103호","category":"일반휴게음식 - 일반한식"},{"name":"하이런 당구클럽","tel":"","addr":"경기도 화성시 마도면 청원리 1334번지 2층","category":"레저업소 - 당 구 장"}]},{"lat":"37.174995599","long":"126.76289392","items":[{"name":"승직농원","tel":"","addr":"경기도 화성시 마도면 청원리 564-4번지","category":"음료식품 - 농·축·수산품"}]},{"lat":"37.185159136","long":"126.75839089","items":[{"name":"씨유화성마도바이오점","tel":"080-080-3663","addr":"경기도 화성시 마도면 청원리 286-1번지","category":"유통업 영리 - 편 의 점"},{"name":"이가네","tel":"031-357-9814","addr":"경기도 화성시 마도면 청원리 286-1번지","category":"일반휴게음식 - 일반한식"}]},{"lat":"37.18998958","long":"126.7632294","items":[{"name":"씨유화성마도청원점","tel":"031-898-6568","addr":"경기도 화성시 마도면 청원리 71번지","category":"유통업 영리 - 편 의 점"}]},{"lat":"37.16721697","long":"126.76605978","items":[{"name":"암스텍","tel":"031-355-9980","addr":"경기도 화성시 마도면 청원리 1485번지 19-1,2,3","category":"일반휴게음식 - 일반한식"}]},{"lat":"37.183525049","long":"126.75684208","items":[{"name":"양푼이찌개나라&삼겹살","tel":"031-366-4284","addr":"경기도 화성시 마도면 청원리 319번지 1층","category":"일반휴게음식 - 일반한식"}]},{"lat":"37.186045461","long":"126.75999847","items":[{"name":"엔틱카페엘리스의정원","tel":"031-1111-1111","addr":"경기도 화성시 마도면 청원리 265-8번지 1층","category":"일반휴게음식 - 서양음식"}]},{"lat":"37.189218978","long":"126.76536041","items":[{"name":"장독대 한식뷔페","tel":"031-355-6570","addr":"경기도 화성시 마도면 청원리 66-19번지 1동","category":"일반휴게음식 - 일반한식"}]},{"lat":"37.171578424","long":"126.7754705","items":[{"name":"정주영순대국","tel":"031-357-3156","addr":"경기도 화성시 마도면 청원리 1250-5번지 1층 104호","category":"일반휴게음식 - 일반한식"}]},{"lat":"37.189131971","long":"126.75802895","items":[{"name":"정태순한식뷔페","tel":"031-355-2990","addr":"경기도 화성시 마도면 청원리 200-1번지 2층","category":"일반휴게음식 - 일반한식"}]},{"lat":"37.179161997","long":"126.76919804","items":[{"name":"종가집한식부페","tel":"031-355-4920","addr":"경기도 화성시 마도면 청원리 586-6번지","category":"일반휴게음식 - 일반한식"}]},{"lat":"37.18746862","long":"126.76419464","items":[{"name":"주식회사 광염팩","tel":"031-355-2175","addr":"경기도 화성시 마도면 청원리 241번지","category":"유통업 영리 - 기타유통업"}]},{"lat":"37.168772473","long":"126.77824868","items":[{"name":"주식회사 신양화학","tel":"031-418-6127","addr":"경기도 화성시 마도면 청원리 1377번지 (경기화성바이오밸리1-17-4블럭)","category":"건축자재 - 기타건축자재"}]},{"lat":"37.170324815","long":"126.77486624","items":[{"name":"주식회사 한국스틸웨어","tel":"031-357-2075","addr":"경기도 화성시 마도면 청원리 1406번지","category":"건축자재 - 기타건축자재"}]},{"lat":"37.193190383","long":"126.764278","items":[{"name":"주식회사 해연","tel":"031-111-1111","addr":"경기도 화성시 마도면 청원리 110-3번지","category":"일반휴게음식 - 일반한식"}]},{"lat":"37.178358587","long":"126.78253313","items":[{"name":"주식회사아웃트리캠프","tel":"070-7785-4628","addr":"경기도 화성시 마도면 청원리 761-2번지","category":"레져용품 - 스포츠·레져용품"}]},{"lat":"37.190989085","long":"126.75417117","items":[{"name":"창세기프트","tel":"","addr":"경기도 화성시 마도면 청원리 189번지","category":"유통업 영리 - 기타유통업"}]},{"lat":"37.184549666","long":"126.77352841","items":[{"name":"청원농원","tel":"031-000-0000","addr":"경기도 화성시 마도면 청원리 613번지","category":"음료식품 - 농·축·수산품"}]},{"lat":"37.178215333","long":"126.77822072","items":[{"name":"청원목공방","tel":"031-366-9594","addr":"경기도 화성시 마도면 청원리 729번지","category":"건축자재 - 목재·석재·철물"}]},{"lat":"37.189603669","long":"126.76850139","items":[{"name":"청원사철탕","tel":"031-555-7274","addr":"경기도 화성시 마도면 청원리 37번지 A동","category":"일반휴게음식 - 일반한식"}]},{"lat":"37.188022037","long":"126.76161388","items":[{"name":"청원초등학교병설유치원[아이행복]","tel":"031-356-2307","addr":"경기도 화성시 마도면 청원리 228-4번지 청원초등학교","category":"학원 - 유치원"}]},{"lat":"37.188603054","long":"126.75933707","items":[{"name":"청원카센타","tel":"031-227-0143","addr":"경기도 화성시 마도면 청원리 202번지","category":"자동차정비 유지 - 자동차정비"}]},{"lat":"37.188601105","long":"126.75839106","items":[{"name":"청준옥","tel":"031-357-9392","addr":"경기도 화성시 마도면 청원리 202-7","category":"일반휴게음식 - 일반한식"}]},{"lat":"37.185441538","long":"126.75988779","items":[{"name":"팔팔육일(8861)","tel":"070-7716-8992","addr":"경기도 화성시 마도면 청원리 396-2번지 2층","category":"전기제품 - 가전제품"}]},{"lat":"37.188932928","long":"126.76202768","items":[{"name":"펫세끼","tel":"031-000-0000","addr":"경기도 화성시 마도면 청원리 228-1번지","category":"문화.취미 - 애완동물"}]},{"lat":"37.168939552","long":"126.77608641","items":[{"name":"프로텍","tel":"031-356-2388","addr":"경기도 화성시 마도면 청원리 1398번지","category":"기타 - 기계공구"}]},{"lat":"37.182655794","long":"126.7591422","items":[{"name":"하나톱","tel":"031-352-6882","addr":"경기도 화성시 마도면 청원리 380-4번지 1동","category":"기타 - 기계공구"}]},{"lat":"37.171081724","long":"126.77024754","items":[{"name":"형제산업","tel":"031-355-7924","addr":"경기도 화성시 마도면 청원리 1423번지","category":"기타 - 기계공구"}]},{"lat":"37.191182688","long":"126.76508395","items":[{"name":"화성건재","tel":"031-355-4944","addr":"경기도 화성시 마도면 청원리 60-1번지","category":"건축자재 - 기타건축자재"}]}]