[{"lat":"37.080621479","long":"127.16805502","imageIndex":17,"items":[{"name":"가야스포츠","tel":"031-651-6013","addr":"경기도 안성시 원곡면 성주리 165번지","indutype":"기타 - 기타 전문점","category":"other"}]},{"lat":"37.088123191","long":"127.15066046","imageIndex":17,"items":[{"name":"뜰안애","tel":"031-376-6377","addr":"경기도 안성시 원곡면 성주리 318","indutype":"문화.취미 - 화원","category":"other"}]},{"lat":"37.088150978","long":"127.15005316","imageIndex":17,"items":[{"name":"성은종합농기계","tel":"031-656-3360","addr":"경기도 안성시 원곡면 성주리 316-3","indutype":"농업 - 농기계","category":"other"},{"name":"송백가구","tel":"031-651-5409","addr":"경기도 안성시 원곡면 성주리 316-3번지","indutype":"가구 - 일반가구","category":"other"},{"name":"에스와이타이어","tel":"031-658-7626","addr":"경기도 안성시 원곡면 성주리 316-3번지","indutype":"농업 - 농기계","category":"other"}]},{"lat":"37.090403233","long":"127.1503612","imageIndex":17,"items":[{"name":"알타무역(Alta Trading Corp.)","tel":"031-655-5052","addr":"경기도 안성시 원곡면 성주리 307-4번지","indutype":"기타 - 기계공구","category":"other"}]},{"lat":"37.086123367","long":"127.17685087","imageIndex":17,"items":[{"name":"유한회사 마도로스키친","tel":"02-2054-8292","addr":"경기도 안성시 원곡면 성주리 10-2번지 1층","indutype":"문화.취미 - 애완동물","category":"other"},{"name":"유한회사 마도로스키친","tel":"02-2054-8737","addr":"경기도 안성시 원곡면 성주리 10-2번지","indutype":"문화.취미 - 애완동물","category":"other"},{"name":"유한회사 마도로스펫","tel":"031-274-0489","addr":"경기도 안성시 원곡면 성주리 10-2번지","indutype":"농업 - 비료,사료,종자","category":"other"}]},{"lat":"37.089874965","long":"127.14763827","imageIndex":17,"items":[{"name":"은성화학(주)","tel":"031-658-4087","addr":"경기도 안성시 원곡면 성주리 356-6번지","indutype":"전기제품 - 기타전기제품","category":"other"}]},{"lat":"37.085791212","long":"127.16971954","imageIndex":17,"items":[{"name":"진흥산업","tel":"031-656-9142","addr":"경기도 안성시 원곡면 성주리 122-2","indutype":"수리서비스 - 기타수리서비스","category":"other"}]},{"lat":"37.088680946","long":"127.158411","imageIndex":17,"items":[{"name":"펜타스 간이서점","tel":"070-4350-3073","addr":"경기도 안성시 원곡면 성주리 257번지","indutype":"서적문구 - 일반서적","category":"other"}]},{"lat":"37.088571863","long":"127.14480145","imageIndex":17,"items":[{"name":"한국표준협회","tel":"02-6009-4535","addr":"경기도 안성시 원곡면 성주리 362-1번지","indutype":"기타 - 비영리/대상","category":"other"}]}]