[{"lat":"37.281212264","long":"127.15379971","items":[{"name":"(주)골드문투어","tel":"031-111-1111","addr":"경기도 용인시 기흥구 동백동 626-5번지 103-1호","category":"여행 - 관광여행"},{"name":"꿈꾸는 팩토수학","tel":"","addr":"경기도 용인시 기흥구 동백동 626-5번지 202호","category":"학원 - 기타 교육기관"},{"name":"조명인테리어","tel":"031-202-8080","addr":"경기도 용인시 기흥구 동백동 626-5번지 1층","category":"건축자재 - 조명기구"},{"name":"피씨헌터","tel":"031-693-6119","addr":"경기도 용인시 기흥구 동백동 626-5번지","category":"수리서비스 - 사무·통신기기수리"}]},{"lat":"37.282295002","long":"127.15957525","items":[{"name":"(주)유니화이","tel":"031-548-0750","addr":"경기도 용인시 기흥구 동백동 598-1번지 지우프라자","category":"학원 - 독서실"},{"name":"H핫요가","tel":"031-274-7757","addr":"경기도 용인시 기흥구 동백동 598-1번지 지우프라자 6층","category":"회원제형태 - 레져업소"},{"name":"가인치과","tel":"031-693-9477","addr":"경기도 용인시 기흥구 동백동 598-1번지 지우프라자 4층","category":"의원 - 치과의원"},{"name":"가인치과의원","tel":"031-693-9477","addr":"경기도 용인시 기흥구 동백동 598-1번지 지우프라자 403호","category":"의원 - 치과의원"},{"name":"동백삼성내과의원","tel":"031-693-8998","addr":"경기도 용인시 기흥구 동백동 598-1번지 지우프라자 2층","category":"의원 - 의원"},{"name":"동백진치과의원","tel":"031-693-9477","addr":"경기도 용인시 기흥구 동백동 598-1번지 지우프라자 4층 3호","category":"의원 - 치과의원"},{"name":"샘물약국","tel":"031-286-7594","addr":"경기도 용인시 기흥구 동백동 598-1번지 지우프라자 1층 7호","category":"약국 - 약국"},{"name":"아이디아학원","tel":"031-282-2572","addr":"경기도 용인시 기흥구 동백동 598-1번지 지우프라자 5층 3호","category":"학원 - 보습학원"},{"name":"알파대림문구","tel":"031-693-6888","addr":"경기도 용인시 기흥구 동백동 3101-1 지우프라자지층","category":"서적문구 - 문구용품"},{"name":"에이플러스스카이학원","tel":"031-281-0582","addr":"경기도 용인시 기흥구 동백동 598-1번지 지우프라자 5층 일부","category":"학원 - 보습학원"},{"name":"참바른신경외과","tel":"031-284-5007","addr":"경기도 용인시 기흥구 동백동 598-1번지 지우프라자 3층","category":"의원 - 의원"},{"name":"최상인비전학원/(주)최상인비전","tel":"031-274-8838","addr":"경기도 용인시 기흥구 동백동 598-1번지 지우프라자 7층","category":"학원 - 보습학원"}]},{"lat":"37.281934638","long":"127.15954068","items":[{"name":"(주)유캔영어학원","tel":"031-285-0081","addr":"경기도 용인시 기흥구 동백동 598-8번지 경안빌딩 701호","category":"회원제형태 - 학원"},{"name":"도꼬돈부리","tel":"031-111-1111","addr":"경기도 용인시 기흥구 동백동 598-8번지 경안빌딩 105호 일부","category":"일반휴게음식 - 일반한식"},{"name":"동백트리플에이치과의원","tel":"031-713-8875","addr":"경기도 용인시 기흥구 동백동 598-8번지 경안빌딩 5층","category":"의원 - 치과의원"},{"name":"미플러스","tel":"031-274-8683","addr":"경기도 용인시 기흥구 동백동 598-8번지 경안빌딩 302호","category":"보건위생 - 화장품"},{"name":"예인음악학원","tel":"031-693-8411","addr":"경기도 용인시 기흥구 동백동 598-8번지 경안빌딩 3층 302호","category":"학원 - 예·체능계학원"},{"name":"이투스수학동백학원","tel":"031-282-3567","addr":"경기도 용인시 기흥구 동백동 598-8번지 경안빌딩 402호","category":"학원 - 보습학원"},{"name":"장미홈토탈","tel":"031-8005-6555","addr":"경기도 용인시 기흥구 동백동 598-8중앙프라자제1층109-1호","category":"직물 - 카페트,커튼,천막,지물"},{"name":"참경희한의원","tel":"031-693-6936","addr":"경기도 용인시 기흥구 동백동 3101-7경안빌딩202","category":"의원 - 한의원"},{"name":"커브스 동백클럽","tel":"031-286-4230","addr":"경기도 용인시 기흥구 동백동 598-8번지 경안빌딩 4층 402호","category":"회원제형태 - 레져업소"},{"name":"태웅회관","tel":"031-281-1003","addr":"경기도 용인시 기흥구 동백동 598-8번지 경안빌딩 6층 602호","category":"레저업소 - 헬스클럽"},{"name":"트리안약국","tel":"031-693-5353","addr":"경기도 용인시 기흥구 동백동 598-8 경안빌딩103","category":"약국 - 약국"},{"name":"허브미술학원","tel":"031-282-2040","addr":"경기도 용인시 기흥구 동백동 598-8번지 경안빌딩302호일부","category":"학원 - 예·체능계학원"},{"name":"힘찬 경희대 태권도장","tel":"031-285-8111","addr":"경기도 용인시 기흥구 동백동 598-8번지 경안빌딩 601호","category":"학원 - 예·체능계학원"}]},{"lat":"37.283655427","long":"127.15271078","items":[{"name":"(주)커스텀커피","tel":"031-239-2934","addr":"경기도 용인시 기흥구 동백동 612-6번지 1층","category":"일반휴게음식 - 서양음식"},{"name":"커스텀컴퍼니","tel":"070-4458-7007","addr":"경기도 용인시 기흥구 동백동 612-6번지 102호","category":"음료식품 - 기타음료식품"}]},{"lat":"37.28285263","long":"127.15340832","items":[{"name":"(주)테라커피","tel":"032-665-2213","addr":"경기도 용인시 기흥구 동백동 619-1번지 1층","category":"음료식품 - 기타음료식품"},{"name":"이디야 (동백호수점)","tel":"031-284-8553","addr":"경기도 용인시 기흥구 동백동 619-1번지","category":"일반휴게음식 - 서양음식"},{"name":"쿠키상자","tel":"031-309-9125","addr":"경기도 용인시 기흥구 동백동 619-1번지","category":"음료식품 - 제과점"}]},{"lat":"37.282681435","long":"127.15340798","items":[{"name":"1001안경콘택트(용인동백점)","tel":"031-693-8896","addr":"경기도 용인시 기흥구 동백동 619-2번지","category":"보건위생 - 안경"}]},{"lat":"37.281681828","long":"127.15993481","items":[{"name":"11월의 아침학원","tel":"031-281-4112","addr":"경기도 용인시 기흥구 동백동 598-6번지 두빈빌딩 6층","category":"학원 - 보습학원"},{"name":"고봉민김밥인","tel":"031-286-5477","addr":"경기도 용인시 기흥구 동백동 598-6번지 두빈빌딩 1층 103호","category":"일반휴게음식 - 일반한식"},{"name":"김밥천국","tel":"031-286-4568","addr":"경기도 용인시 기흥구 동백동 598-6번지 두빈빌딩 103호","category":"일반휴게음식 - 스넥"},{"name":"동백정철어학원","tel":"031-693-9905","addr":"경기도 용인시 기흥구 동백동 598-6번지 두빈빌딩 501호","category":"학원 - 외국어학원"},{"name":"라온","tel":"031-281-7677","addr":"경기도 용인시 기흥구 동백동 598-6번지 두빈빌딩 2층","category":"보건위생 - 미용원"},{"name":"모두가정의원","tel":"031-275-0005","addr":"경기도 용인시 기흥구 동백동 598-6번지 두빈빌딩 302호","category":"의원 - 의원"},{"name":"용인백현씨앤씨미술학원","tel":"031-274-5647","addr":"경기도 용인시 기흥구 동백동 598-6번지 두빈빌딩 202호","category":"학원 - 예·체능계학원"},{"name":"은혜약국","tel":"031-285-9907","addr":"경기도 용인시 기흥구 동백동 598-6번지 두빈빌딩 1층 102호","category":"약국 - 약국"},{"name":"은혜약국","tel":"031-285-9907","addr":"경기도 용인시 기흥구 동백동 598-6번지 두빈빌딩 102호","category":"약국 - 약국"},{"name":"이정영어수학전문학원","tel":"031-284-1090","addr":"경기도 용인시 기흥구 동백동 598-6번지 두빈빌딩 301호","category":"학원 - 보습학원"},{"name":"프라임에듀학원","tel":"070-4201-5557","addr":"경기도 용인시 기흥구 동백동 598-6번지 두빈빌딩 6층 601호","category":"학원 - 보습학원"},{"name":"플레이영점프짐","tel":"02-000-0000","addr":"경기도 용인시 기흥구 동백동 598-6번지 702호 701호,702호","category":"레저업소 - 기타레져업소"}]},{"lat":"37.283908696","long":"127.15193321","items":[{"name":"153(일오삼)","tel":"070-7650-3125","addr":"경기도 용인시 기흥구 동백동 611-14번지","category":"의류 - 내의판매"}]},{"lat":"37.281464398","long":"127.16082517","items":[{"name":"2도비어 동백백현점","tel":"031-281-2225","addr":"경기도 용인시 기흥구 동백동 597-1번지 미래도프라자 105호","category":"일반휴게음식 - 주점"},{"name":"강남왕족발","tel":"031-274-0109","addr":"경기도 용인시 기흥구 동백동 597-1번지 미래도프라자 1층 103호","category":"일반휴게음식 - 일반한식"},{"name":"강남이반한닭꼬치 용인동백점","tel":"031-274-0737","addr":"경기도 용인시 기흥구 동백동 597-1번지 미래도프라자 107호","category":"일반휴게음식 - 일반한식"},{"name":"그리다.헤어","tel":"031-287-4008","addr":"경기도 용인시 기흥구 동백동 597-1번지 미래도프라자 1층 108호","category":"보건위생 - 미용원"},{"name":"네임드짐요가","tel":"031-284-8837","addr":"경기도 용인시 기흥구 동백동 597-1번지 미래도프라자 302호","category":"레저업소 - 헬스클럽"},{"name":"다니네일(DANI NAIL)","tel":"031-274-4031","addr":"경기도 용인시 기흥구 동백동 597-1번지 미래도프라자 2층 205호","category":"보건위생 - 피부미용실"},{"name":"더스팟(The Spot)","tel":"031-274-4743","addr":"경기도 용인시 기흥구 동백동 597-1번지 미래도프라자 102호","category":"건강식품 - 기타건강식품"},{"name":"동백미소약국","tel":"031-693-6097","addr":"경기도 용인시 기흥구 동백동 597-1번지 미래도프라자 106호","category":"약국 - 약국"},{"name":"동백바둑","tel":"031-693-7337","addr":"경기도 용인시 기흥구 동백동 597-1번지 미래프라자 503호","category":"학원 - 기타 교육기관"},{"name":"동백수학전문매쓰로드학원","tel":"031-274-6788","addr":"경기도 용인시 기흥구 동백동 597-1번지 미래도프라자 5층 502호","category":"학원 - 보습학원"},{"name":"동백예일음악학원","tel":"031-287-5437","addr":"경기도 용인시 기흥구 동백동 597-1번지 미래도프라자 605,606호","category":"학원 - 예·체능계학원"},{"name":"동백이보영의토킹클럽어학원","tel":"031-274-9311","addr":"경기도 용인시 기흥구 동백동 597-1번지 미래도프라자 604호","category":"학원 - 외국어학원"},{"name":"메이젠 (기흥동백점)","tel":"02-1234-1234","addr":"경기도 용인시 기흥구 동백동 597-1번지 미래도프라자 112호","category":"일반휴게음식 - 서양음식"},{"name":"미래도독서실","tel":"031-352-6996","addr":"경기도 용인시 기흥구 동백동 597-1미래도프라자601.602.603호","category":"학원 - 독서실"},{"name":"생각n논리 동백점 논술교습소","tel":"070-7545-8300","addr":"경기도 용인시 기흥구 동백동 597-1번지 미래도프라자 206호","category":"회원제형태 - 학원"},{"name":"샤보이동백점","tel":"031-274-4568","addr":"경기도 용인시 기흥구 동백동 597-1번지 미래도프라자 111호","category":"보건위생 - 미용원"},{"name":"스파컬러링","tel":"031-1522-2787","addr":"경기도 용인시 기흥구 동백동 597-1번지 미래도프라자 204호","category":"보건위생 - 미용원"},{"name":"시너지영어학원","tel":"031-274-0582","addr":"경기도 용인시 기흥구 동백동 597-1번지 미래도프라자 501호","category":"학원 - 외국어학원"},{"name":"아침에떡","tel":"031-693-8873","addr":"경기도 용인시 기흥구 동백동 597-1번지 미래도프라자 109호","category":"음료식품 - 제과점"},{"name":"연세해맑은피부과의원","tel":"031-693-7582","addr":"경기도 용인시 기흥구 동백동 597-1번지 미래도프라자 405호 406","category":"의원 - 의원"},{"name":"연세해맑은피부과의원","tel":"031-693-7582","addr":"경기도 용인시 기흥구 동백동 3201-1,미래도프라자405,406","category":"의원 - 의원"},{"name":"예미나헤어","tel":"031-274-7014","addr":"경기도 용인시 기흥구 동백동 597-1번지 미래도프라자 205호","category":"보건위생 - 미용원"},{"name":"유앤아이","tel":"031-896-8837","addr":"경기도 용인시 기흥구 동백동 597-1번지 미래도프라자 201,202,203호","category":"회원제형태 - 레져업소"},{"name":"이레보습학원","tel":"031-274-7371","addr":"경기도 용인시 기흥구 동백동 597-1번지 미래도프라자 502호","category":"회원제형태 - 학원"},{"name":"이챕터스영어학원","tel":"031-281-3637","addr":"경기도 용인시 기흥구 동백동 597-1번지 미래도프라자 401호","category":"회원제형태 - 학원"},{"name":"좋은날","tel":"070-4922-1261","addr":"경기도 용인시 기흥구 동백동 597-1번지 미래도프라자 1층 104호","category":"일반휴게음식 - 서양음식"},{"name":"주식회사 엘티씨퍼포먼스","tel":"031-284-8837","addr":"경기도 용인시 기흥구 동백동 597-1번지 미래도프라자 302호","category":"레저업소 - 헬스클럽"},{"name":"주식회사 탑클래스교육","tel":"031-693-8111","addr":"경기도 용인시 기흥구 동백동 597-1번지 미래도프라자 504동 506호","category":"학원 - 보습학원"},{"name":"컬럼비아치과","tel":"031-693-7528","addr":"경기도 용인시 기흥구 동백동 3201-1미래도프라자701,702,704,705","category":"의원 - 치과의원"},{"name":"킨더리베아동상담센터","tel":"031-286-3455","addr":"경기도 용인시 기흥구 동백동 597-1번지 미래도프라자 303호","category":"보건위생 - 기타대인서비스"},{"name":"파란고래미술학원","tel":"031-693-7740","addr":"경기도 용인시 기흥구 동백동 597-1번지 미래도프라자 3동 301호","category":"학원 - 예·체능계학원"},{"name":"파울러스커피클럽(pauluscoffeeclub)","tel":"","addr":"경기도 용인시 기흥구 동백동 597-1번지 미래도프라자 1동 1층 108-1호","category":"일반휴게음식 - 서양음식"},{"name":"하나텔레콤백현","tel":"031-282-1224","addr":"경기도 용인시 기흥구 동백동 597-1번지 미래도프라자 113호","category":"사무통신 - 통신기기"},{"name":"홈메이드김밥(백반) 김밥","tel":"031-287-0829","addr":"경기도 용인시 기흥구 동백동 597-1번지 미래도프라자 1층 102호","category":"일반휴게음식 - 일반한식"},{"name":"효재찬방","tel":"031-8005-7767","addr":"경기도 용인시 기흥구 동백동 597-1번지 미래도프라자 110호","category":"음료식품 - 기타음료식품"}]},{"lat":"37.285042331","long":"127.15324353","items":[{"name":"3M카케어센타","tel":"031-286-9009","addr":"경기도 용인시 기흥구 동백동 606-2번지","category":"자동차정비 유지 - 카인테리어"}]},{"lat":"37.284906862","long":"127.15349134","items":[{"name":"7번가 피자 동백점","tel":"031-287-7772","addr":"경기도 용인시 기흥구 동백동 605-7번지 1층","category":"일반휴게음식 - 서양음식"},{"name":"정[  ]:육점","tel":"","addr":"경기도 용인시 기흥구 동백동 605-7번지 103호","category":"음료식품 - 정육점"},{"name":"정재스반찬","tel":"031-000-0000","addr":"경기도 용인시 기흥구 동백동 605-7번지 1층","category":"음료식품 - 기타음료식품"}]},{"lat":"37.283041459","long":"127.16062549","items":[{"name":"CAE영어교습소","tel":"","addr":"경기도 용인시 기흥구 동백동 599번지 모아미래도 상가 202호","category":"학원 - 외국어학원"},{"name":"동백꽃","tel":"031-693-5222","addr":"경기도 용인시 기흥구 동백동 599 백현마을모아미래도상가 101","category":"문화.취미 - 화원"},{"name":"마마쿠래프트","tel":"031-287-6512","addr":"경기도 용인시 기흥구 동백동 599번지 백현마을모아미래도 203호","category":"직물 - 침구·수예점"},{"name":"야미","tel":"031-8273-2595","addr":"경기도 용인시 기흥구 동백동 599번지 백현마을모아미래도1단지아파트 상가동 106-2호","category":"음료식품 - 기타음료식품"},{"name":"커피에반하다","tel":"031-282-5279","addr":"경기도 용인시 기흥구 동백동 599번지 백현마을모아미래도상가103-2호","category":"일반휴게음식 - 서양음식"},{"name":"피자스쿨 용인동백점","tel":"031-693-4884","addr":"경기도 용인시 기흥구 동백동 599번지 백현마을 모아미래도 상가동 103호 일부","category":"일반휴게음식 - 서양음식"},{"name":"헤어스타일","tel":"031-693-2010","addr":"경기도 용인시 기흥구 동백동 599번지 백현마을모아미래도 상가동 101호","category":"보건위생 - 미용원"}]},{"lat":"37.28207","long":"127.15938309","items":[{"name":"CJ상사(뷰티하우스)","tel":"031-203-3533","addr":"경기도 용인시 기흥구 동백동 598-9번지 신동백빌딩 103호","category":"보건위생 - 미용재료"},{"name":"동백검도관","tel":"031-693-6007","addr":"경기도 용인시 기흥구 동백동 3101-8신동백빌딩6층2","category":"학원 - 예·체능계학원"},{"name":"동백복싱클럽","tel":"031-693-6922","addr":"경기도 용인시 기흥구 동백동 598-9번지 신동백빌딩 601호","category":"레저업소 - 헬스클럽"},{"name":"동백열린치과의원","tel":"031-693-8275","addr":"경기도 용인시 기흥구 동백동 3101-8신동백빌딩402","category":"의원 - 치과의원"},{"name":"동백한우리독서논술학원","tel":"031-693-6454","addr":"경기도 용인시 기흥구 동백동 3101-8신동백빌딩701","category":"학원 - 기타 교육기관"},{"name":"미나벨라여성의원","tel":"031-287-9911","addr":"경기도 용인시 기흥구 동백동 598-9번지 2층","category":"의원 - 의원"},{"name":"미래i소아과의원","tel":"031-693-6135","addr":"경기도 용인시 기흥구 동백동 598-9번지 백현마을신동백빌딩 301호","category":"의원 - 의원"},{"name":"신동백약국","tel":"031-693-7002","addr":"경기도 용인시 기흥구 동백동 598-9번지 신동백빌딩","category":"약국 - 약국"},{"name":"웰히어링센터","tel":"031-693-5075","addr":"경기도 용인시 기흥구 동백동 598-9번지 신동백빌딩 5층 501호","category":"보건위생 - 의료용품"},{"name":"조은이비인후과의원","tel":"031-693-5075","addr":"경기도 용인시 기흥구 동백동 598-9번지 신동백빌딩 5층 502호","category":"의원 - 의원"},{"name":"파리바게뜨동백백현점","tel":"031-287-8201","addr":"경기도 용인시 기흥구 동백동 3101-8신동백빌딩105","category":"음료식품 - 제과점"},{"name":"푸릇푸릇 Friut","tel":"","addr":"경기도 용인시 기흥구 동백동 598-9번지 신동백빌딩 1층 105호","category":"음료식품 - 농·축·수산품"}]},{"lat":"37.282042208","long":"127.15995812","items":[{"name":"CO CO","tel":"031-306-8276","addr":"경기도 용인시 기흥구 동백동 598-3번지 동백백현프라자 101호","category":"신변잡화 - 액세서리"},{"name":"그림아트스튜디오 용인동백미술학원","tel":"031-286-8700","addr":"경기도 용인시 기흥구 동백동 598-3번지 백현프라자 501호","category":"학원 - 예·체능계학원"},{"name":"김진철수학전문학원","tel":"031-283-2026","addr":"경기도 용인시 기흥구 동백동 598-3번지 백현프라자 603호","category":"학원 - 보습학원"},{"name":"동백에스셈학원","tel":"031-286-2668","addr":"경기도 용인시 기흥구 동백동 598-3번지 동백백현프라자 2층 202호","category":"학원 - 보습학원"},{"name":"리드앤톡영어학원","tel":"031-285-0535","addr":"경기도 용인시 기흥구 동백동 598-3번지 백현프라자 303호","category":"학원 - 외국어학원"},{"name":"미가분식","tel":"031-000-0000","addr":"경기도 용인시 기흥구 동백동 598-3번지 백현프라자 1층 101-2호","category":"일반휴게음식 - 스넥"},{"name":"백현해법영어학원","tel":"031-274-5929","addr":"경기도 용인시 기흥구 동백동 598-3번지 백현프라자 602호","category":"학원 - 보습학원"},{"name":"봉구스밥버거동백점","tel":"031-693-6282","addr":"경기도 용인시 기흥구 동백동 598-3번지 백현프라자 110호","category":"일반휴게음식 - 스넥"},{"name":"브레인트러스트사이언스학원","tel":"031-282-3515","addr":"경기도 용인시 기흥구 동백동 598-3번지 동백백현프라자 6층 602호","category":"학원 - 보습학원"},{"name":"블럭제빵소","tel":"031-282-7111","addr":"경기도 용인시 기흥구 동백동 598-3번지 백현프라자 1층 102호","category":"음료식품 - 제과점"},{"name":"사진생각","tel":"031-285-0065","addr":"경기도 용인시 기흥구 동백동 598-3번지 백현프라자 601호","category":"광학제품 - 사진관"},{"name":"석기시대","tel":"031-281-9282","addr":"경기도 용인시 기흥구 동백동 598-3번지 백현프라자 201호","category":"일반휴게음식 - 일반한식"},{"name":"신참떡볶이(동백점)","tel":"031-285-3669","addr":"경기도 용인시 기흥구 동백동 598-3번지 백현프라자 105,106,107호","category":"일반휴게음식 - 스넥"},{"name":"에듀스카이영수학원","tel":"02-1234-4567","addr":"경기도 용인시 기흥구 동백동 598-3번지 백현프라자 503호","category":"학원 - 보습학원"},{"name":"연세열린음악학원","tel":"031-693-8539","addr":"경기도 용인시 기흥구 동백동 598-3번지","category":"학원 - 예·체능계학원"},{"name":"옛날통닭","tel":"031-274-5655","addr":"경기도 용인시 기흥구 동백동 598-3번지 백현프라자 104호","category":"일반휴게음식 - 스넥"},{"name":"오구쌀피자동백1호점","tel":"031-286-5953","addr":"경기도 용인시 기흥구 동백동 598-3번지 동백백현프라자 103호","category":"일반휴게음식 - 서양음식"},{"name":"유투엠수학학원","tel":"031-8005-5577","addr":"경기도 용인시 기흥구 동백동 598-3번지 백현프라자 801동 802호","category":"회원제형태 - 학원"},{"name":"이디야커피","tel":"031-275-2757","addr":"경기도 용인시 기흥구 동백동 598-3번지 108,109호","category":"일반휴게음식 - 서양음식"},{"name":"인재숲학원","tel":"031-285-5381","addr":"경기도 용인시 기흥구 동백동 598-3번지 백현프라자 701호","category":"학원 - 보습학원"},{"name":"자이언트에듀학원","tel":"031-287-8291","addr":"경기도 용인시 기흥구 동백동 598-3번지 백현프라자 401호","category":"학원 - 보습학원"},{"name":"주식회사 메이크531학원","tel":"031-283-2755","addr":"경기도 용인시 기흥구 동백동 598-3번지 백현프라자 603호","category":"학원 - 보습학원"},{"name":"창의수학영어학원","tel":"031-285-4007","addr":"경기도 용인시 기흥구 동백동 598-3번지 동백 백현프라자 4층 3호","category":"학원 - 보습학원"},{"name":"튼튼영어용인동백구성대리점","tel":"031-8005-8305","addr":"경기도 용인시 기흥구 동백동 598-3번지 백현프라자 306호","category":"회원제형태 - 서적"},{"name":"하이그레이드통문장영어학원","tel":"031-287-0597","addr":"경기도 용인시 기흥구 동백동 593-8 동백백현프라자 502호","category":"학원 - 보습학원"},{"name":"헤어인보그","tel":"031-8005-5353","addr":"경기도 용인시 기흥구 동백동 598-3번지 백현프라자 301호","category":"보건위생 - 미용원"}]},{"lat":"37.281790205","long":"127.15974335","items":[{"name":"COOP해바라기치과의원","tel":"031-287-8855","addr":"경기도 용인시 기흥구 동백동 598-7번지","category":"의원 - 치과의원"},{"name":"GS25동백여강점","tel":"080-555-2525","addr":"경기도 용인시 기흥구 동백동 598-7번지 여강빌딩 104호(598-7,0번지","category":"유통업 영리 - 편 의 점"},{"name":"가우디 미술학원","tel":"031-693-8811","addr":"경기도 용인시 기흥구 동백동 598-7번지 401-1, 2호","category":"학원 - 예·체능계학원"},{"name":"동백경희한의원","tel":"031-287-7510","addr":"경기도 용인시 기흥구 동백동 3101-6여강빌딩301","category":"의원 - 한의원"},{"name":"동백줄리어드음악학원","tel":"031-693-7090","addr":"경기도 용인시 기흥구 동백동 598-7번지 5층","category":"학원 - 예·체능계학원"},{"name":"베스티안수학학원","tel":"031-526-2012","addr":"경기도 용인시 기흥구 동백동 598-7번지 6층","category":"학원 - 보습학원"},{"name":"스폴어학원","tel":"031-693-9494","addr":"경기도 용인시 기흥구 동백동 3101-6여강빌딩701,702호","category":"회원제형태 - 학원"},{"name":"신개념푸줏간","tel":"000-000-000","addr":"경기도 용인시 기흥구 동백동 598-7번지 여강빌딩","category":"음료식품 - 정육점"},{"name":"커피베이 용인백현점","tel":"031-281-3323","addr":"경기도 용인시 기흥구 동백동 598-7번지 여강 101-3호","category":"일반휴게음식 - 서양음식"},{"name":"토즈멤버십라운지 동백센터","tel":"031-281-3377","addr":"경기도 용인시 기흥구 동백동 598-7번지 2층 201-2호","category":"용역 서비스 - 사무서비스"},{"name":"토즈스터디센터 동백독서실","tel":"031-281-3377","addr":"경기도 용인시 기흥구 동백동 598-7번지 2층 201-1호","category":"학원 - 독서실"}]},{"lat":"37.281934258","long":"127.15287651","items":[{"name":"CUKOR(쿠코르)용인점","tel":"031-889-4313","addr":"경기도 용인시 기흥구 동백동 622-4번지 1층 102호","category":"보건위생 - 화장품"}]},{"lat":"37.279293443","long":"127.15351399","items":[{"name":"DIY세상","tel":"031-274-8054","addr":"경기도 용인시 기흥구 동백동 633-11번지 101호","category":"가구 - 일반가구"},{"name":"더레몬티","tel":"031-274-7963","addr":"경기도 용인시 기흥구 동백동 633-11번지 1층","category":"일반휴게음식 - 스넥"},{"name":"빌리엔젤 동백점","tel":"070-4196-3928","addr":"경기도 용인시 기흥구 동백동 633-11번지 102호","category":"일반휴게음식 - 서양음식"}]},{"lat":"37.279401451","long":"127.15360441","items":[{"name":"GS25동백평촌점","tel":"","addr":"경기도 용인시 기흥구 동백동 633-10번지 1층","category":"유통업 영리 - 편 의 점"},{"name":"혜화동 돈까스 극장","tel":"031-282-8333","addr":"경기도 용인시 기흥구 동백동 633-10번지 1층 102호","category":"일반휴게음식 - 일반한식"}]},{"lat":"37.283294102","long":"127.15343175","items":[{"name":"GY인테리어","tel":"031-286-4131","addr":"경기도 용인시 기흥구 동백동 614-6번지 103호","category":"건축자재 - 인테리어전문"},{"name":"삼천리자전거","tel":"031-275-1090","addr":"경기도 용인시 기흥구 동백동 614-6번지 101호","category":"레져용품 - 스포츠·레져용품"},{"name":"오디너리썸머(ordinary summer)","tel":"","addr":"경기도 용인시 기흥구 동백동 614-6번지 1층 104호","category":"문화.취미 - 화원"},{"name":"인라인월드","tel":"","addr":"경기도 용인시 기흥구 동백동 614-6번지 104호","category":"레져용품 - 스포츠·레져용품"}]},{"lat":"37.28268292","long":"127.15223525","items":[{"name":"Happy Gom family","tel":"070-7560-1843","addr":"경기도 용인시 기흥구 동백동 620-1번지","category":"광학제품 - 사진관"},{"name":"플레이크 (FLAKE)","tel":"","addr":"경기도 용인시 기흥구 동백동 620-1번지 201호","category":"문화.취미 - 애완동물"},{"name":"해피곰패밀리","tel":"070-7560-1843","addr":"경기도 용인시 기흥구 동백동 620-1번지","category":"문화.취미 - 애완동물"}]},{"lat":"37.286846527","long":"127.15154432","items":[{"name":"JHK영어교습소","tel":"031-4152-0505","addr":"경기도 용인시 기흥구 동백동 572번지","category":"학원 - 외국어학원"},{"name":"소피아공방","tel":"031-000-0000","addr":"경기도 용인시 기흥구 동백동 572번지 호수마을자연앤데시앙 상가 101호","category":"문화.취미 - 문화취미기타"},{"name":"포르테피아노교습소","tel":"031-893-5566","addr":"경기도 용인시 기흥구 동백동 572번지 호수마을자연앤데시앙 상가동 102호","category":"학원 - 예·체능계학원"},{"name":"플로라","tel":"070-7358-0203","addr":"경기도 용인시 기흥구 동백동 572번지 호수마을자연앤데시앙 상가동 1층 103호","category":"보건위생 - 미용원"},{"name":"한양대 참 태권도장","tel":"031-274-9977","addr":"경기도 용인시 기흥구 동백동 572번지 호수마을자연앤데시앙 상가동 203호,204ㅀ","category":"학원 - 예·체능계학원"}]},{"lat":"37.279795394","long":"127.14840707","items":[{"name":"KJC유학원","tel":"070-7548-6771","addr":"경기도 용인시 기흥구 동백동 683번지 동원마을동원로얄듀크","category":"회원제형태 - 기타4"}]},{"lat":"37.27693296","long":"127.15335143","items":[{"name":"M&M웰빙몰","tel":"031-8005-8488","addr":"경기도 용인시 기흥구 동백동 2202-1외2필지동백훼미리프라자403호~404호","category":"건강식품 - 기타건강식품"},{"name":"동백동물병원","tel":"031-693-8628","addr":"경기도 용인시 기흥구 동백동 2202-1번지 훼미리프라자1층107","category":"기타의료기관 - 동물병원"},{"name":"아모레카운셀러","tel":"031-285-5338","addr":"경기도 용인시 기흥구 동백동 동백훼미리프라자610호","category":"보건위생 - 화장품"},{"name":"아모레카운셀러","tel":"031-285-5338","addr":"경기도 용인시 기흥구 동백동 2202-1동백훼미리프라자610","category":"보건위생 - 화장품"},{"name":"참메디칼약국","tel":"031-8005-8504","addr":"경기도 용인시 기흥구 동백동 2202-1외2필지훼미리프라자4층405","category":"약국 - 약국"}]},{"lat":"37.28218623","long":"127.15312509","items":[{"name":"TNC용인기흥점","tel":"031-285-9427","addr":"경기도 용인시 기흥구 동백동 621-9번지 1층상가","category":"자동차정비 유지 - 카인테리어"}]},{"lat":"37.283908526","long":"127.15206853","items":[{"name":"YB만복사","tel":"070-4409-3586","addr":"경기도 용인시 기흥구 동백동 611-13번지","category":"용역 서비스 - 가례서비스업"}]},{"lat":"37.284240463","long":"127.1532081","items":[{"name":"chef. k(쉐프케이)덮밥연구소","tel":"031-286-1266","addr":"경기도 용인시 기흥구 동백동 606-9번지 1층","category":"일반휴게음식 - 일반한식"}]},{"lat":"37.286547154","long":"127.15315631","items":[{"name":"e-푸른기획","tel":"031-287-6907","addr":"경기도 용인시 기흥구 동백동 574번지 호수마을월드메르디앙제 상가동 104호","category":"건축자재 - 인테리어전문"},{"name":"음악시간","tel":"031-274-4393","addr":"경기도 용인시 기흥구 동백동 574번지 호수마을월드메르디앙아파트 상가 102호","category":"레져용품 - 악기점"},{"name":"크린토피아 동백월드메르디앙점","tel":"031-693-8585","addr":"경기도 용인시 기흥구 동백동 574번지 호수마을월드메르디앙 1층 105호","category":"수리서비스 - 세탁소"},{"name":"플립러닝수학교습소","tel":"031-286-6001","addr":"경기도 용인시 기흥구 동백동 574번지 호수마을월드메르디앙 상가동 105호","category":"학원 - 보습학원"}]},{"lat":"37.283343843","long":"127.15679218","items":[{"name":"가나냉동","tel":"031-274-8685","addr":"경기도 용인시 기흥구 동백동 602번지 호수마을주공3단지아파트","category":"용역 서비스 - 기타용역서비스"}]},{"lat":"37.281906755","long":"127.16018336","items":[{"name":"가리온학원","tel":"031-274-7331","addr":"경기도 용인시 기흥구 동백동 598-4번지 유타운 5층 503호","category":"학원 - 보습학원"},{"name":"강의하는아이들학원","tel":"031-275-7757","addr":"경기도 용인시 기흥구 동백동 598-4번지 유타운 701호","category":"학원 - 보습학원"},{"name":"달콤한마카롱by황언니","tel":"","addr":"경기도 용인시 기흥구 동백동 598-4번지","category":"일반휴게음식 - 서양음식"},{"name":"동백김샘학원","tel":"031-275-0666","addr":"경기도 용인시 기흥구 동백동 598-4번지 유타운 상가 8층","category":"학원 - 보습학원"},{"name":"동백떡집","tel":"031-693-7353","addr":"경기도 용인시 기흥구 동백동 598-4번지 유타운 상가 101호","category":"음료식품 - 제과점"},{"name":"동백순대","tel":"031-274-3126","addr":"경기도 용인시 기흥구 동백동 598-4번지 백현마을유타운 상가 109호","category":"일반휴게음식 - 일반한식"},{"name":"동백키즈바둑교습소","tel":"031-281-8844","addr":"경기도 용인시 기흥구 동백동 598-4번지 유타운 502호","category":"학원 - 기타 교육기관"},{"name":"랑화헤어살롱","tel":"031-286-5602","addr":"경기도 용인시 기흥구 동백동 598-4번지","category":"보건위생 - 미용원"},{"name":"봉만이감자탕","tel":"031-282-0200","addr":"경기도 용인시 기흥구 동백동 598-4번지 유타운 102호","category":"일반휴게음식 - 일반한식"},{"name":"비전수학학원","tel":"031-282-9517","addr":"경기도 용인시 기흥구 동백동 598-4번지 유타운 상가 602호","category":"학원 - 보습학원"},{"name":"아이스몬동백점","tel":"","addr":"경기도 용인시 기흥구 동백동 598-4번지 유타운 109호","category":"음료식품 - 기타음료식품"},{"name":"에뽕버거 순수치킨 용인동백점","tel":"031-282-9494","addr":"경기도 용인시 기흥구 동백동 598-4번지 유타운상가 108,203호","category":"일반휴게음식 - 일반한식"},{"name":"에이원영어입시학원/주식회사더에이원","tel":"031-283-3525","addr":"경기도 용인시 기흥구 동백동 598-4번지 유타운 303호","category":"학원 - 외국어학원"},{"name":"에이치티실용음악학원","tel":"070-4214-3576","addr":"경기도 용인시 기흥구 동백동 598-4번지 백현마을유타운 상가 601호","category":"학원 - 예·체능계학원"},{"name":"엔브로즈","tel":"031-8005-5534","addr":"경기도 용인시 기흥구 동백동 598-4번지 백현마을유타운 상가 102호","category":"유통업 영리 - 슈퍼마켓"},{"name":"열공스터디카페 백현점","tel":"","addr":"경기도 용인시 기흥구 동백동 598-4번지 유타운 3층 301호","category":"용역 서비스 - 사무서비스"},{"name":"오케이치과의원","tel":"031-287-5365","addr":"경기도 용인시 기흥구 동백동 598-4번지 유타운 상가 403호","category":"의원 - 치과의원"},{"name":"용인대동백최고태권도","tel":"031-274-1190","addr":"경기도 용인시 기흥구 동백동 598-4번지 유타운 201호 상가","category":"학원 - 예·체능계학원"},{"name":"월남국수 동백점","tel":"","addr":"경기도 용인시 기흥구 동백동 598-4번지 유타운 2층 203호","category":"일반휴게음식 - 서양음식"},{"name":"이화자람아동발달센터","tel":"031-283-5242","addr":"경기도 용인시 기흥구 동백동 598-4번지 유타운 501호 상가","category":"보건위생 - 기타대인서비스"},{"name":"일등공신학원","tel":"031-284-1011","addr":"경기도 용인시 기흥구 동백동 598-4번지 유타운 302호 상가","category":"회원제형태 - 학원"},{"name":"조령한우직판장","tel":"031-283-8362","addr":"경기도 용인시 기흥구 동백동 598-4번지 유타운 상가 103호","category":"음료식품 - 정육점"},{"name":"카페조이","tel":"031-111-1111","addr":"경기도 용인시 기흥구 동백동 598-4번지 유타운 1층 106호","category":"일반휴게음식 - 서양음식"},{"name":"크린토피아 코인워시 동백백현비발디점","tel":"031-274-9949","addr":"경기도 용인시 기흥구 동백동 598-4번지 유타운 상가 104호","category":"수리서비스 - 세탁소"},{"name":"파피루스국어논술학원","tel":"031-287-8765","addr":"경기도 용인시 기흥구 동백동 598-4번지 유타운 302호","category":"회원제형태 - 학원"},{"name":"포아이플러스학원","tel":"031-286-0141","addr":"경기도 용인시 기흥구 동백동 598-4번지 백현마을유타운상가 401,402호","category":"학원 - 보습학원"},{"name":"퓨전샵","tel":"031-287-2287","addr":"경기도 용인시 기흥구 동백동 598-4번지 유타운 상가 1층 105호","category":"일반휴게음식 - 일반한식"},{"name":"플로리쉬 키즈 스튜디오(Flourish Kids Stu","tel":"02-111-1111","addr":"경기도 용인시 기흥구 동백동 598-4번지 백현마을 동백유타운 상가동 2층 202호","category":"학원 - 외국어학원"}]},{"lat":"37.28162741","long":"127.15327056","items":[{"name":"가정식즉석반찬점","tel":"031-281-8251","addr":"경기도 용인시 기흥구 동백동 623-7번지 1층 101호","category":"음료식품 - 기타음료식품"},{"name":"고마워아이야","tel":"031-238-2848","addr":"경기도 용인시 기흥구 동백동 623-7번지 103호","category":"음료식품 - 기타음료식품"},{"name":"동남오토바이","tel":"031-283-4846","addr":"경기도 용인시 기흥구 동백동 623-7번지 1층","category":"수리서비스 - 기타수리서비스"},{"name":"프라다","tel":"031-285-8809","addr":"경기도 용인시 기흥구 동백동 623-7번지","category":"의류 - 정장"}]},{"lat":"37.283879724","long":"127.15346674","items":[{"name":"감동창고","tel":"","addr":"경기도 용인시 기흥구 동백동 614-2번지 1층 101호","category":"음료식품 - 기타음료식품"},{"name":"보보스헤어","tel":"031-287-0034","addr":"경기도 용인시 기흥구 동백동 614-2번지 102~103호 1층 102호","category":"보건위생 - 미용원"},{"name":"카페 라일락","tel":"","addr":"경기도 용인시 기흥구 동백동 614-2번지 1층 일부호","category":"일반휴게음식 - 서양음식"}]},{"lat":"37.285240527","long":"127.15326648","items":[{"name":"감성음악학원","tel":"031-285-7311","addr":"경기도 용인시 기흥구 동백동 605-2번지 1층","category":"학원 - 예·체능계학원"},{"name":"나무와그림","tel":"031-281-0809","addr":"경기도 용인시 기흥구 동백동 605-2번지","category":"문화.취미 - 문화취미기타"},{"name":"에버그린미술교습소","tel":"031-282-6678","addr":"경기도 용인시 기흥구 동백동 605-2번지 1층","category":"학원 - 예·체능계학원"}]},{"lat":"37.285213181","long":"127.15351451","items":[{"name":"감탄동백호수마을점","tel":"031-287-9498","addr":"경기도 용인시 기흥구 동백동 605-5번지 1층","category":"일반휴게음식 - 스넥"},{"name":"바이제이(by J)","tel":"031-000-0000","addr":"경기도 용인시 기흥구 동백동 605-5번지 1층 103호","category":"의류 - 정장"}]},{"lat":"37.283683369","long":"127.15198915","items":[{"name":"강성원우유","tel":"031-272-5655","addr":"경기도 용인시 기흥구 동백동 612-1번지","category":"음료식품 - 기타음료식품"},{"name":"기흥대리점","tel":"031-298-9608","addr":"경기도 용인시 기흥구 동백동 612-1번지 101호","category":"음료식품 - 기타음료식품"},{"name":"목화나무숲","tel":"031-274-2029","addr":"경기도 용인시 기흥구 동백동 612-1번지","category":"가구 - 일반가구"},{"name":"한국후로아","tel":"031-287-0471","addr":"경기도 용인시 기흥구 동백동 612-1번지","category":"직물 - 카페트,커튼,천막,지물"}]},{"lat":"37.279402339","long":"127.15290532","items":[{"name":"개인과외","tel":"","addr":"경기도 용인시 기흥구 동백동 632-5번지 석정빌","category":"학원 - 기타 교육기관"}]},{"lat":"37.282960498","long":"127.16715426","items":[{"name":"개인과외","tel":"","addr":"경기도 용인시 기흥구 동백동 584번지 백현마을주공9단지아파트","category":"학원 - 기타 교육기관"}]},{"lat":"37.280158497","long":"127.15345933","items":[{"name":"개인과외","tel":"","addr":"경기도 용인시 기흥구 동백동 628-7번지 302호","category":"학원 - 기타 교육기관"}]},{"lat":"37.284600514","long":"127.15349073","items":[{"name":"게임빌리지","tel":"070-8616-2223","addr":"경기도 용인시 기흥구 동백동 605-10번지","category":"서적문구 - 완구점"},{"name":"머리못하는집(동백)","tel":"031-286-7934","addr":"경기도 용인시 기흥구 동백동 605-10번지","category":"보건위생 - 미용원"},{"name":"치킨마루 동백호수점","tel":"031-282-9245","addr":"경기도 용인시 기흥구 동백동 605-10번지 1층","category":"일반휴게음식 - 스넥"}]},{"lat":"37.280954188","long":"127.15125083","items":[{"name":"경기유통","tel":"070-7717-8265","addr":"경기도 용인시 기흥구 동백동 689번지 해든마을동문굿모닝힐 105동 101호","category":"회원제형태 - 기타4"},{"name":"그린농원","tel":"031-275-2638","addr":"경기도 용인시 기흥구 동백동 689번지 해든마을동문굿모닝힐 105동 404호","category":"문화.취미 - 화원"}]},{"lat":"37.284015236","long":"127.1531851","items":[{"name":"경인유통","tel":"031-287-3328","addr":"경기도 용인시 기흥구 동백동 613-2번지 상가 1층","category":"유통업 영리 - 슈퍼마켓"}]},{"lat":"37.281600227","long":"127.16031803","items":[{"name":"경희대 익스트림 마샬아츠","tel":"","addr":"경기도 용인시 기흥구 동백동 598-5번지 중앙프라자 208호","category":"학원 - 예·체능계학원"},{"name":"국수나무","tel":"031-8005-7003","addr":"경기도 용인시 기흥구 동백동 598-5번지 중앙프라자 1층 107호","category":"일반휴게음식 - 일반한식"},{"name":"놀부옛날통닭","tel":"031-284-2841","addr":"경기도 용인시 기흥구 동백동 598-5번지 중앙프라자 115호","category":"일반휴게음식 - 일반한식"},{"name":"더블유공터영어동백센터학원","tel":"031-287-4777","addr":"경기도 용인시 기흥구 동백동 598-5번지 중앙프라자 3층 303호","category":"학원 - 외국어학원"},{"name":"도깨비왕만두","tel":"","addr":"경기도 용인시 기흥구 동백동 598-5번지 중앙프라자 108호","category":"일반휴게음식 - 일반한식"},{"name":"동백서울치과","tel":"031-8005-7522","addr":"경기도 용인시 기흥구 동백동 598-5번지 동백중앙프라자304,305","category":"의원 - 치과의원"},{"name":"동백안경원","tel":"031-275-6040","addr":"경기도 용인시 기흥구 동백동 598-5번지 중앙프라자 112호","category":"보건위생 - 안경"},{"name":"동백잉글루영어학원","tel":"031-284-6279","addr":"경기도 용인시 기흥구 동백동 598-5번지 중앙프라자 209호","category":"학원 - 외국어학원"},{"name":"레인보우","tel":"031-285-0212","addr":"경기도 용인시 기흥구 동백동 598-5번지 중앙프라자 118호","category":"보건위생 - 미용재료"},{"name":"막강영수전문학원","tel":"070-0591-0774","addr":"경기도 용인시 기흥구 동백동 598-5번지 중앙프라자 306호","category":"학원 - 보습학원"},{"name":"모닝글로링(동백점)","tel":"031-693-9561","addr":"경기도 용인시 기흥구 동백동 598-5 중앙프라자 126~128호","category":"서적문구 - 문구용품"},{"name":"모닝마트(하모니동백점)","tel":"031-287-1771","addr":"경기도 용인시 기흥구 동백동 598-5번지 중앙프라자 1층","category":"유통업 영리 - 슈퍼마켓"},{"name":"바로서울치과","tel":"031-287-2275","addr":"경기도 용인시 기흥구 동백동 598-5번지 중앙프라자 302호","category":"의원 - 치과의원"},{"name":"바르다김선생용인동백점","tel":"031-285-7709","addr":"경기도 용인시 기흥구 동백동 598-5번지 중앙프라자 1층 103호","category":"일반휴게음식 - 스넥"},{"name":"밥과함께라면/경기용인 지역자활센터 (분식","tel":"031-8005-8038","addr":"경기도 용인시 기흥구 동백동 598-5번지 중앙프라자 1층 111호","category":"일반휴게음식 - 스넥"},{"name":"백현아트스토리미술학원","tel":"031-693-6678","addr":"경기도 용인시 기흥구 동백동 598-5번지 중앙프라자 307호","category":"학원 - 예·체능계학원"},{"name":"보길로 555","tel":"031-284-3555","addr":"경기도 용인시 기흥구 동백동 598-5번지 중앙프라자 109-1호","category":"일반휴게음식 - 일반한식"},{"name":"사임당독서실","tel":"","addr":"경기도 용인시 기흥구 동백동 598-5번지 중앙프라자 3층 301호","category":"학원 - 독서실"},{"name":"서부축산","tel":"031-111-1111","addr":"경기도 용인시 기흥구 동백동 598-5번지 중앙프라자","category":"음료식품 - 정육점"},{"name":"성경만두요리전문점 동백점","tel":"","addr":"경기도 용인시 기흥구 동백동 598-5번지 중앙프라자 211호","category":"일반휴게음식 - 일반한식"},{"name":"수산백화점","tel":"031-287-1771","addr":"경기도 용인시 기흥구 동백동 598-5번지 중앙프라자 농수축할인마트 내","category":"음료식품 - 농·축·수산품"},{"name":"순수헤어","tel":"031-275-3443","addr":"경기도 용인시 기흥구 동백동 598-5번지 중앙프라자 201호","category":"보건위생 - 미용원"},{"name":"스시앤마구로","tel":"031-245-1412","addr":"경기도 용인시 기흥구 동백동 598-5번지 1층 117,118호","category":"음료식품 - 농·축·수산품"},{"name":"아성 글로벌 미트","tel":"","addr":"경기도 용인시 기흥구 동백동 598-5번지 중앙프라자","category":"음료식품 - 정육점"},{"name":"알파 용인 백현점","tel":"031-693-9561","addr":"경기도 용인시 기흥구 동백동 598-5번지 1층 126호, 127호, 128호","category":"서적문구 - 문구용품"},{"name":"앙상블음악학원","tel":"031-274-8088","addr":"경기도 용인시 기흥구 동백동 598-5번지 중앙프라자 3층 305호","category":"학원 - 예·체능계학원"},{"name":"용인대특전합기도","tel":"031-275-2822","addr":"경기도 용인시 기흥구 동백동 598-5번지 중앙프라자 308호","category":"학원 - 예·체능계학원"},{"name":"이성옥의 오늘반찬","tel":"031-285-8891","addr":"경기도 용인시 기흥구 동백동 598-5번지 중앙프라자 1층 114호","category":"음료식품 - 기타음료식품"},{"name":"점프스쿨","tel":"031-282-8098","addr":"경기도 용인시 기흥구 동백동 598-5번지 중앙프라자 204동 205호","category":"회원제형태 - 레져업소"},{"name":"죠스떡볶이 용인동백점","tel":"031-286-0332","addr":"경기도 용인시 기흥구 동백동 598-5번지 중앙프라자 102호","category":"일반휴게음식 - 스넥"},{"name":"중앙탁구클럽","tel":"031-283-8979","addr":"경기도 용인시 기흥구 동백동 598-5중앙프라자204.205호","category":"레저업소 - 기타레져업소"},{"name":"치킨마루","tel":"031-287-8882","addr":"경기도 용인시 기흥구 동백동 598-5번지 중앙프라자 110호","category":"일반휴게음식 - 주점"},{"name":"필즈수학학원","tel":"070-8879-3437","addr":"경기도 용인시 기흥구 동백동 598-5번지 중앙프라자 207호","category":"학원 - 보습학원"},{"name":"헤어카페","tel":"031-285-9501","addr":"경기도 용인시 기흥구 동백동 598-5번지 중앙프라자 1층 113호","category":"보건위생 - 미용원"},{"name":"홍짜장 동백백현점","tel":"031-282-1223","addr":"경기도 용인시 기흥구 동백동 598-5번지 중앙프라자 101호","category":"일반휴게음식 - 일반한식"}]},{"lat":"37.281901545","long":"127.15729667","items":[{"name":"경희대 태풍 태권도","tel":"031-693-6789","addr":"경기도 용인시 기흥구 동백동 656번지 상가동 201호,202호","category":"학원 - 예·체능계학원"},{"name":"세븐일레븐동백서해점","tel":"031-1577-0711","addr":"경기도 용인시 기흥구 동백동 656번지 호수마을서해그랑블 상가동 1층 101호","category":"유통업 영리 - 편 의 점"}]},{"lat":"37.27974068","long":"127.14893692","items":[{"name":"경희블랙타이거즈태권도","tel":"031-693-6290","addr":"경기도 용인시 기흥구 동백동 683번지 로얄듀크 상가 202호","category":"학원 - 예·체능계학원"},{"name":"멕시카나","tel":"031-8005-9282","addr":"경기도 용인시 기흥구 동백동 683번지 동원마을동원로얄듀크 상가 B102-1호","category":"일반휴게음식 - 스넥"},{"name":"삼성영어동백어정영어교습소","tel":"031-287-7755","addr":"경기도 용인시 기흥구 동백동 683번지 동원마을동원로얄듀크 2층 202호","category":"학원 - 외국어학원"},{"name":"샤인헤어","tel":"031-275-1356","addr":"경기도 용인시 기흥구 동백동 683번지 동원로얄듀크상가B103호","category":"보건위생 - 미용원"},{"name":"창의사고력수학교습소","tel":"","addr":"경기도 용인시 기흥구 동백동 683번지 동원마을동원로얄듀크 상가동B층 101호","category":"학원 - 보습학원"}]},{"lat":"37.280490595","long":"127.15446354","items":[{"name":"고양이부엌","tel":"031-274-2381","addr":"경기도 용인시 기흥구 동백동 627-4번지 1층 101호","category":"일반휴게음식 - 일반한식"},{"name":"루라헤어","tel":"031-282-0709","addr":"경기도 용인시 기흥구 동백동 627-4번지 101호","category":"보건위생 - 미용원"}]},{"lat":"37.289546928","long":"127.15365847","items":[{"name":"골프닥터","tel":"031-283-8300","addr":"경기도 용인시 기흥구 동백동 390-34번지","category":"레져용품 - 골프용품 전문점"},{"name":"동일스포츠클럽","tel":"031-286-2236","addr":"경기도 용인시 기흥구 동백동 390-34번지","category":"회원제형태 - 레져업소"}]},{"lat":"37.282293995","long":"127.1534072","items":[{"name":"과일나라","tel":"031-281-4848","addr":"경기도 용인시 기흥구 동백동 619-5번지 1층","category":"음료식품 - 농·축·수산품"},{"name":"로타커피","tel":"031-282-1265","addr":"경기도 용인시 기흥구 동백동 619-5번지 쿠시야 1층 102호","category":"일반휴게음식 - 서양음식"}]},{"lat":"37.281320459","long":"127.15374355","items":[{"name":"교촌치킨동백1호점","tel":"031-274-0033","addr":"경기도 용인시 기흥구 동백동 626-4번지 상가동 1층 102,103호","category":"일반휴게음식 - 서양음식"},{"name":"예쁜집꾸미기","tel":"031-275-1369","addr":"경기도 용인시 기흥구 동백동 626-4번지 101호","category":"건축자재 - 기타건축자재"},{"name":"카누","tel":"031-679-8090","addr":"경기도 용인시 기흥구 동백동 626-4번지 (1층상가102호)","category":"의류 - 정장"}]},{"lat":"37.281375895","long":"127.15266116","items":[{"name":"굴다리전주콩나물국밥","tel":"031-282-7172","addr":"경기도 용인시 기흥구 동백동 623-12번지 1층","category":"일반휴게음식 - 일반한식"}]},{"lat":"37.289598605","long":"127.15551932","items":[{"name":"귀올(귀하의 올반)","tel":"","addr":"경기도 용인시 기흥구 동백동 378-25번지 지하 1층, 1층","category":"일반휴게음식 - 일반한식"}]},{"lat":"37.279321561","long":"127.15265709","items":[{"name":"그라프","tel":"031-286-0508","addr":"경기도 용인시 기흥구 동백동 633-19번지 1층","category":"일반휴게음식 - 서양음식"},{"name":"동방애드컴","tel":"031-693-6005","addr":"경기도 용인시 기흥구 동백동 633-19번지 상가 1층","category":"서적문구 - 출판 및 인쇄물"}]},{"lat":"37.28210311","long":"127.15471485","items":[{"name":"그레이스음악학원","tel":"031-693-5050","addr":"경기도 용인시 기흥구 동백동 654번지 호수마을동보노빌리티아파트 상가동 301호","category":"학원 - 예·체능계학원"},{"name":"동보명품세탁","tel":"031-693-5582","addr":"경기도 용인시 기흥구 동백동 654 호수마을동보노빌리티상가 202호","category":"수리서비스 - 세탁소"},{"name":"디엘샵","tel":"031-285-3572","addr":"경기도 용인시 기흥구 동백동 654번지 호수마을동보노빌리티 상가동 103호","category":"의류 - 정장"},{"name":"떡볶이 Factory","tel":"031-283-9686","addr":"경기도 용인시 기흥구 동백동 654번지 호수마을동보노빌리티 상가동 1층 104호","category":"일반휴게음식 - 일반한식"},{"name":"비비뷰티라인","tel":"031-285-2796","addr":"경기도 용인시 기흥구 동백동 654번지 호수마을동보노빌리티 상가동 201호","category":"보건위생 - 미용원"},{"name":"요리의여왕","tel":"031-281-0423","addr":"경기도 용인시 기흥구 동백동 654 호수마을동보노빌리티 상가-102","category":"음료식품 - 기타음료식품"}]},{"lat":"37.281747678","long":"127.15782633","items":[{"name":"그림숲미술","tel":"070-8821-1791","addr":"경기도 용인시 기흥구 동백동 656번지 호수마을서해그랑블 1103동 702호","category":"회원제형태 - 학원"}]},{"lat":"37.285097421","long":"127.15243173","items":[{"name":"글로리메디","tel":"070-4001-2093","addr":"경기도 용인시 기흥구 동백동 608-7번지 1층 102호","category":"보건위생 - 의료용품"}]},{"lat":"37.283442206","long":"127.15736747","items":[{"name":"글로리아","tel":"","addr":"경기도 용인시 기흥구 동백동 602번지 호수마을주공3단지아파트","category":"의류 - 내의판매"},{"name":"미라클(miracle)","tel":"070-8877-0460","addr":"경기도 용인시 기흥구 동백동 602번지 호수마을주공3단지아파트","category":"회원제형태 - 기타1"}]},{"lat":"37.28650256","long":"127.15279536","items":[{"name":"글로벌알엔디","tel":"070-1661-8721","addr":"경기도 용인시 기흥구 동백동 574번지 호수마을월드메르디앙 1602동 1302호","category":"보건위생 - 화장품"}]},{"lat":"37.281239442","long":"127.16059918","items":[{"name":"기독교한국침례회동백교회","tel":"031-693-6286","addr":"경기도 용인시 기흥구 동백동 597-2번지","category":"기타 - 비영리/대상"}]},{"lat":"37.282520023","long":"127.15279874","items":[{"name":"기흥종이문화교육원","tel":"031-286-8414","addr":"경기도 용인시 기흥구 동백동 620-10번지 101호","category":"문화.취미 - 문화취미기타"},{"name":"다미원","tel":"031-274-0669","addr":"경기도 용인시 기흥구 동백동 620-10번지 101호","category":"일반휴게음식 - 일반한식"},{"name":"돈까스어랏(돈까스 a lot)","tel":"031-283-6201","addr":"경기도 용인시 기흥구 동백동 620-10번지 102호","category":"음료식품 - 기타음료식품"}]},{"lat":"37.28049303","long":"127.15951514","items":[{"name":"김소영의푸드테라피","tel":"02-566-9110","addr":"경기도 용인시 기흥구 동백동 661번지 백현마을코아루아파트","category":"회원제형태 - 기타4"}]},{"lat":"37.282041637","long":"127.15346308","items":[{"name":"김지우헤어","tel":"","addr":"경기도 용인시 기흥구 동백동 619-7번지 1층","category":"보건위생 - 미용원"},{"name":"훌랄라치킨동백점","tel":"031-285-9238","addr":"경기도 용인시 기흥구 동백동 619-7번지 1층","category":"일반휴게음식 - 스넥"}]},{"lat":"37.283513445","long":"127.16474233","items":[{"name":"깨알","tel":"031-306-1003","addr":"경기도 용인시 기흥구 동백동 583번지 백현마을휴먼시아","category":"신변잡화 - 액세서리"},{"name":"씨유기흥백현점","tel":"080-080-3663","addr":"경기도 용인시 기흥구 동백동 583번지 백현마을휴먼시아아파트 상가동 1층 104호","category":"유통업 영리 - 편 의 점"},{"name":"윤선생우리집앞영어백현휴먼시아영어교습소","tel":"031-284-0582","addr":"경기도 용인시 기흥구 동백동 583번지 백현마을휴먼시아 상가동 102호","category":"학원 - 외국어학원"}]},{"lat":"37.282321584","long":"127.15296749","items":[{"name":"꼬꼬 C","tel":"031-274-8270","addr":"경기도 용인시 기흥구 동백동 621-7번지 1층","category":"일반휴게음식 - 일반한식"}]},{"lat":"37.281104041","long":"127.15387842","items":[{"name":"나성켄터키 동백1호점","tel":"031-275-7140","addr":"경기도 용인시 기흥구 동백동 626-6번지 1층","category":"일반휴게음식 - 스넥"}]},{"lat":"37.282880433","long":"127.15279946","items":[{"name":"낙지보감","tel":"031-285-5535","addr":"경기도 용인시 기흥구 동백동 618-6번지 상가 1층","category":"일반휴게음식 - 일반한식"},{"name":"낙지보감","tel":"031-285-5535","addr":"경기도 용인시 기흥구 동백동 618-6번지 1층 상가","category":"일반휴게음식 - 일반한식"}]},{"lat":"37.284319087","long":"127.14796472","items":[{"name":"난디자인퍼니쳐","tel":"031-282-9685","addr":"경기도 용인시 기흥구 동백동 493-3","category":"가구 - 일반가구"}]},{"lat":"37.281600594","long":"127.15310137","items":[{"name":"남도먹거리","tel":"031-286-8932","addr":"경기도 용인시 기흥구 동백동 623-6번지 1층","category":"일반휴게음식 - 일반한식"}]},{"lat":"37.280986807","long":"127.15395712","items":[{"name":"네네치킨(동백지구점)","tel":"031-275-0064","addr":"경기도 용인시 기흥구 동백동 626-7번지 1층 101호","category":"일반휴게음식 - 스넥"},{"name":"오즈네일앤뷰티","tel":"031-730-0880","addr":"경기도 용인시 기흥구 동백동 626-7번지 1층 104호","category":"보건위생 - 피부미용실"}]},{"lat":"37.286889227","long":"127.15340508","items":[{"name":"네이처마더","tel":"070-7607-7040","addr":"경기도 용인시 기흥구 동백동 574번지 호수마을월드메르디앙 1604동 104호","category":"회원제형태 - 기타4"},{"name":"포에이치컴퍼니","tel":"031-287-4249","addr":"경기도 용인시 기흥구 동백동 574번지 호수마을월드메르디앙 1604동 904호","category":"회원제형태 - 기타4"}]},{"lat":"37.28535012","long":"127.15210521","items":[{"name":"네일놀이터","tel":"031-274-2743","addr":"경기도 용인시 기흥구 동백동 607-6번지 1층 102호","category":"보건위생 - 피부미용실"},{"name":"또봉이통닭","tel":"031-693-9223","addr":"경기도 용인시 기흥구 동백동 607-6번지 1층 101호","category":"일반휴게음식 - 스넥"},{"name":"삼성윈텍시스템","tel":"031-282-2778","addr":"경기도 용인시 기흥구 동백동 607-6번지 102호","category":"전기제품 - 냉열기기"}]},{"lat":"37.280571832","long":"127.15435095","items":[{"name":"네일탐나","tel":"","addr":"경기도 용인시 기흥구 동백동 627-3번지 1층 103호","category":"보건위생 - 피부미용실"},{"name":"더블유.에스(W.S)헤어","tel":"031-282-8199","addr":"경기도 용인시 기흥구 동백동 627-3번지 1층 101호","category":"보건위생 - 미용원"},{"name":"운동화 & 이불세탁","tel":"031-287-2242","addr":"경기도 용인시 기흥구 동백동 627-3번지 1층 102호","category":"수리서비스 - 세탁소"}]},{"lat":"37.285925291","long":"127.15327912","items":[{"name":"노리아이","tel":"070-4655-9674","addr":"경기도 용인시 기흥구 동백동 574번지 호수마을월드메르디앙 1606동 1203호","category":"학원 - 예·체능계학원"}]},{"lat":"37.279104428","long":"127.15335575","items":[{"name":"노크","tel":"031-274-0434","addr":"경기도 용인시 기흥구 동백동 633-13번지 1층","category":"일반휴게음식 - 서양음식"}]},{"lat":"37.284348228","long":"127.15349023","items":[{"name":"늘찬 정육점","tel":"031-274-5382","addr":"경기도 용인시 기흥구 동백동 605-12번지","category":"음료식품 - 정육점"},{"name":"더블유(W)","tel":"031-274-2820","addr":"경기도 용인시 기흥구 동백동 605-12번지 101호","category":"의류 - 정장"},{"name":"츄릅떡볶이 동백점","tel":"031-275-8288","addr":"경기도 용인시 기흥구 동백동 605-12번지 103호","category":"일반휴게음식 - 일반한식"}]},{"lat":"37.281240383","long":"127.14565851","items":[{"name":"니나노","tel":"02-1111-1111","addr":"경기도 용인시 기흥구 동백동 653번지 호수마을상록롯데캐슬 상가동 1층 102호","category":"보건위생 - 미용원"},{"name":"머리치장","tel":"031-274-0079","addr":"경기도 용인시 기흥구 동백동 653번지 호수마을상록롯데캐슬 상가동 101호,102호 중 일부","category":"보건위생 - 미용원"},{"name":"버니스위츠","tel":"","addr":"경기도 용인시 기흥구 동백동 653번지 호수마을상록롯데캐슬 상가동 1층 102호","category":"음료식품 - 기타음료식품"},{"name":"비엔나음악교습소","tel":"031-679-8979","addr":"경기도 용인시 기흥구 동백동 653번지 상록롯데캐슬 상가동 201호","category":"학원 - 예·체능계학원"}]},{"lat":"37.28290792","long":"127.15243867","items":[{"name":"님의캘리","tel":"031-000-0000","addr":"경기도 용인시 기흥구 동백동 618-3번지","category":"일반휴게음식 - 서양음식"}]},{"lat":"37.287290836","long":"127.15640553","items":[{"name":"다니엘어학원","tel":"031-281-9182","addr":"경기도 용인시 기흥구 동백동 367-6번지 2층","category":"회원제형태 - 학원"}]},{"lat":"37.284434682","long":"127.16313177","items":[{"name":"다비수","tel":"","addr":"경기도 용인시 기흥구 동백동 581번지 백현마을주공7단지아파트","category":"서적문구 - 일반서적"}]},{"lat":"37.28134905","long":"127.15251452","items":[{"name":"다빈치교육사","tel":"031-284-9898","addr":"경기도 용인시 기흥구 동백동 623-13번지 102호","category":"서적문구 - 기타서적문구"},{"name":"주식회사 모리온","tel":"070-4225-4456","addr":"경기도 용인시 기흥구 동백동 623-13번지","category":"의류 - 정장"},{"name":"주식회사찬원상사","tel":"070-8879-2837","addr":"경기도 용인시 기흥구 동백동 623-13번지 1층","category":"음료식품 - 기타음료식품"}]},{"lat":"37.282338083","long":"127.15416279","items":[{"name":"다이오진 랩","tel":"031-701-6488","addr":"경기도 용인시 기흥구 동백동 654번지 호수마을동보노빌리티 1201동 102호","category":"용역 서비스 - 사무서비스"}]},{"lat":"37.289795649","long":"127.15643317","items":[{"name":"다함인터내셔날(주)","tel":"070-7520-7818","addr":"경기도 용인시 기흥구 동백동 380-2번지","category":"용역 서비스 - 소프트웨어"},{"name":"주식회사미라클코퍼레이션/콩사랑청국장","tel":"031-286-6096","addr":"경기도 용인시 기흥구 동백동 380-2번지","category":"일반휴게음식 - 일반한식"}]},{"lat":"37.282710003","long":"127.16585695","items":[{"name":"단아돌파티","tel":"031-306-2306","addr":"경기도 용인시 기흥구 동백동 584번지 백현마을주공9단지아파트","category":"용역 서비스 - 혼례서비스"}]},{"lat":"37.278813808","long":"127.15514799","items":[{"name":"단아하라 (DANAHARA)","tel":"","addr":"경기도 용인시 기흥구 동백동 653번지 호수마을상록롯데캐슬 1002동 504호","category":"신변잡화 - 액세서리"},{"name":"현진","tel":"031-679-8606","addr":"경기도 용인시 기흥구 동백동 653번지 호수마을상록롯데캐슬 1002동 201호","category":"의류 - 기타의류"}]},{"lat":"37.282908375","long":"127.15207783","items":[{"name":"달달코롬","tel":"","addr":"경기도 용인시 기흥구 동백동 618-1번지 강미라씨근생주택 1층 101 일부호","category":"음료식품 - 기타음료식품"},{"name":"리필랜드잉크충전","tel":"031-287-8955","addr":"경기도 용인시 기흥구 동백동 618-1번지","category":"사무통신 - 기타 사무용품"},{"name":"제이엔피컴퍼니","tel":"02-866-7075","addr":"경기도 용인시 기흥구 동백동 618-1번지","category":"주방용구 - 주방용구"},{"name":"참선진","tel":"031-281-8111","addr":"경기도 용인시 기흥구 동백동 618-1번지 102호","category":"음료식품 - 기타음료식품"}]},{"lat":"37.281011024","long":"127.16295537","items":[{"name":"담에핀 꽃","tel":"","addr":"경기도 용인시 기흥구 동백동 596번지 백현마을한라비발디아파트","category":"의류 - 정장"}]},{"lat":"37.279824831","long":"127.15368418","items":[{"name":"담희","tel":"031-281-8151","addr":"경기도 용인시 기흥구 동백동 631-8번지 103호","category":"보건위생 - 피부미용실"},{"name":"루트원커피","tel":"031-0000-0000","addr":"경기도 용인시 기흥구 동백동 631-8번지 1층 102호","category":"일반휴게음식 - 서양음식"},{"name":"리즈속눈썹","tel":"","addr":"경기도 용인시 기흥구 동백동 631-8번지 101호","category":"보건위생 - 피부미용실"}]},{"lat":"37.285351027","long":"127.15138351","items":[{"name":"대영종합관리","tel":"031-287-2382","addr":"경기도 용인시 기흥구 동백동 607-1번지 301호","category":"건축자재 - 인테리어전문"},{"name":"두산한식뷔페","tel":"031-378-6474","addr":"경기도 용인시 기흥구 동백동 607-1번지 1층","category":"일반휴게음식 - 일반한식"}]},{"lat":"37.280350926","long":"127.15091137","items":[{"name":"더도노스튜디오(the dono studio)","tel":"031-8005-9939","addr":"경기도 용인시 기흥구 동백동 689번지 동문굿모닝힐 상가 103호","category":"일반휴게음식 - 일반한식"},{"name":"도토리나무음악교습소","tel":"031-289-9567","addr":"경기도 용인시 기흥구 동백동 689번지 해든마을동문굿모닝힐 203호","category":"학원 - 예·체능계학원"},{"name":"스케치북아트교습소","tel":"031-289-9122","addr":"경기도 용인시 기흥구 동백동 689번지 해든마을동문굿모닝힐아파트 상가동 102호","category":"학원 - 예·체능계학원"},{"name":"연세이지수학교습소","tel":"031-289-9100","addr":"경기도 용인시 기흥구 동백동 689번지 동문굿모닝힐 상가동 202호","category":"학원 - 보습학원"},{"name":"지우헤어샵","tel":"031-679-6127","addr":"경기도 용인시 기흥구 동백동 689해든마을동문굿모닝힐상가동2층201","category":"보건위생 - 미용원"}]},{"lat":"37.280041508","long":"127.15334634","items":[{"name":"더루아르플라워","tel":"03-100-0000","addr":"경기도 용인시 기흥구 동백동 628-8번지","category":"문화.취미 - 화원"}]},{"lat":"37.281131847","long":"127.15326958","items":[{"name":"더보쌈","tel":"031-286-5253","addr":"경기도 용인시 기흥구 동백동 624-8번지 1층","category":"일반휴게음식 - 일반한식"}]},{"lat":"37.281875441","long":"127.16337442","items":[{"name":"더블유지엑스(W GX)스튜디오","tel":"031-693-2299","addr":"경기도 용인시 기흥구 동백동 593번지 백현마을모아미래도2단지아파트","category":"회원제형태 - 레져업소"},{"name":"더샵음악교습소","tel":"031-693-2088","addr":"경기도 용인시 기흥구 동백동 593번지 백현마을모아미래도 상가동 202호","category":"학원 - 예·체능계학원"},{"name":"아름다운머리","tel":"031-285-2004","addr":"경기도 용인시 기흥구 동백동 593번지 백현마을모아미래도아파트 상가 104호","category":"보건위생 - 미용원"},{"name":"용인대백현태권도","tel":"031-693-2333","addr":"경기도 용인시 기흥구 동백동 593번지 모아미래도 상가동 3층","category":"학원 - 예·체능계학원"}]},{"lat":"37.280013759","long":"127.15391007","items":[{"name":"더제이숍 (The J Shop)","tel":"031-885-4403","addr":"경기도 용인시 기흥구 동백동 631-6번지","category":"의류 - 정장"},{"name":"모다수","tel":"031-274-1077","addr":"경기도 용인시 기흥구 동백동 631-6번지 1605동 1304호","category":"의류 - 정장"},{"name":"홀핸즈","tel":"070-8825-7852","addr":"경기도 용인시 기흥구 동백동 631-6번지 102호","category":"음료식품 - 농·축·수산품"}]},{"lat":"37.285364469","long":"127.16184821","items":[{"name":"데쟈뷰","tel":"02-3463-6236","addr":"경기도 용인시 기흥구 동백동 579번지 백현마을서해그랑블아파트","category":"문화.취미 - 화원"}]},{"lat":"37.284241049","long":"127.15274577","items":[{"name":"도로시","tel":"031-281-3635","addr":"경기도 용인시 기흥구 동백동 610-9번지 1층","category":"일반휴게음식 - 서양음식"}]},{"lat":"37.293512262","long":"127.16660203","items":[{"name":"도서출판 동락","tel":"","addr":"경기도 용인시 기흥구 동백동 73-54번지 102호","category":"서적문구 - 출판 및 인쇄물"}]},{"lat":"37.284434071","long":"127.16358283","items":[{"name":"도서출판등대지기","tel":"031-287-0033","addr":"경기도 용인시 기흥구 동백동 581번지 백현마을주공7단지아파트","category":"회원제형태 - 서적"},{"name":"소영건어물","tel":"","addr":"경기도 용인시 기흥구 동백동 581번지 백현마을주공7단지아파트","category":"음료식품 - 농·축·수산품"}]},{"lat":"37.282159595","long":"127.15976667","items":[{"name":"동백뉴스터디학원","tel":"031-282-0670","addr":"경기도 용인시 기흥구 동백동 598-2번지 동백프라자 6층 601-1호","category":"학원 - 보습학원"},{"name":"동백어썸커뮤니티","tel":"031-693-6836","addr":"경기도 용인시 기흥구 동백동 598-2번지 동백프라자 402호","category":"용역 서비스 - 사무서비스"},{"name":"동백어썸팩토리독서실","tel":"031-693-6836","addr":"경기도 용인시 기흥구 동백동 598-2번지 동백프라자","category":"학원 - 독서실"},{"name":"동백학원","tel":"070-8810-2919","addr":"경기도 용인시 기흥구 동백동 598-2번지 동백프라자 602호","category":"학원 - 보습학원"},{"name":"밝은눈 안경","tel":"031-8005-6002","addr":"경기도 용인시 기흥구 동백동 598-2번지 동백프라자 103,104호","category":"보건위생 - 안경"},{"name":"소년공방미술교습소","tel":"070-7793-0079","addr":"경기도 용인시 기흥구 동백동 598-2번지 동백프라자 1층 106호","category":"학원 - 예·체능계학원"},{"name":"아트샘미술교습소","tel":"031-693-9633","addr":"경기도 용인시 기흥구 동백동 598-2번지 동백프라자 601호","category":"학원 - 예·체능계학원"},{"name":"지에스(GS)에듀학원","tel":"031-287-6004","addr":"경기도 용인시 기흥구 동백동 598-2번지 동백프라자 7층","category":"학원 - 보습학원"},{"name":"지혜의샘학원","tel":"031-274-3090","addr":"경기도 용인시 기흥구 동백동 598-2번지 동백프라자 302","category":"학원 - 보습학원"}]},{"lat":"37.284492392","long":"127.15349052","items":[{"name":"동백도담동물병원","tel":"031-548-2526","addr":"경기도 용인시 기흥구 동백동 605-11번지 1층","category":"기타의료기관 - 동물병원"}]},{"lat":"37.280347784","long":"127.15340333","items":[{"name":"동백멘토플러스학원","tel":"031-693-6481","addr":"경기도 용인시 기흥구 동백동 628-11번지","category":"학원 - 보습학원"}]},{"lat":"37.282429149","long":"127.15340747","items":[{"name":"동백면옥","tel":"031-283-8882","addr":"경기도 용인시 기흥구 동백동 619-4번지 1층 102호","category":"일반휴게음식 - 일반한식"},{"name":"멍그루밍","tel":"031-283-3536","addr":"경기도 용인시 기흥구 동백동 619-4번지 1층 101호","category":"문화.취미 - 애완동물"}]},{"lat":"37.27857612","long":"127.15073876","items":[{"name":"동백사랑 숯불갈비","tel":"031-275-9925","addr":"경기도 용인시 기흥구 동백동 478-1번지","category":"일반휴게음식 - 일반한식"}]},{"lat":"37.280987224","long":"127.15363012","items":[{"name":"동백자연미술학원","tel":"031-693-9392","addr":"경기도 용인시 기흥구 동백동 625-8번지 1층","category":"학원 - 예·체능계학원"}]},{"lat":"37.285322434","long":"127.15262387","items":[{"name":"동백점기아오토큐","tel":"031-693-8581","addr":"경기도 용인시 기흥구 동백동 607-10번지","category":"자동차정비 유지 - 자동차정비"}]},{"lat":"37.27746538","long":"127.15270979","items":[{"name":"동백쥬니어치과","tel":"031-285-7522","addr":"경기도 용인시 기흥구 동백동 832-1 동백훼미리프라자 5층 506호~507호 506","category":"의원 - 치과의원"}]},{"lat":"37.282294739","long":"127.15282085","items":[{"name":"동백집","tel":"031-893-4633","addr":"경기도 용인시 기흥구 동백동 621-6번지 1층","category":"일반휴게음식 - 일반한식"}]},{"lat":"37.282438029","long":"127.16706292","items":[{"name":"동백클린업","tel":"070-8872-7238","addr":"경기도 용인시 기흥구 동백동 584번지 백현마을주공9단지아파트","category":"용역 서비스 - 종합용역"}]},{"lat":"37.282519609","long":"127.15312575","items":[{"name":"동백푸드","tel":"031-275-8955","addr":"경기도 용인시 기흥구 동백동 620-8번지","category":"일반휴게음식 - 일반한식"}]},{"lat":"37.283763193","long":"127.1529929","items":[{"name":"동백홈참치","tel":"02-1234-1234","addr":"경기도 용인시 기흥구 동백동 613-9번지 1층","category":"일반휴게음식 - 일식·회집"}]},{"lat":"37.281852737","long":"127.15321463","items":[{"name":"동백화로불닭발","tel":"031-285-1215","addr":"경기도 용인시 기흥구 동백동 622-7번지","category":"일반휴게음식 - 일반한식"},{"name":"세븐일레븐.동백호수점","tel":"031-287-9266","addr":"경기도 용인시 기흥구 동백동 622-7번지","category":"유통업 영리 - 편 의 점"}]},{"lat":"37.28252048","long":"127.1524379","items":[{"name":"돼지갈비맛있는집","tel":"031-284-1592","addr":"경기도 용인시 기흥구 동백동 620-12번지 1층","category":"일반휴게음식 - 일반한식"},{"name":"지엠티코리아","tel":"031-281-5546","addr":"경기도 용인시 기흥구 동백동 620-12번지 102호","category":"주방용구 - 주방용구"}]},{"lat":"37.281545859","long":"127.15363123","items":[{"name":"드럼통소갈비살","tel":"070-4754-7547","addr":"경기도 용인시 기흥구 동백동 626-2번지 103호 102호,103호","category":"일반휴게음식 - 일반한식"},{"name":"드럼통소갈비살","tel":"031-282-1222","addr":"경기도 용인시 기흥구 동백동 626-2번지 102,103호","category":"일반휴게음식 - 일반한식"},{"name":"바오밥","tel":"070-8966-2173","addr":"경기도 용인시 기흥구 동백동 626-2번지 104호","category":"일반휴게음식 - 일반한식"}]},{"lat":"37.285350645","long":"127.15168797","items":[{"name":"드림사","tel":"031-275-1254","addr":"경기도 용인시 기흥구 동백동 607-3번지","category":"보건위생 - 미용재료"}]},{"lat":"37.290434935","long":"127.15677279","items":[{"name":"드림푸드시스템","tel":"031-283-8596","addr":"경기도 용인시 기흥구 동백동 381-9번지","category":"음료식품 - 농·축·수산품"}]},{"lat":"37.280464458","long":"127.15376439","items":[{"name":"드방(DEVANT)","tel":"031-4707-8085","addr":"경기도 용인시 기흥구 동백동 628-3번지 1층","category":"의류 - 정장"}]},{"lat":"37.281182141","long":"127.1695409","items":[{"name":"떼레즈(therese)","tel":"031-265-7536","addr":"경기도 용인시 기흥구 동백동 16-8번지","category":"문화.취미 - 민예·공예품"}]},{"lat":"37.284990137","long":"127.1517662","items":[{"name":"또바기오색반찬","tel":"070-8825-2464","addr":"경기도 용인시 기흥구 동백동 608-16번지 1층","category":"음료식품 - 기타음료식품"}]},{"lat":"37.284403633","long":"127.15243035","items":[{"name":"뚱보곱창","tel":"031-282-2744","addr":"경기도 용인시 기흥구 동백동 610-6번지 1층 101호","category":"일반휴게음식 - 일반한식"}]},{"lat":"37.279846902","long":"127.15047063","items":[{"name":"라온 키즈 아카데미","tel":"","addr":"경기도 용인시 기흥구 동백동 689번지 해든마을동문굿모닝힐","category":"학원 - 기타 교육기관"}]},{"lat":"37.284129542","long":"127.15539551","items":[{"name":"랜돌프테크","tel":"","addr":"경기도 용인시 기흥구 동백동 604번지 호수마을계룡리슈빌 1405동 2201호","category":"용역 서비스 - 기타용역서비스"}]},{"lat":"37.289658762","long":"127.15776361","items":[{"name":"로얄튼너싱홈","tel":"031-285-5850","addr":"경기도 용인시 기흥구 동백동 371-1번지","category":"기타의료기관 - 기타의료기관 및 기타"}]},{"lat":"37.284240707","long":"127.15301641","items":[{"name":"루앙쥬","tel":"031-281-1009","addr":"경기도 용인시 기흥구 동백동 606-10번지 1층","category":"일반휴게음식 - 서양음식"}]},{"lat":"37.281325239","long":"127.17029671","items":[{"name":"루즈벨트 테디베어 글로벌","tel":"070-7789-1872","addr":"경기도 용인시 기흥구 동백동 16-34번지 1층","category":"레져용품 - 스포츠·레져용품"}]},{"lat":"37.285014443","long":"127.16082131","items":[{"name":"루피의 작업실","tel":"031-891-1974","addr":"경기도 용인시 기흥구 동백동 579번지 백현마을서해그랑블아파트","category":"회원제형태 - 기타4"}]},{"lat":"37.27921248","long":"127.15341234","items":[{"name":"르뺑데쟈코벵","tel":"031-285-3643","addr":"경기도 용인시 기흥구 동백동 633-12번지 101호","category":"음료식품 - 제과점"}]},{"lat":"37.278866604","long":"127.14900289","items":[{"name":"리디아보석상자","tel":"","addr":"경기도 용인시 기흥구 동백동 683번지 동원마을동원로얄듀크","category":"신변잡화 - 액세서리"}]},{"lat":"37.284989711","long":"127.15210449","items":[{"name":"리홈쿠첸 용인서비스","tel":"031-287-2797","addr":"경기도 용인시 기흥구 동백동 608-14번지","category":"수리서비스 - 가정용품수리"}]},{"lat":"37.284241691","long":"127.15223833","items":[{"name":"마녀의 뜰","tel":"02-111-1111","addr":"경기도 용인시 기흥구 동백동 610-12번지 1층","category":"일반휴게음식 - 서양음식"}]},{"lat":"37.283492327","long":"127.15343214","items":[{"name":"마실더그린테이블","tel":"070-4120-1991","addr":"경기도 용인시 기흥구 동백동 614-5번지 1층 101호","category":"일반휴게음식 - 서양음식"},{"name":"아델","tel":"031-285-2995","addr":"경기도 용인시 기흥구 동백동 614-5번지 104호","category":"보건위생 - 화장품"}]},{"lat":"37.284376217","long":"127.15273476","items":[{"name":"막창골목(동백본점)","tel":"031-283-0045","addr":"경기도 용인시 기흥구 동백동 610-8번지 101호","category":"일반휴게음식 - 일반한식"},{"name":"벅스네","tel":"031-274-0704","addr":"경기도 용인시 기흥구 동백동 610-8번지","category":"문화.취미 - 애완동물"}]},{"lat":"37.280906519","long":"127.15332551","items":[{"name":"만골완구","tel":"070-5563-1498","addr":"경기도 용인시 기흥구 동백동 625-6번지 202호","category":"서적문구 - 완구점"},{"name":"제이모터스킨(J motor skin)","tel":"031-287-5032","addr":"경기도 용인시 기흥구 동백동 625-6번지 1층","category":"자동차정비 유지 - 카인테리어"},{"name":"참미트","tel":"031-283-6509","addr":"경기도 용인시 기흥구 동백동 625-6번지 1층","category":"음료식품 - 정육점"}]},{"lat":"37.284157457","long":"127.1547077","items":[{"name":"매쓰루동백수학교습소","tel":"031-285-6123","addr":"경기도 용인시 기흥구 동백동 604번지 호수마을계룡리슈빌 상가 204호","category":"회원제형태 - 학원"},{"name":"에코","tel":"02-1599-9967","addr":"경기도 용인시 기흥구 동백동 604번지 호수마을계룡리슈빌","category":"용역 서비스 - 종합용역"}]},{"lat":"37.28448394","long":"127.15305072","items":[{"name":"매직터치 동백중앙점","tel":"031-275-0545","addr":"경기도 용인시 기흥구 동백동 606-12번지 상가 1층","category":"자동차정비 유지 - 카인테리어"}]},{"lat":"37.282655177","long":"127.15279901","items":[{"name":"메밀촌삼겹","tel":"031-8005-7621","addr":"경기도 용인시 기흥구 동백동 620-5번지 1층","category":"일반휴게음식 - 일반한식"}]},{"lat":"37.280632053","long":"127.14945733","items":[{"name":"멜팅뉴니","tel":"031-609-0020","addr":"경기도 용인시 기흥구 동백동 683번지 동원마을동원로얄듀크","category":"가구 - 기타가구"}]},{"lat":"37.285295218","long":"127.15277042","items":[{"name":"명당공인중개사사무소","tel":"031-693-8988","addr":"경기도 용인시 기흥구 동백동 607-11번지 102호","category":"용역 서비스 - 법률회계서비스(개인)"},{"name":"호수동물병원","tel":"031-8005-7507","addr":"경기도 용인시 기흥구 동백동 607-11번지","category":"기타의료기관 - 동물병원"}]},{"lat":"37.284907435","long":"127.15304028","items":[{"name":"명성카","tel":"031-693-6788","addr":"경기도 용인시 기흥구 동백동 606-15번지","category":"자동차정비 유지 - 자동차정비"},{"name":"좋은친구카서비스","tel":"031-693-6788","addr":"경기도 용인시 기흥구 동백동 606-15번지","category":"자동차정비 유지 - 자동차부품"}]},{"lat":"37.279852808","long":"127.15294004","items":[{"name":"명진종합상사","tel":"070-1447-0987","addr":"경기도 용인시 기흥구 동백동 630-8번지","category":"보건위생 - 화장품"}]},{"lat":"37.285322634","long":"127.152466","items":[{"name":"모두엔 (MODU&)","tel":"070-8615-9561","addr":"경기도 용인시 기흥구 동백동 607-9번지 1층","category":"일반휴게음식 - 서양음식"},{"name":"커피와나무","tel":"031-274-7097","addr":"경기도 용인시 기흥구 동백동 607-9번지","category":"가구 - 일반가구"}]},{"lat":"37.280600872","long":"127.15277238","items":[{"name":"몸마인드센터(mohmind center)","tel":"031-283-1909","addr":"경기도 용인시 기흥구 동백동 625-15번지","category":"레저업소 - 헬스클럽"}]},{"lat":"37.280013341","long":"127.15423707","items":[{"name":"몽고반점/주식회사 이데","tel":"031-693-5885","addr":"경기도 용인시 기흥구 동백동 633-3번지 1층 101호","category":"일반휴게음식 - 중국식"}]},{"lat":"37.285267801","long":"127.15307483","items":[{"name":"뮤엠영어 계룡리슈빌점 영어교습소","tel":"","addr":"경기도 용인시 기흥구 동백동 605-1번지 1층","category":"학원 - 외국어학원"},{"name":"뿌리염색체험방","tel":"031-281-2919","addr":"경기도 용인시 기흥구 동백동 605-1번지 101호","category":"보건위생 - 화장품"},{"name":"세븐일레븐동백제일점","tel":"","addr":"경기도 용인시 기흥구 동백동 605-1번지 102호","category":"유통업 영리 - 편 의 점"}]},{"lat":"37.280158812","long":"127.15321126","items":[{"name":"뮤코카페협동조합","tel":"031-275-8007","addr":"경기도 용인시 기흥구 동백동 628-9번지 1층","category":"일반휴게음식 - 서양음식"},{"name":"크리미뇽(Cr-Mignon)","tel":"","addr":"경기도 용인시 기흥구 동백동 628-9번지 302호","category":"문화.취미 - 문화취미기타"}]},{"lat":"37.281934529","long":"127.15266227","items":[{"name":"미랑","tel":"031-284-9686","addr":"경기도 용인시 기흥구 동백동 622-2번지 1층","category":"일반휴게음식 - 일반한식"},{"name":"미랑","tel":"031-284-9686","addr":"경기도 용인시 기흥구 동백동 622-2번지 1층 1호","category":"음료식품 - 기타음료식품"}]},{"lat":"37.280088136","long":"127.15908582","items":[{"name":"미래인테리어","tel":"070-8879-7755","addr":"경기도 용인시 기흥구 동백동 661번지 백현마을코아루아파트","category":"건축자재 - 인테리어전문"}]},{"lat":"37.279992593","long":"127.16315618","items":[{"name":"미소랩","tel":"031-284-5188","addr":"경기도 용인시 기흥구 동백동 590번지 하우스디동백테라스 112동 1호","category":"서적문구 - 과학기자재"},{"name":"지피(GP)유통","tel":"031-891-5447","addr":"경기도 용인시 기흥구 동백동 590번지 하우스디동백테라스 113동 2호","category":"문화.취미 - 애완동물"}]},{"lat":"37.286044645","long":"127.15152019","items":[{"name":"미싱공방","tel":"031-111-1111","addr":"경기도 용인시 기흥구 동백동 572번지 호수마을자연앤데시앙 1701동 1202호","category":"문화.취미 - 문화취미기타"},{"name":"좋은 아이들","tel":"","addr":"경기도 용인시 기흥구 동백동 572번지 호수마을자연앤데시앙 1701동 503호","category":"학원 - 기타 교육기관"}]},{"lat":"37.284015451","long":"127.15301596","items":[{"name":"믿음카센타","tel":"031-693-5112","addr":"경기도 용인시 기흥구 동백동 613-1번지","category":"자동차정비 유지 - 자동차정비"},{"name":"아쿠아포레스트","tel":"031-284-3334","addr":"경기도 용인시 기흥구 동백동 613-1번지 102호 103","category":"문화.취미 - 수족관"}]},{"lat":"37.280373289","long":"127.15459862","items":[{"name":"바나나콩","tel":"031-000-0000","addr":"경기도 용인시 기흥구 동백동 627-5번지 1층","category":"음료식품 - 기타음료식품"},{"name":"백청우칼국수","tel":"031-226-4025","addr":"경기도 용인시 기흥구 동백동 627-5번지 1층","category":"일반휴게음식 - 일반한식"},{"name":"은샘개인과외","tel":"031-000-0000","addr":"경기도 용인시 기흥구 동백동 627-5번지","category":"학원 - 기타 교육기관"},{"name":"주식회사 제이에스네트웍스","tel":"031-000-0000","addr":"경기도 용인시 기흥구 동백동 627-5번지 202호","category":"보건위생 - 의료용품"}]},{"lat":"37.282654977","long":"127.15295688","items":[{"name":"바디복싱 다이어트 스파르타 짐","tel":"031-282-1822","addr":"경기도 용인시 기흥구 동백동 620-6번지 1층","category":"레저업소 - 헬스클럽"}]},{"lat":"37.281858016","long":"127.16293462","items":[{"name":"바디케어","tel":"02-111-1111","addr":"경기도 용인시 기흥구 동백동 593번지 백현마을모아미래도2단지아파트","category":"의류 - 내의판매"},{"name":"연우Dream","tel":"","addr":"경기도 용인시 기흥구 동백동 593번지 백현마을모아미래도2단지아파트","category":"신변잡화 - 기타잡화"}]},{"lat":"37.295705866","long":"127.17010301","items":[{"name":"바비돌/픽시윙스 캐터리","tel":"031-111-1111","addr":"경기도 용인시 기흥구 동백동 75-156번지 1호","category":"문화.취미 - 애완동물"}]},{"lat":"37.284525074","long":"127.16291771","items":[{"name":"바오밥나무ART","tel":"","addr":"경기도 용인시 기흥구 동백동 581번지 백현마을주공7단지아파트","category":"학원 - 예·체능계학원"}]},{"lat":"37.283735561","long":"127.15346646","items":[{"name":"바이오퍼(BUYOFFER)","tel":"070-8888-9805","addr":"경기도 용인시 기흥구 동백동 614-3번지 202호","category":"신변잡화 - 기타잡화"},{"name":"수학의나래수학교습소","tel":"","addr":"경기도 용인시 기흥구 동백동 614-3번지 1층 102호","category":"학원 - 보습학원"},{"name":"올가뷰티","tel":"","addr":"경기도 용인시 기흥구 동백동 614-3번지 103호","category":"보건위생 - 화장품"},{"name":"주니어옷장","tel":"","addr":"경기도 용인시 기흥구 동백동 614-3번지 1층","category":"의류 - 아동의류"},{"name":"쿨헤어샵","tel":"031-283-4512","addr":"경기도 용인시 기흥구 동백동 614-3번지 101호","category":"보건위생 - 미용원"}]},{"lat":"37.284604379","long":"127.15748261","items":[{"name":"바이온텍 이온샘","tel":"031-281-8810","addr":"경기도 용인시 기흥구 동백동 602번지 호수마을주공3단지아파트","category":"수리서비스 - 기타수리서비스"}]},{"lat":"37.296268197","long":"127.16746515","items":[{"name":"바이옴(Biome)","tel":"","addr":"경기도 용인시 기흥구 동백동 75-82번지","category":"자동차정비 유지 - 세차장"}]},{"lat":"37.277766433","long":"127.14974494","items":[{"name":"벅스피아노교습소","tel":"031-282-2741","addr":"경기도 용인시 기흥구 동백동 481-1번지 (주)대풍목재.합판할인매장 218동 107호","category":"학원 - 예·체능계학원"}]},{"lat":"37.282099995","long":"127.15004654","items":[{"name":"베이비파스텔","tel":"031-889-9607","addr":"경기도 용인시 기흥구 동백동 445-25번지","category":"광학제품 - 사진관"}]},{"lat":"37.282879975","long":"127.15316029","items":[{"name":"별법동태탕,동태찜","tel":"031-8005-6692","addr":"경기도 용인시 기흥구 동백동 618-8번지","category":"일반휴게음식 - 일반한식"}]},{"lat":"37.284240134","long":"127.15346746","items":[{"name":"보성떡","tel":"031-693-8887","addr":"경기도 용인시 기흥구 동백동 605-13번지 상가 102호","category":"음료식품 - 제과점"}]},{"lat":"37.281240256","long":"127.15304427","items":[{"name":"보육사(용인)","tel":"031-287-6216","addr":"경기도 용인시 기흥구 동백동 624-4번지","category":"서적문구 - 기타서적문구"}]},{"lat":"37.282513157","long":"127.15109603","items":[{"name":"봉평면옥","tel":"031-274-6257","addr":"경기도 용인시 기흥구 동백동 444번지 1층","category":"일반휴게음식 - 일반한식"}]},{"lat":"37.279879495","long":"127.15321071","items":[{"name":"부국","tel":"070-7613-9348","addr":"경기도 용인시 기흥구 동백동 630-2번지 102호","category":"건축자재 - 기타건축자재"},{"name":"에코공작소","tel":"031-338-1302","addr":"경기도 용인시 기흥구 동백동 630-2번지 103호","category":"문화.취미 - 문화취미기타"},{"name":"우도갈비&막국수","tel":"","addr":"경기도 용인시 기흥구 동백동 630-2번지 101호","category":"일반휴게음식 - 일반한식"}]},{"lat":"37.281654053","long":"127.15357507","items":[{"name":"뷰티살롱","tel":"031-000-0000","addr":"경기도 용인시 기흥구 동백동 626-1번지 1층 102호","category":"보건위생 - 미용원"},{"name":"뻥튀기","tel":"031-285-0011","addr":"경기도 용인시 기흥구 동백동 626-1번지 103호","category":"보건위생 - 미용원"},{"name":"섬김유통","tel":"031-285-0755","addr":"경기도 용인시 기흥구 동백동 626-1번지 302호","category":"음료식품 - 기타음료식품"},{"name":"열방유통","tel":"031-285-0755","addr":"경기도 용인시 기흥구 동백동 626-1번지 302호","category":"음료식품 - 기타음료식품"},{"name":"채니","tel":"031-274-3144","addr":"경기도 용인시 기흥구 동백동 626-1번지 상가 1층 102호","category":"의류 - 정장"},{"name":"피부관리","tel":"031-548-5264","addr":"경기도 용인시 기흥구 동백동 626-1번지 101호","category":"보건위생 - 피부미용실"}]},{"lat":"37.283294375","long":"127.1532175","items":[{"name":"브라운블랙(BROWN BLACK)","tel":"031-693-9816","addr":"경기도 용인시 기흥구 동백동 615-10번지","category":"일반휴게음식 - 일반한식"}]},{"lat":"37.28034672","long":"127.15423774","items":[{"name":"브리스","tel":"031-275-3841","addr":"경기도 용인시 기흥구 동백동 631-2번지 1층","category":"일반휴게음식 - 일반한식"}]},{"lat":"37.284764497","long":"127.15207022","items":[{"name":"블라블라모터스(BLAHBLAHMOTOS)","tel":"031-286-2792","addr":"경기도 용인시 기흥구 동백동 609-4번지 1층","category":"자동차정비 유지 - 카인테리어"}]},{"lat":"37.279932811","long":"127.15379715","items":[{"name":"블랑","tel":"","addr":"경기도 용인시 기흥구 동백동 631-7번지 1층 일부호","category":"일반휴게음식 - 서양음식"}]},{"lat":"37.283880683","long":"127.15271123","items":[{"name":"블루핸드","tel":"031-889-3851","addr":"경기도 용인시 기흥구 동백동 611-9번지","category":"기타 - 기타 전문점"}]},{"lat":"37.286821091","long":"127.16409536","items":[{"name":"비비큐치킨동백호수점","tel":"031-693-9292","addr":"경기도 용인시 기흥구 동백동 112-3.101","category":"일반휴게음식 - 서양음식"}]},{"lat":"37.277964729","long":"127.14968895","items":[{"name":"비전손세차장","tel":"031-898-3800","addr":"경기도 용인시 기흥구 동백동 479-6번지 외2필지제가동호,제나동호","category":"자동차정비 유지 - 세차장"}]},{"lat":"37.283627481","long":"127.15343241","items":[{"name":"뽀빠이","tel":"031-285-2226","addr":"경기도 용인시 기흥구 동백동 614-4번지 1층","category":"보건위생 - 미용원"},{"name":"아쿠아용인수족관","tel":"031-274-6402","addr":"경기도 용인시 기흥구 동백동 614-4번지 102,103호","category":"문화.취미 - 애완동물"}]},{"lat":"37.282185844","long":"127.15342954","items":[{"name":"뽕's차이나","tel":"031-286-1121","addr":"경기도 용인시 기흥구 동백동 619-6번지 102호","category":"일반휴게음식 - 중국식"},{"name":"크린토피아 동백노빌리티점","tel":"031-286-1990","addr":"경기도 용인시 기흥구 동백동 619-6번지 101호","category":"수리서비스 - 세탁소"}]},{"lat":"37.283901493","long":"127.15754883","items":[{"name":"사각사각","tel":"031-679-4343","addr":"경기도 용인시 기흥구 동백동 602번지 c4 2BL5 단지내상가 104호","category":"음료식품 - 농·축·수산품"}]},{"lat":"37.290984456","long":"127.15685285","items":[{"name":"산내음","tel":"031-287-8689","addr":"경기도 용인시 기흥구 동백동 381-1번지 외3필지","category":"일반휴게음식 - 일반한식"}]},{"lat":"37.289767929","long":"127.15696315","items":[{"name":"산수가장어","tel":"","addr":"경기도 용인시 기흥구 동백동 382-11번지 1층","category":"일반휴게음식 - 일반한식"},{"name":"플란티","tel":"031-281-8215","addr":"경기도 용인시 기흥구 동백동 382-11번지 2층","category":"일반휴게음식 - 서양음식"}]},{"lat":"37.279491409","long":"127.15371734","items":[{"name":"살롱 드 라","tel":"031-8005-7090","addr":"경기도 용인시 기흥구 동백동 633-9번지 1층","category":"보건위생 - 미용원"},{"name":"죠셉코냑헤어","tel":"031-8005-7090","addr":"경기도 용인시 기흥구 동백동 633-9번지","category":"보건위생 - 미용원"}]},{"lat":"37.281428654","long":"127.15368738","items":[{"name":"살롱드마르셸","tel":"031-000-0000","addr":"경기도 용인시 기흥구 동백동 626-3번지 103호","category":"보건위생 - 미용원"},{"name":"세심당한약국","tel":"031-8005-8876","addr":"경기도 용인시 기흥구 동백동 626-3번지","category":"약국 - 약국"},{"name":"쌍문동즉석불백","tel":"031-274-8024","addr":"경기도 용인시 기흥구 동백동 626-3번지 101호","category":"일반휴게음식 - 일반한식"}]},{"lat":"37.279878361","long":"127.15410149","items":[{"name":"삼부자황제갈비살(동백본점)","tel":"031-8005-9492","addr":"경기도 용인시 기흥구 동백동 633-5번지 1층","category":"일반휴게음식 - 일반한식"}]},{"lat":"37.286545313","long":"127.15459973","items":[{"name":"삼성영어동막영어교습소","tel":"031-287-3405","addr":"경기도 용인시 기흥구 동백동 575번지 상가동 1층 101-2호","category":"학원 - 외국어학원"}]},{"lat":"37.2867151","long":"127.15569392","items":[{"name":"삼일시스템","tel":"031-334-2323","addr":"경기도 용인시 기흥구 동백동 575번지 호수마을휴먼시아 1506동 1504호","category":"회원제형태 - 기타4"}]},{"lat":"37.278909118","long":"127.15104386","items":[{"name":"삼천리할인매장","tel":"031-285-8884","addr":"경기도 용인시 기흥구 동백동 477-1","category":"레져용품 - 스포츠·레져용품"}]},{"lat":"37.282485321","long":"127.16543925","items":[{"name":"색동숲","tel":"","addr":"경기도 용인시 기흥구 동백동 584번지 백현마을주공9단지아파트","category":"문화.취미 - 문화취미기타"}]},{"lat":"37.285164526","long":"127.16312204","items":[{"name":"서비스코리아","tel":"","addr":"경기도 용인시 기흥구 동백동 581번지 백현마을주공7단지아파트","category":"용역 서비스 - 기타용역서비스"}]},{"lat":"37.283987847","long":"127.15346696","items":[{"name":"서씨네","tel":"031-281-0777","addr":"경기도 용인시 기흥구 동백동 614-1번지 104호","category":"보건위생 - 피부미용실"},{"name":"세라하우스","tel":"031-274-6203","addr":"경기도 용인시 기흥구 동백동 614-1번지 102호","category":"의류 - 정장"},{"name":"예스텔레콤","tel":"031-000-0000","addr":"경기도 용인시 기흥구 동백동 614-1번지 1층 101호","category":"사무통신 - 통신기기"}]},{"lat":"37.283519586","long":"127.16018671","items":[{"name":"서울공부방","tel":"031-693-8666","addr":"경기도 용인시 기흥구 동백동 599번지 백현마을모아미래도1단지아파트","category":"회원제형태 - 학원"}]},{"lat":"37.280958269","long":"127.16198553","items":[{"name":"세븐일레븐동백한라비발디점","tel":"","addr":"경기도 용인시 기흥구 동백동 596번지 백현마을한라비발디 상가동 104호","category":"유통업 영리 - 편 의 점"},{"name":"에이피엠","tel":"031-285-4888","addr":"경기도 용인시 기흥구 동백동 596번지 백현마을한라비발디 상가동 104호","category":"유통업 영리 - 슈퍼마켓"}]},{"lat":"37.283938621","long":"127.15671446","items":[{"name":"셈틀","tel":"070-8615-2051","addr":"경기도 용인시 기흥구 동백동 602번지 호수마을주공3단지아파트","category":"수리서비스 - 사무·통신기기수리"},{"name":"소망 자동열쇠 A/S 하자보수","tel":"031-283-1322","addr":"경기도 용인시 기흥구 동백동 602번지 호수마을주공3단지아파트","category":"수리서비스 - 기타수리서비스"},{"name":"은혜코튼","tel":"031-281-5512","addr":"경기도 용인시 기흥구 동백동 602번지 호수마을주공3단지아파트","category":"직물 - 침구·수예점"}]},{"lat":"37.285322847","long":"127.15229685","items":[{"name":"소담한밥상","tel":"031-111-1111","addr":"경기도 용인시 기흥구 동백동 607-8번지 1층","category":"일반휴게음식 - 일반한식"},{"name":"주식회사 체리아이디","tel":"031-283-2583","addr":"경기도 용인시 기흥구 동백동 607-8번지 1층","category":"건축자재 - 인테리어전문"}]},{"lat":"37.28176352","long":"127.15251534","items":[{"name":"소문난 뒷고기","tel":"031-283-1267","addr":"경기도 용인시 기흥구 동백동 622-11번지 101호","category":"일반휴게음식 - 일반한식"}]},{"lat":"37.284016008","long":"127.15257618","items":[{"name":"솔라가드프리미엄용인동백점","tel":"031-274-3014","addr":"경기도 용인시 기흥구 동백동 611-7번지 1층","category":"자동차정비 유지 - 자동차부품"}]},{"lat":"37.282159586","long":"127.15282058","items":[{"name":"수지 상하목장 DS 대리점","tel":"031-800-5556","addr":"경기도 용인시 기흥구 동백동 621-11번지 상가동 1층","category":"음료식품 - 기타음료식품"}]},{"lat":"37.284907178","long":"127.15324326","items":[{"name":"수학노트수학교습소","tel":"031-274-6001","addr":"경기도 용인시 기흥구 동백동 606-3번지 1층","category":"학원 - 보습학원"},{"name":"참다한쑥좌훈","tel":"031-274-8505","addr":"경기도 용인시 기흥구 동백동 606-3번지","category":"회원제형태 - 기타4"}]},{"lat":"37.28288069","long":"127.15259648","items":[{"name":"수학전문매쓰업학원","tel":"031-285-8324","addr":"경기도 용인시 기흥구 동백동 618-4번지 1층","category":"학원 - 보습학원"}]},{"lat":"37.281547132","long":"127.15262767","items":[{"name":"술마을이야기","tel":"031-287-2883","addr":"경기도 용인시 기흥구 동백동 623-2번지 1층","category":"일반휴게음식 - 일반한식"},{"name":"행복과일","tel":"031-261-0815","addr":"경기도 용인시 기흥구 동백동 623-2번지","category":"음료식품 - 농·축·수산품"}]},{"lat":"37.281186437","long":"127.15285248","items":[{"name":"쉐프삼촌동백점","tel":"031-223-1332","addr":"경기도 용인시 기흥구 동백동 624-2번지","category":"음료식품 - 기타음료식품"}]},{"lat":"37.279932658","long":"127.16082197","items":[{"name":"스타일헤어클럽","tel":"031-286-8842","addr":"경기도 용인시 기흥구 동백동 662번지 한라비발디 상가동 104호","category":"보건위생 - 미용원"},{"name":"종이문화재단 용인동백 종이문화교육원","tel":"070-8266-8586","addr":"경기도 용인시 기흥구 동백동 662번지 백현마을한라비발디","category":"문화.취미 - 문화취미기타"},{"name":"헤어비발디","tel":"031-275-3380","addr":"경기도 용인시 기흥구 동백동 662번지 백현마을한라비발디 상가 207호","category":"보건위생 - 미용원"}]},{"lat":"37.284790087","long":"127.1532092","items":[{"name":"스타짐","tel":"070-8281-2435","addr":"경기도 용인시 기흥구 동백동 606-4번지 1층","category":"레저업소 - 헬스클럽"}]},{"lat":"37.286558427","long":"127.15136332","items":[{"name":"스포르체","tel":"","addr":"경기도 용인시 기흥구 동백동 572번지 호수마을자연앤데시앙 1702동 503호","category":"의류 - 정장"}]},{"lat":"37.284015794","long":"127.15274533","items":[{"name":"시공디자인","tel":"031-283-1477","addr":"경기도 용인시 기흥구 동백동 611-8번지","category":"건축자재 - 인테리어전문"}]},{"lat":"37.280464026","long":"127.15410266","items":[{"name":"시원회수산","tel":"031-283-7714","addr":"경기도 용인시 기흥구 동백동 631-1번지","category":"일반휴게음식 - 일식·회집"}]},{"lat":"37.284241449","long":"127.15243003","items":[{"name":"신흥통신","tel":"031-264-0404","addr":"경기도 용인시 기흥구 동백동 610-11번지 302호","category":"사무통신 - 통신기기"}]},{"lat":"37.27937485","long":"127.15326608","items":[{"name":"쌈채마을","tel":"031-8005-9339","addr":"경기도 용인시 기흥구 동백동 632-2번지 외1필지","category":"일반휴게음식 - 일반한식"}]},{"lat":"37.279627623","long":"127.15288321","items":[{"name":"쌔카스팀세차 용인동백점","tel":"02-1855-3782","addr":"경기도 용인시 기흥구 동백동 632-7번지 1층","category":"자동차정비 유지 - 세차장"}]},{"lat":"37.281498959","long":"127.16193029","items":[{"name":"썬차일드교육사","tel":"031-281-5600","addr":"경기도 용인시 기흥구 동백동 596번지 백현마을한라비발디아파트","category":"서적문구 - 기타서적문구"},{"name":"유알오직판네트워크","tel":"031-693-6745","addr":"경기도 용인시 기흥구 동백동 596번지 백현마을한라비발디아파트","category":"기타 - 기타 전문점"}]},{"lat":"37.283082169","long":"127.16385058","items":[{"name":"아날로그공작실(ByAnalog)","tel":"031-302-6548","addr":"경기도 용인시 기흥구 동백동 583번지 백현마을휴먼시아","category":"회원제형태 - 기타4"}]},{"lat":"37.280238309","long":"127.15446304","items":[{"name":"아리가또맘마동백점","tel":"031-274-1588","addr":"경기도 용인시 기흥구 동백동 633-1번지 102호","category":"일반휴게음식 - 일반한식"},{"name":"카페스윗오븐","tel":"","addr":"경기도 용인시 기흥구 동백동 633-1번지","category":"일반휴게음식 - 서양음식"}]},{"lat":"37.279348106","long":"127.15304052","items":[{"name":"아틱스튜디오","tel":"031-8005-5477","addr":"경기도 용인시 기흥구 동백동 632-4번지 1층","category":"학원 - 컴퓨터학원"}]},{"lat":"37.28109602","long":"127.15310037","items":[{"name":"안디옥전산","tel":"031-287-5891","addr":"경기도 용인시 기흥구 동백동 624-9번지 1층","category":"사무통신 - 컴퓨터"}]},{"lat":"37.287375636","long":"127.15351882","items":[{"name":"애드포스","tel":"031-893-6665","addr":"경기도 용인시 기흥구 동백동 574번지 호수마을월드메르디앙 1603동 904호","category":"용역 서비스 - 종합용역"}]},{"lat":"37.281960903","long":"127.15318102","items":[{"name":"애플PC방","tel":"","addr":"경기도 용인시 기흥구 동백동 622-6번지 1층","category":"레저업소 - 기타레져업소"}]},{"lat":"37.282573312","long":"127.15340776","items":[{"name":"앨런골프스쿨","tel":"031-679-0975","addr":"경기도 용인시 기흥구 동백동 619-3번지 202호","category":"회원제형태 - 서적"},{"name":"줄리헤어","tel":"031-285-5034","addr":"경기도 용인시 기흥구 동백동 619-3번지 102호","category":"보건위생 - 미용원"}]},{"lat":"37.279068817","long":"127.15301741","items":[{"name":"앨런앤헤일리 로스팅하우스","tel":"031-283-8264","addr":"경기도 용인시 기흥구 동백동 633-16번지","category":"일반휴게음식 - 서양음식"}]},{"lat":"37.291210994","long":"127.16268376","items":[{"name":"어니스티샤베트(Honesty sherbet)","tel":"031-274-2761","addr":"경기도 용인시 기흥구 동백동 81-71번지","category":"문화.취미 - 화랑"}]},{"lat":"37.27968038","long":"127.15390941","items":[{"name":"에그와(egg wa)","tel":"031-274-4577","addr":"경기도 용인시 기흥구 동백동 633-7번지 1층","category":"일반휴게음식 - 일반한식"}]},{"lat":"37.283694634","long":"127.16402103","items":[{"name":"에듀바비수원영통지사","tel":"02-1522-0701","addr":"경기도 용인시 기흥구 동백동 583번지 백현마을휴먼시아 2803동 3층 1호","category":"용역 서비스 - 사무서비스"}]},{"lat":"37.28252028","long":"127.15259577","items":[{"name":"에듀코리아","tel":"031-285-5818","addr":"경기도 용인시 기흥구 동백동 620-11번지 1층 102호","category":"서적문구 - 기타서적문구"}]},{"lat":"37.284037029","long":"127.15725593","items":[{"name":"에버사운드","tel":"","addr":"경기도 용인시 기흥구 동백동 602번지 호수마을주공3단지아파트","category":"자동차정비 유지 - 자동차부품"}]},{"lat":"37.284422236","long":"127.15895946","items":[{"name":"엠케이싸이언스","tel":"031-281-2537","addr":"경기도 용인시 기흥구 동백동 602번지 호수마을주공3단지아파트","category":"서적문구 - 과학기자재"}]},{"lat":"37.293684079","long":"127.16615129","items":[{"name":"열매상사","tel":"031-283-7020","addr":"경기도 용인시 기흥구 동백동 73-55번지 향린촌연립주택 102호","category":"유통업 영리 - 기타유통업"}]},{"lat":"37.281293859","long":"127.15340521","items":[{"name":"오부가보쌈","tel":"031-297-0987","addr":"경기도 용인시 기흥구 동백동 624-6번지","category":"일반휴게음식 - 일반한식"}]},{"lat":"37.280265772","long":"127.15412482","items":[{"name":"오븐살롱","tel":"031-285-3184","addr":"경기도 용인시 기흥구 동백동 631-3번지 1층 101호","category":"일반휴게음식 - 서양음식"}]},{"lat":"37.281906455","long":"127.15348536","items":[{"name":"올리브그린","tel":"070-4418-3051","addr":"경기도 용인시 기흥구 동백동 619-8번지 101호","category":"음료식품 - 기타음료식품"}]},{"lat":"37.280770302","long":"127.15415966","items":[{"name":"요술옷장","tel":"031-286-8978","addr":"경기도 용인시 기흥구 동백동 627-1번지","category":"의류 - 정장"},{"name":"토스톡","tel":"031-283-4542","addr":"경기도 용인시 기흥구 동백동 627-1번지","category":"일반휴게음식 - 서양음식"},{"name":"푸라닭용인동백점","tel":"031-274-9206","addr":"경기도 용인시 기흥구 동백동 627-1번지 101호","category":"일반휴게음식 - 스넥"}]},{"lat":"37.279151943","long":"127.15140515","items":[{"name":"용인대화랑태권도","tel":"031-8005-5502","addr":"경기도 용인시 기흥구 동백동 476-1번지 3층","category":"학원 - 예·체능계학원"},{"name":"청호수산","tel":"031-287-7588","addr":"경기도 용인시 기흥구 동백동 476-1번지","category":"일반휴게음식 - 일식·회집"}]},{"lat":"37.28756801","long":"127.15101572","items":[{"name":"우다트","tel":"031-000-0000","addr":"경기도 용인시 기흥구 동백동 572번지 호수마을자연앤데시앙 1704동 1704호","category":"건축자재 - 목재·석재·철물"},{"name":"이즈파워","tel":"070-7847-4408","addr":"경기도 용인시 기흥구 동백동 572번지 호수마을자연앤데시앙 1704동 1203호","category":"신변잡화 - 기타잡화"}]},{"lat":"37.281907755","long":"127.15245924","items":[{"name":"우리아이창작미술학원","tel":"031-285-6224","addr":"경기도 용인시 기흥구 동백동 622-1번지 1층","category":"학원 - 예·체능계학원"}]},{"lat":"37.284269318","long":"127.15176478","items":[{"name":"원조칡냉면","tel":"031-286-7546","addr":"경기도 용인시 기흥구 동백동 610-15번지 101호","category":"일반휴게음식 - 일반한식"}]},{"lat":"37.284403875","long":"127.15223865","items":[{"name":"원펏","tel":"070-8237-7327","addr":"경기도 용인시 기흥구 동백동 610-4번지 1층","category":"레져용품 - 골프용품 전문점"}]},{"lat":"37.278960522","long":"127.1531525","items":[{"name":"월남쌈김상사동백점","tel":"031-8005-9229","addr":"경기도 용인시 기흥구 동백동 633-15번지","category":"일반휴게음식 - 일반한식"}]},{"lat":"37.280266505","long":"127.15354975","items":[{"name":"유로 인테리어","tel":"031-284-7757","addr":"경기도 용인시 기흥구 동백동 628-6번지 지하층","category":"건축자재 - 인테리어전문"}]},{"lat":"37.280342409","long":"127.1505167","items":[{"name":"유한바이오","tel":"031-282-3579","addr":"경기도 용인시 기흥구 동백동 689번지 해든마을동문굿모닝힐","category":"회원제형태 - 건강식품"}]},{"lat":"37.288794531","long":"127.1571867","items":[{"name":"이남장 용인","tel":"031-274-2112","addr":"경기도 용인시 기흥구 동백동 374-2번지","category":"일반휴게음식 - 일반한식"},{"name":"팔팔불고기","tel":"031-274-2112","addr":"경기도 용인시 기흥구 동백동 374-2번지 2층","category":"일반휴게음식 - 일반한식"}]},{"lat":"37.281106872","long":"127.15864816","items":[{"name":"이도훈영어과외","tel":"031-285-0013","addr":"경기도 용인시 기흥구 동백동 661번지 백현마을코아루아파트","category":"회원제형태 - 학원"}]},{"lat":"37.280131079","long":"127.15376372","items":[{"name":"이맘때","tel":"031-889-4313","addr":"경기도 용인시 기흥구 동백동 631-11번지 1층","category":"의류 - 정장"}]},{"lat":"37.284376389","long":"127.15259945","items":[{"name":"이수떡볶이","tel":"070-8879-1949","addr":"경기도 용인시 기흥구 동백동 610-7번지 102호","category":"음료식품 - 기타음료식품"}]},{"lat":"37.28376295","long":"127.1531846","items":[{"name":"이티씨영어학원","tel":"031-287-8748","addr":"경기도 용인시 기흥구 동백동 613-4번지 1층","category":"학원 - 보습학원"}]},{"lat":"37.283880297","long":"127.15301569","items":[{"name":"인사동","tel":"031-275-1712","addr":"경기도 용인시 기흥구 동백동 613-10번지","category":"일반휴게음식 - 일반한식"}]},{"lat":"37.284762699","long":"127.15349106","items":[{"name":"인프라컴","tel":"031-603-1119","addr":"경기도 용인시 기흥구 동백동 605-8번지 1층","category":"사무통신 - 컴퓨터"},{"name":"후라이드 참잘하는집","tel":"031-283-2837","addr":"경기도 용인시 기흥구 동백동 605-8번지 1층","category":"일반휴게음식 - 스넥"}]},{"lat":"37.28450647","long":"127.15655774","items":[{"name":"임마누엘","tel":"031-2488-7779","addr":"경기도 용인시 기흥구 동백동 602번지 호수마을주공3단지아파트","category":"보건위생 - 화장품"}]},{"lat":"37.280464731","long":"127.15355015","items":[{"name":"임수키","tel":"031-275-5929","addr":"경기도 용인시 기흥구 동백동 628-12번지 1층","category":"의류 - 정장"}]},{"lat":"37.284790288","long":"127.15305133","items":[{"name":"자동차외형복원","tel":"031-693-6907","addr":"경기도 용인시 기흥구 동백동 606-14번지 1층","category":"자동차정비 유지 - 자동차정비"}]},{"lat":"37.283880083","long":"127.15318484","items":[{"name":"장모님설렁탕","tel":"031-000-0000","addr":"경기도 용인시 기흥구 동백동 613-3번지","category":"일반휴게음식 - 일반한식"}]},{"lat":"37.27996787","long":"127.16144221","items":[{"name":"정앤에이포스","tel":"031-283-4432","addr":"경기도 용인시 기흥구 동백동 662번지 백현마을한라비발디","category":"전기제품 - 기타전기제품"}]},{"lat":"37.282689322","long":"127.16117729","items":[{"name":"제디씨 앤드 룸바 칼리엔테 피트니스","tel":"","addr":"경기도 용인시 기흥구 동백동 599번지 백현마을모아미래도1단지아파트","category":"학원 - 예·체능계학원"}]},{"lat":"37.282375567","long":"127.16662301","items":[{"name":"제이슨영어교습소","tel":"031-286-0557","addr":"경기도 용인시 기흥구 동백동 584 백현마을9단지상가2층","category":"회원제형태 - 학원"}]},{"lat":"37.283511648","long":"127.15240604","items":[{"name":"제이엔피","tel":"031-285-3960","addr":"경기도 용인시 기흥구 동백동 612-9번지","category":"레져용품 - 스포츠·레져용품"}]},{"lat":"37.279906378","long":"127.16025812","items":[{"name":"제이케이통상","tel":"031-893-3666","addr":"경기도 용인시 기흥구 동백동 662번지 백현마을한라비발디 2314동 1201호","category":"회원제형태 - 기타4"}]},{"lat":"37.28013033","long":"127.15435006","items":[{"name":"젠젠 용인동백점","tel":"031-281-7802","addr":"경기도 용인시 기흥구 동백동 633-2번지 1층","category":"일반휴게음식 - 서양음식"}]},{"lat":"37.287571337","long":"127.16232648","items":[{"name":"조영일도예공방","tel":"031-261-7705","addr":"경기도 용인시 기흥구 동백동 105-3번지","category":"문화.취미 - 민예·공예품"},{"name":"카페플로레스타","tel":"031-283-6928","addr":"경기도 용인시 기흥구 동백동 105-3번지 지하1층 일부","category":"일반휴게음식 - 서양음식"},{"name":"플로레스타","tel":"031-283-6928","addr":"경기도 용인시 기흥구 동백동 105-3번지 지하1층","category":"문화.취미 - 화랑"}]},{"lat":"37.283710247","long":"127.16578018","items":[{"name":"조잉글리시","tel":"031-0000-0000","addr":"경기도 용인시 기흥구 동백동 583번지 백현마을휴먼시아","category":"학원 - 기타 교육기관"}]},{"lat":"37.28087966","long":"127.15319015","items":[{"name":"좋은친구들 유아체육&오르프","tel":"070-7531-0588","addr":"경기도 용인시 기흥구 동백동 625-5번지 B02호","category":"학원 - 기타 교육기관"},{"name":"주식회사 사람꽃메디","tel":"031-287-2443","addr":"경기도 용인시 기흥구 동백동 625-5번지 102","category":"보건위생 - 의료용품"}]},{"lat":"37.281548595","long":"127.15146624","items":[{"name":"주식회사바이오닉스","tel":"031-1544-9107","addr":"경기도 용인시 기흥구 동백동 445-8번지 순석빌딩 1층2층3층4층","category":"보건위생 - 의료용품"},{"name":"펫클럽(용인동백점)","tel":"02-1833-7920","addr":"경기도 용인시 기흥구 동백동 445-8번지 순석빌딩 지하1층","category":"문화.취미 - 애완동물"}]},{"lat":"37.281738023","long":"127.15129747","items":[{"name":"주식회사참맛뜰/화춘옥","tel":"031-8005-7900","addr":"경기도 용인시 기흥구 동백동 445-4번지","category":"일반휴게음식 - 일반한식"}]},{"lat":"37.282295509","long":"127.15221194","items":[{"name":"주원포스","tel":"031-274-5155","addr":"경기도 용인시 기흥구 동백동 621-1번지 203호","category":"사무통신 - 통신기기"}]},{"lat":"37.280770934","long":"127.16720588","items":[{"name":"지브릭커피","tel":"02-1899-2192","addr":"경기도 용인시 기흥구 동백동 37-3번지 1층,지하1층일부","category":"일반휴게음식 - 서양음식"}]},{"lat":"37.283966181","long":"127.16310822","items":[{"name":"지케이(GK)콜밴","tel":"070-7566-7333","addr":"경기도 용인시 기흥구 동백동 581번지 백현마을주공7단지아파트","category":"여행 - 기타교통수단"}]},{"lat":"37.282409416","long":"127.16161647","items":[{"name":"진선원예","tel":"","addr":"경기도 용인시 기흥구 동백동 599","category":"회원제형태 - 기타4"}]},{"lat":"37.282321384","long":"127.15312535","items":[{"name":"춘자육개장전문점","tel":"031-285-7714","addr":"경기도 용인시 기흥구 동백동 621-8번지 1층","category":"일반휴게음식 - 일반한식"}]},{"lat":"37.279797369","long":"127.1540224","items":[{"name":"카페제이(CafeJ)","tel":"031-287-3005","addr":"경기도 용인시 기흥구 동백동 633-6번지 1층","category":"일반휴게음식 - 서양음식"}]},{"lat":"37.28015775","long":"127.15404567","items":[{"name":"카페트래블비스트로","tel":"031-287-6744","addr":"경기도 용인시 기흥구 동백동 631-4번지 1층","category":"일반휴게음식 - 서양음식"}]},{"lat":"37.281402754","long":"127.15279653","items":[{"name":"커피로","tel":"070-8810-5171","addr":"경기도 용인시 기흥구 동백동 623-11번지","category":"일반휴게음식 - 서양음식"}]},{"lat":"37.282069214","long":"127.1730159","items":[{"name":"컨테이너5-1(Container 5-1)","tel":"031-274-4535","addr":"경기도 용인시 기흥구 동백동 5-1번지","category":"문화.취미 - 문화취미기타"}]},{"lat":"37.286514953","long":"127.15010024","items":[{"name":"컬러튜닝(colortuning)","tel":"031-8005-6543","addr":"경기도 용인시 기흥구 동백동 414번지","category":"자동차정비 유지 - 카인테리어"}]},{"lat":"37.281425113","long":"127.16323815","items":[{"name":"코디세핀신동무역","tel":"070-8223-1026","addr":"경기도 용인시 기흥구 동백동 593번지 백현마을모아미래도2단지아파트","category":"건강식품 - 기타건강식품"}]},{"lat":"37.281466463","long":"127.15926908","items":[{"name":"코아루수학","tel":"","addr":"경기도 용인시 기흥구 동백동 661번지 백현마을코아루아파트","category":"학원 - 기타 교육기관"}]},{"lat":"37.284962267","long":"127.15243146","items":[{"name":"클레이 (CLAY)","tel":"031-282-8140","addr":"경기도 용인시 기흥구 동백동 608-12번지 101호","category":"일반휴게음식 - 서양음식"},{"name":"플리츠보","tel":"02-1111-1111","addr":"경기도 용인시 기흥구 동백동 608-12번지","category":"의류 - 정장"}]},{"lat":"37.285707766","long":"127.1542823","items":[{"name":"클린에어존","tel":"02-2157-8272","addr":"경기도 용인시 기흥구 동백동 575번지 호수마을휴먼시아 1501동 401호","category":"용역 서비스 - 종합용역"}]},{"lat":"37.281631794","long":"127.1701508","items":[{"name":"토이나라","tel":"031-322-7165","addr":"경기도 용인시 기흥구 동백동 16-11번지 1층 102호","category":"서적문구 - 기타서적문구"}]},{"lat":"37.285097207","long":"127.15260087","items":[{"name":"튜닝플러스","tel":"031-8005-7108","addr":"경기도 용인시 기흥구 동백동 608-8번지","category":"자동차정비 유지 - 자동차부품"}]},{"lat":"37.283908866","long":"127.1517979","items":[{"name":"페페살레","tel":"","addr":"경기도 용인시 기흥구 동백동 611-15번지 1층","category":"일반휴게음식 - 일반한식"}]},{"lat":"37.283520274","long":"127.15271051","items":[{"name":"푸드야","tel":"","addr":"경기도 용인시 기흥구 동백동 612-7번지 1층","category":"일반휴게음식 - 일반한식"}]},{"lat":"37.280293097","long":"127.16080017","items":[{"name":"프란츠","tel":"070-7675-0701","addr":"경기도 용인시 기흥구 동백동 662번지 백현마을한라비발디","category":"신변잡화 - 기타잡화"}]},{"lat":"37.282520693","long":"127.15226876","items":[{"name":"프랜차이즈 새늘","tel":"031-896-8089","addr":"경기도 용인시 기흥구 동백동 620-13번지","category":"음료식품 - 기타음료식품"}]},{"lat":"37.279746661","long":"127.1513725","items":[{"name":"프레이즈디자인(Praise Design)","tel":"070-7724-0976","addr":"경기도 용인시 기흥구 동백동 689번지 해든마을동문굿모닝힐 101동 1001호","category":"서적문구 - 출판 및 인쇄물"},{"name":"한국진로학습코칭협회","tel":"070-8031-4038","addr":"경기도 용인시 기흥구 동백동 689번지 해든마을동문굿모닝힐 101동 605호","category":"용역 서비스 - 사무서비스"}]},{"lat":"37.287031127","long":"127.15517583","items":[{"name":"플레이니터","tel":"","addr":"경기도 용인시 기흥구 동백동 575번지 호수마을휴먼시아 1505동 1603호","category":"신변잡화 - 가방"}]},{"lat":"37.281981205","long":"127.15839061","items":[{"name":"하버스카이 영어","tel":"","addr":"경기도 용인시 기흥구 동백동 656번지 호수마을서해그랑블 1102동 101호","category":"학원 - 기타 교육기관"}]},{"lat":"37.285350475","long":"127.15182329","items":[{"name":"하이카동백점","tel":"031-275-9888","addr":"경기도 용인시 기흥구 동백동 607-4번지","category":"자동차정비 유지 - 자동차정비"}]},{"lat":"37.289351468","long":"127.15848472","items":[{"name":"하이파이브요양원","tel":"031-896-2000","addr":"경기도 용인시 기흥구 동백동 371-6번지","category":"기타의료기관 - 기타의료기관 및 기타"}]},{"lat":"37.283294804","long":"127.15287921","items":[{"name":"한국체대 캡틴 태권도","tel":"031-8005-7004","addr":"경기도 용인시 기흥구 동백동 615-8번지 1층","category":"학원 - 예·체능계학원"},{"name":"한국체대 캡틴 태권도장","tel":"031-8005-7004","addr":"경기도 용인시 기흥구 동백동 615-8번지","category":"학원 - 예·체능계학원"}]},{"lat":"37.284628104","long":"127.153051","items":[{"name":"한국카센타","tel":"031-275-6469","addr":"경기도 용인시 기흥구 동백동 606-13번지","category":"자동차정비 유지 - 자동차정비"}]},{"lat":"37.28287412","long":"127.16444778","items":[{"name":"한아름화훼","tel":"031-896-6786","addr":"경기도 용인시 기흥구 동백동 583번지 백현마을휴먼시아","category":"문화.취미 - 화원"}]},{"lat":"37.284268935","long":"127.15206924","items":[{"name":"해람학원","tel":"031-281-0807","addr":"경기도 용인시 기흥구 동백동 610-13번지 1층","category":"학원 - 보습학원"}]},{"lat":"37.286185351","long":"127.15424943","items":[{"name":"해법수학","tel":"031-000-0000","addr":"경기도 용인시 기흥구 동백동 575번지 호수마을휴먼시아 1502동 306호","category":"학원 - 기타 교육기관"}]},{"lat":"37.281790052","long":"127.15291005","items":[{"name":"해초락","tel":"031-284-9755","addr":"경기도 용인시 기흥구 동백동 622-9번지 1층","category":"일반휴게음식 - 일반한식"}]},{"lat":"37.287046654","long":"127.15002234","items":[{"name":"현대자동차(동백점)","tel":"031-282-8293","addr":"경기도 용인시 기흥구 동백동 410번지","category":"자동차정비 유지 - 자동차정비"}]},{"lat":"37.281456358","long":"127.15315746","items":[{"name":"호수마트","tel":"031-287-6645","addr":"경기도 용인시 기흥구 동백동 623-9,8","category":"유통업 영리 - 슈퍼마켓"}]},{"lat":"37.282519809","long":"127.15296788","items":[{"name":"홀릭(holic)","tel":"","addr":"경기도 용인시 기흥구 동백동 620-9번지 1층 101호","category":"일반휴게음식 - 일반한식"}]},{"lat":"37.286903163","long":"127.16337382","items":[{"name":"화이트헤어","tel":"031-693-9630","addr":"경기도 용인시 기흥구 동백동 112-4","category":"보건위생 - 미용원"}]}]