[{"lat":"37.036933915","long":"126.98115554","items":[{"name":"(주)도프아그로","tel":"031-682-7444","addr":"경기도 평택시 청북읍 백봉리 137번지","category":"농업 - 비료,사료,종자"}]},{"lat":"37.031519821","long":"126.99012577","items":[{"name":"극동전자냉동서비스","tel":"031-684-9799","addr":"경기도 평택시 청북읍 백봉리 488-24번지","category":"수리서비스 - 가정용품수리"}]},{"lat":"37.03452007","long":"126.98761888","items":[{"name":"도빈상사/원격지","tel":"","addr":"경기도 평택시 청북읍 백봉리 390-8","category":"기타 - 기타 전문점"}]},{"lat":"37.039213121","long":"126.97864834","items":[{"name":"예원캐드캠엔지니어링","tel":"031-683-4858","addr":"경기도 평택시 청북읍 백봉리 187","category":"기타 - 기타 전문점"}]},{"lat":"37.026906848","long":"126.9959255","items":[{"name":"원천중기","tel":"031-213-0474","addr":"경기도 평택시 청북읍 백봉리 534-202번지","category":"기타 - 기타 전문점"}]},{"lat":"37.037267045","long":"126.9797617","items":[{"name":"주식회사 가람조경","tel":"070-4225-1851","addr":"경기도 평택시 청북읍 백봉리 177번지 B동","category":"용역 서비스 - 기타용역서비스"}]},{"lat":"37.030879164","long":"126.98348371","items":[{"name":"주식회사 블루엘이디라이팅","tel":"031-681-1229","addr":"경기도 평택시 청북읍 백봉리 606-1번지","category":"건축자재 - 조명기구"}]},{"lat":"37.037401151","long":"126.97487234","items":[{"name":"주식회사 신금강","tel":"031-667-1550","addr":"경기도 평택시 청북읍 백봉리 201-2번지","category":"음료식품 - 정육점"}]},{"lat":"37.031601065","long":"126.99159807","items":[{"name":"푸른기획이벤트","tel":"031-665-7749","addr":"경기도 평택시 청북읍 백봉리 492-9번지 102호","category":"용역 서비스 - 사무서비스"}]}]