[{"lat":"37.595371638","long":"127.19813939","items":[{"name":"경춘조경","tel":"031-595-4534","addr":"경기도 남양주시 양정동 산43-2번지","category":"건축자재 - 인테리어전문"}]},{"lat":"37.616590531","long":"127.19758323","items":[{"name":"금곡회관","tel":"070-8955-5402","addr":"경기도 남양주시 양정동 274-1","category":"일반휴게음식 - 일반한식"}]},{"lat":"37.623916356","long":"127.19147414","items":[{"name":"나무의소망","tel":"031-592-4978","addr":"경기도 남양주시 양정동 160-1","category":"건축자재 - 인테리어전문"}]},{"lat":"37.628446904","long":"127.18661446","items":[{"name":"보람상회(증평상회)","tel":"031-595-6616","addr":"경기도 남양주시 양정동 617-2","category":"음료식품 - 기타음료식품"}]},{"lat":"37.629111395","long":"127.19369629","items":[{"name":"분재미수원","tel":"031-595-0428","addr":"경기도 남양주시 양정동 39번지","category":"문화.취미 - 화원"}]},{"lat":"37.630336491","long":"127.19383536","items":[{"name":"상일물산","tel":"031-553-9592","addr":"경기도 남양주시 양정동 8-1번지","category":"의류 - 내의판매"},{"name":"한성지물","tel":"031-563-4363","addr":"경기도 남양주시 양정동 8-1","category":"직물 - 카페트,커튼,천막,지물"}]},{"lat":"37.61417047","long":"127.18403097","items":[{"name":"서울농원","tel":"031-595-3306","addr":"경기도 남양주시 양정동 443-1","category":"음료식품 - 농·축·수산품"}]},{"lat":"37.601840152","long":"127.19292452","items":[{"name":"수정","tel":"031-528-1810","addr":"경기도 남양주시 양정동 510","category":"문화.취미 - 화원"}]},{"lat":"37.616174902","long":"127.18709394","items":[{"name":"양정동사무소","tel":"031-590-2974","addr":"경기도 남양주시 양정동 466-1 양정동주민센터","category":"용역 서비스 - 사무서비스"}]},{"lat":"37.619756628","long":"127.1839539","items":[{"name":"온누리식물원","tel":"031-595-5246","addr":"경기도 남양주시 양정동 498-5 외498-2,6","category":"문화.취미 - 화원"}]},{"lat":"37.62252981","long":"127.17920315","items":[{"name":"유현기업","tel":"031-511-5731","addr":"경기도 남양주시 양정동 670-4번지","category":"기타 - 기계공구"}]},{"lat":"37.611306879","long":"127.2052822","items":[{"name":"일오상건업","tel":"031-556-1554","addr":"경기도 남양주시 양정동 79-3번지 일오산건업","category":"건축자재 - 건축용 요업제품"}]},{"lat":"37.617113691","long":"127.18595228","items":[{"name":"자연유치원[아이행복]","tel":"031-595-0025","addr":"경기도 남양주시 양정동 466-18","category":"학원 - 유치원"}]},{"lat":"37.616806045","long":"127.18092258","items":[{"name":"제일콤푸레샤","tel":"031-595-9339","addr":"경기도 남양주시 양정동 743-2","category":"기타 - 기타 전문점"}]},{"lat":"37.626918405","long":"127.1903376","items":[{"name":"청산화원","tel":"031-595-5828","addr":"경기도 남양주시 양정동 71번지","category":"문화.취미 - 화원"}]},{"lat":"37.610696325","long":"127.1875108","items":[{"name":"청음보청기 전문점","tel":"031-595-0819","addr":"경기도 남양주시 양정동 534-7","category":"보건위생 - 의료용품"}]},{"lat":"37.616473318","long":"127.18050271","items":[{"name":"파란들조경","tel":"031-595-8737","addr":"경기도 남양주시 양정동 744-1","category":"문화.취미 - 화원"}]}]