[{"lat":"37.4737175","long":"127.1430393","items":[{"name":"C3플러스 수학 학원","tel":"02-538-7144","addr":"경기도 성남시 수정구 창곡동 509-1번지","category":""},{"name":"갤러리안경","tel":"031-721-8878","addr":"경기도 성남시 수정구 창곡동 509-1번지","category":""},{"name":"경희대퍼스트태권도장","tel":"031-751-4150","addr":"경기도 성남시 수정구 창곡동 509-1번지","category":""},{"name":"고양이별작은아이","tel":"031-701-3041","addr":"경기도 성남시 수정구 창곡동 509-1번지","category":""},{"name":"두루미한의원","tel":"031-755-7590","addr":"경기도 성남시 수정구 창곡동 509-1번지","category":""},{"name":"메디핏필라테스","tel":"031-722-4027","addr":"경기도 성남시 수정구 창곡동 509-1번지","category":""},{"name":"블럭제빵소 송파위례점","tel":"031-758-0204","addr":"경기도 성남시 수정구 창곡동 509-1번지","category":""},{"name":"블럭팡팡","tel":"031-757-7233","addr":"경기도 성남시 수정구 창곡동 509-1번지","category":""},{"name":"비게인헤어","tel":"031-756-5006","addr":"경기도 성남시 수정구 창곡동 509-1번지","category":""},{"name":"서민반찬 위례신도시점","tel":"031-756-0949","addr":"경기도 성남시 수정구 창곡동 509-1번지","category":""},{"name":"스시조아 위례우성점","tel":"031-758-1579","addr":"경기도 성남시 수정구 창곡동 509-1번지","category":""},{"name":"알파문구 위례점","tel":"031-759-9801","addr":"경기도 성남시 수정구 창곡동 509-1번지","category":""},{"name":"어?팩토리위례플레이스독서실","tel":"031-753-5355","addr":"경기도 성남시 수정구 창곡동 509-1번지","category":""},{"name":"위례다나약국","tel":"031-722-6477","addr":"경기도 성남시 수정구 창곡동 509-1번지","category":""},{"name":"위례칸타빌레음악학원","tel":"031-723-6328","addr":"경기도 성남시 수정구 창곡동 509-1번지","category":""},{"name":"위례하늘애한의원","tel":"031-602-7582","addr":"경기도 성남시 수정구 창곡동 509-1번지","category":""}]},{"lat":"37.4733848","long":"127.1499346","items":[{"name":"㈜ 새농 위례지점","tel":"031-758-4966","addr":"경기도 성남시 수정구 창곡동 513번지","category":""},{"name":"글라스스토리 위례점","tel":"031-759-1002","addr":"경기도 성남시 수정구 창곡동 513번지","category":""},{"name":"더쎈수학원","tel":"031-757-7300","addr":"경기도 성남시 수정구 창곡동 513번지","category":""},{"name":"드림디포","tel":"031-758-3900","addr":"경기도 성남시 수정구 창곡동 513번지","category":""},{"name":"베이커리리종","tel":"031-755-0495","addr":"경기도 성남시 수정구 창곡동 513번지","category":""},{"name":"브레인스쿨학원","tel":"031-757-7081","addr":"경기도 성남시 수정구 창곡동 513번지","category":""},{"name":"섬마을","tel":"","addr":"경기도 성남시 수정구 창곡동 513번지","category":""},{"name":"월드크리닝 위례신도시점","tel":"","addr":"경기도 성남시 수정구 창곡동 513번지","category":""},{"name":"이화피아노&바이올린음악학원","tel":"","addr":"경기도 성남시 수정구 창곡동 513번지","category":""},{"name":"죠스떡볶이 위례창곡점","tel":"031-758-7797","addr":"경기도 성남시 수정구 창곡동 513번지","category":""},{"name":"주식회사 려기 위례점","tel":"031-755-6039","addr":"경기도 성남시 수정구 창곡동 513번지","category":""},{"name":"해수산","tel":"","addr":"경기도 성남시 수정구 창곡동 513번지","category":""},{"name":"홍짜장 위례점","tel":"031-756-5023","addr":"경기도 성남시 수정구 창곡동 513번지","category":""}]},{"lat":"37.4726013","long":"127.1496278","items":[{"name":"굴래찔래","tel":"031-757-2229","addr":"경기도 성남시 수정구 창곡동 513-6번지","category":""},{"name":"나무약국","tel":"031-752-0502","addr":"경기도 성남시 수정구 창곡동 513-6번지","category":""},{"name":"미창조미술학원","tel":"031-757-5737","addr":"경기도 성남시 수정구 창곡동 513-6번지","category":""},{"name":"상하이","tel":"031-759-6699","addr":"경기도 성남시 수정구 창곡동 513-6번지","category":""},{"name":"신의주순대와쭈꾸미","tel":"031-756-3331","addr":"경기도 성남시 수정구 창곡동 513-6번지","category":""},{"name":"연세바움어학원","tel":"031-754-0542","addr":"경기도 성남시 수정구 창곡동 513-6번지","category":""},{"name":"연세위례학원","tel":"031-722-2254","addr":"경기도 성남시 수정구 창곡동 513-6번지","category":""},{"name":"하이든음악학원","tel":"031-754-4977","addr":"경기도 성남시 수정구 창곡동 513-6번지","category":""},{"name":"홍스잉글리시","tel":"031-757-8577","addr":"경기도 성남시 수정구 창곡동 513-6번지","category":""}]},{"lat":"37.4678543","long":"127.1410727","items":[{"name":"귀리와현미누룽지","tel":"031-758-1888","addr":"경기도 성남시 수정구 창곡동 565번지 위례역푸르지오4단지","category":""}]},{"lat":"37.4730782","long":"127.1501035","items":[{"name":"김가네위례중앙로점","tel":"031-758-3131","addr":"경기도 성남시 수정구 창곡동 513-1번지","category":""},{"name":"맛뜰안어묵","tel":"031-751-3315","addr":"경기도 성남시 수정구 창곡동 513-1번지","category":""},{"name":"센트럴1리딩클럽어학원","tel":"031-755-0575","addr":"경기도 성남시 수정구 창곡동 513-1번지","category":""},{"name":"위례나무동물병원","tel":"031-778-8738","addr":"경기도 성남시 수정구 창곡동 513-1번지","category":""}]},{"lat":"37.4717989","long":"127.1426287","items":[{"name":"놀숲위례신도시점","tel":"031-756-5800","addr":"경기도 성남시 수정구 창곡동 508번지","category":""}]},{"lat":"37.4730243","long":"127.150013","items":[{"name":"농부의 아침","tel":"031-722-5245","addr":"경기도 성남시 수정구 창곡동 513-2번지","category":""},{"name":"대치엠수학 학원","tel":"031-755-6999","addr":"경기도 성남시 수정구 창곡동 513-2번지","category":""},{"name":"떡미당 위례","tel":"031-759-4949","addr":"경기도 성남시 수정구 창곡동 513-2번지","category":""},{"name":"마이에미짐 pt&필라테스","tel":"070-8821-9696","addr":"경기도 성남시 수정구 창곡동 513-2번지","category":""},{"name":"바른치킨 위례우성메디피아점","tel":"031-759-3232","addr":"경기도 성남시 수정구 창곡동 513-2번지","category":""},{"name":"용인대월드태권도","tel":"031-752-6444","addr":"경기도 성남시 수정구 창곡동 513-2번지","category":""},{"name":"위례토이토핑슬라임","tel":"","addr":"경기도 성남시 수정구 창곡동 513-2번지","category":""},{"name":"책읽기와 글쓰기 리딩엠 위례학원","tel":"031-756-0802","addr":"경기도 성남시 수정구 창곡동 513-2번지","category":""},{"name":"하늘소리 음악학원","tel":"031-721-3772","addr":"경기도 성남시 수정구 창곡동 513-2번지","category":""}]},{"lat":"37.4651896","long":"127.1391801","items":[{"name":"다원컴패니","tel":"031-733-1235","addr":"경기도 성남시 수정구 창곡동 547-10번지","category":""}]},{"lat":"37.4659386","long":"127.1381529","items":[{"name":"더 잘난 쭈꾸미","tel":"031-757-0321","addr":"경기도 성남시 수정구 창곡동 551-4번지","category":""}]},{"lat":"37.4726822","long":"127.1497184","items":[{"name":"더제이마트","tel":"031-756-7890","addr":"경기도 성남시 수정구 창곡동 513-5번지","category":""}]},{"lat":"37.467606","long":"127.1376246","items":[{"name":"데블스램&펍 위례신도시점","tel":"031-756-9400","addr":"경기도 성남시 수정구 창곡동 538-6번지","category":""}]},{"lat":"37.467549","long":"127.1401792","items":[{"name":"동광농수산","tel":"031-722-2541","addr":"경기도 성남시 수정구 창곡동 546-4번지","category":""}]},{"lat":"37.4725467","long":"127.150046","items":[{"name":"동서경희한의원","tel":"031-755-2200","addr":"경기도 성남시 수정구 창곡동 513-3번지","category":""},{"name":"바른축산","tel":"","addr":"경기도 성남시 수정구 창곡동 513-3번지","category":""},{"name":"쉐프마딘","tel":"031-753-2558","addr":"경기도 성남시 수정구 창곡동 513-3번지","category":""},{"name":"아이엠아트미술학원","tel":"031-721-6292","addr":"경기도 성남시 수정구 창곡동 513-3번지","category":""},{"name":"초록마을 위례중앙점","tel":"031-731-6289","addr":"경기도 성남시 수정구 창곡동 513-3번지","category":""}]},{"lat":"37.4733845","long":"127.1427108","items":[{"name":"디플레이스위례신도시점독서실","tel":"031-755-0953","addr":"경기도 성남시 수정구 창곡동 509번지","category":""},{"name":"멍아친구냥이의 책방","tel":"02-955-7460","addr":"경기도 성남시 수정구 창곡동 509번지","category":""},{"name":"주식회사 라이즈위례","tel":"02-2135-7473","addr":"경기도 성남시 수정구 창곡동 509번지","category":""}]},{"lat":"37.4673244","long":"127.1396249","items":[{"name":"리브로커피","tel":"","addr":"경기도 성남시 수정구 창곡동 546-7번지","category":""}]},{"lat":"37.4658314","long":"127.1373162","items":[{"name":"마리헤어","tel":"031-753-1225","addr":"경기도 성남시 수정구 창곡동 550번지","category":""}]},{"lat":"37.4680461","long":"127.1388236","items":[{"name":"만리장성 위례","tel":"031-722-6363","addr":"경기도 성남시 수정구 창곡동 539-11번지","category":""}]},{"lat":"37.4670464","long":"127.1385166","items":[{"name":"미미브로우바","tel":"031-754-2777","addr":"경기도 성남시 수정구 창곡동 556-3번지","category":""},{"name":"아엠퀸(I AM QUEEN)","tel":"","addr":"경기도 성남시 수정구 창곡동 556-3번지","category":""}]},{"lat":"37.4672969","long":"127.1400431","items":[{"name":"바른 광 정육점","tel":"031-757-5334","addr":"경기도 성남시 수정구 창곡동 546-5번지","category":""},{"name":"오다헤어 (위례신도시점)","tel":"031-753-0963","addr":"경기도 성남시 수정구 창곡동 546-5번지","category":""}]},{"lat":"37.4659669","long":"127.1370112","items":[{"name":"밥이보약","tel":"031-758-3360","addr":"경기도 성남시 수정구 창곡동 557-9번지","category":""}]},{"lat":"37.465659","long":"127.138401","items":[{"name":"배부장찌개","tel":"031-758-2626","addr":"경기도 성남시 수정구 창곡동 551-9번지","category":""}]},{"lat":"37.4677479","long":"127.1396256","items":[{"name":"백억하누","tel":"031-753-8592","addr":"경기도 성남시 수정구 창곡동 545-7번지","category":""}]},{"lat":"37.4676586","long":"127.1389359","items":[{"name":"뱅스타운 (Banks town)","tel":"","addr":"경기도 성남시 수정구 창곡동 543-5번지","category":""}]},{"lat":"37.4726011","long":"127.1423476","items":[{"name":"벨라","tel":"031-702-6708","addr":"경기도 성남시 수정구 창곡동 509-2번지","category":""},{"name":"성원언어심리센터","tel":"031-757-0504","addr":"경기도 성남시 수정구 창곡동 509-2번지","category":""},{"name":"스터디엔카페독서실","tel":"02-6952-4500","addr":"경기도 성남시 수정구 창곡동 509-2번지","category":""},{"name":"신세계축산","tel":"031-722-2377","addr":"경기도 성남시 수정구 창곡동 509-2번지","category":""},{"name":"에브리데이잉글리쉬학원","tel":"031-601-7777","addr":"경기도 성남시 수정구 창곡동 509-2번지","category":""},{"name":"진로마트 위례점","tel":"","addr":"경기도 성남시 수정구 창곡동 509-2번지","category":""},{"name":"책과그림숲","tel":"031-752-0844","addr":"경기도 성남시 수정구 창곡동 509-2번지","category":""},{"name":"초밥쇼쿠닌","tel":"031-757-8587","addr":"경기도 성남시 수정구 창곡동 509-2번지","category":""},{"name":"토이아울렛 우례","tel":"031-722-5279","addr":"경기도 성남시 수정구 창곡동 509-2번지","category":""}]},{"lat":"37.4673793","long":"127.1388789","items":[{"name":"볼리또","tel":"070-8899-9292","addr":"경기도 성남시 수정구 창곡동 544-5번지","category":""}]},{"lat":"37.4662163","long":"127.1394872","items":[{"name":"브이엠 (VM)","tel":"","addr":"경기도 성남시 수정구 창곡동 548-6번지","category":""}]},{"lat":"37.4673797","long":"127.1385737","items":[{"name":"블레스롤(Bless Roll)","tel":"031-722-1590","addr":"경기도 성남시 수정구 창곡동 544-3번지","category":""}]},{"lat":"37.4690527","long":"127.1484905","items":[{"name":"블루웨일 파라다이스 (Blue whale paradise)","tel":"031-755-5088","addr":"경기도 성남시 수정구 창곡동 525-2번지","category":""}]},{"lat":"37.4655234","long":"127.1387625","items":[{"name":"비어앤크림 픽미픽미(위례서영)","tel":"031-759-1222","addr":"경기도 성남시 수정구 창곡동 549-5번지","category":""},{"name":"춘천3.5닭갈비","tel":"031-757-5550","addr":"경기도 성남시 수정구 창곡동 549-5번지","category":""}]},{"lat":"37.4671645","long":"127.1376803","items":[{"name":"사임당","tel":"","addr":"경기도 성남시 수정구 창곡동 557번지","category":""},{"name":"오로라","tel":"","addr":"경기도 성남시 수정구 창곡동 557번지","category":""}]},{"lat":"37.4676308","long":"127.1396254","items":[{"name":"시소테이블","tel":"","addr":"경기도 성남시 수정구 창곡동 545-6번지","category":""}]},{"lat":"37.4695756","long":"127.1482654","items":[{"name":"싱싱할인마트","tel":"031-751-3338","addr":"경기도 성남시 수정구 창곡동 522번지","category":""}]},{"lat":"37.4666331","long":"127.1374872","items":[{"name":"안면도 바지락 칼국수","tel":"031-753-0788","addr":"경기도 성남시 수정구 창곡동 558-3번지","category":""}]},{"lat":"37.4704134","long":"127.1408174","items":[{"name":"알레르망","tel":"031-751-9284","addr":"경기도 성남시 수정구 창곡동 530번지 위례아트리버푸르지오1단지","category":""}]},{"lat":"37.466829","long":"127.1395448","items":[{"name":"양철통","tel":"031-757-1358","addr":"경기도 성남시 수정구 창곡동 548번지","category":""}]},{"lat":"37.4696013","long":"127.1493732","items":[{"name":"오광편의점","tel":"031-722-1195","addr":"경기도 성남시 수정구 창곡동 523-5번지","category":""}]},{"lat":"37.4662157","long":"127.140075","items":[{"name":"오징어나라 (창곡점)","tel":"031-756-1116","addr":"경기도 성남시 수정구 창곡동 547-5번지","category":""}]},{"lat":"37.4665479","long":"127.1410138","items":[{"name":"우리집","tel":"031-756-7730","addr":"경기도 성남시 수정구 창곡동 564번지 위례역 푸르지오 5단지","category":""}]},{"lat":"37.4676577","long":"127.139682","items":[{"name":"우야지 막창","tel":"070-8193-8292","addr":"경기도 성남시 수정구 창곡동 545-5번지","category":""}]},{"lat":"37.4668853","long":"127.1375668","items":[{"name":"월수금 위례점","tel":"031-751-1830","addr":"경기도 성남시 수정구 창곡동 558-1번지","category":""}]},{"lat":"37.46802","long":"127.1380436","items":[{"name":"위례바이크","tel":"031-414-7300","addr":"경기도 성남시 수정구 창곡동 539-15번지","category":""}]},{"lat":"37.4652181","long":"127.1378803","items":[{"name":"위례수약국","tel":"031-756-0365","addr":"경기도 성남시 수정구 창곡동 559-4번지","category":""}]},{"lat":"37.4664621","long":"127.1373173","items":[{"name":"위례철물","tel":"031-736-0066","addr":"경기도 성남시 수정구 창곡동 558-4번지","category":""}]},{"lat":"37.4679095","long":"127.1401233","items":[{"name":"위례퍼스트산후조리원","tel":"031-756-0006","addr":"경기도 성남시 수정구 창곡동 546-2번지","category":""},{"name":"하얀시루","tel":"070-7719-9993","addr":"경기도 성남시 수정구 창곡동 546-2번지","category":""}]},{"lat":"37.4679121","long":"127.1378173","items":[{"name":"육감만족 위례점","tel":"031-757-9212","addr":"경기도 성남시 수정구 창곡동 538-3번지","category":""}]},{"lat":"37.465965","long":"127.1386842","items":[{"name":"육담소","tel":"031-757-6692","addr":"경기도 성남시 수정구 창곡동 555-9번지","category":""}]},{"lat":"37.4670474","long":"127.1376236","items":[{"name":"전주식당","tel":"","addr":"경기도 성남시 수정구 창곡동 559번지","category":""}]},{"lat":"37.4659119","long":"127.137825","items":[{"name":"제주둘레국수","tel":"031-602-0908","addr":"경기도 성남시 수정구 창곡동 551-13번지","category":""}]},{"lat":"37.4668573","long":"127.1384032","items":[{"name":"주식회사 모닝썬푸드","tel":"","addr":"경기도 성남시 수정구 창곡동 553번지","category":""}]},{"lat":"37.4663807","long":"127.1376224","items":[{"name":"진짜돼지","tel":"031-722-1117","addr":"경기도 성남시 수정구 창곡동 552-6번지","category":""}]},{"lat":"37.4662186","long":"127.1375091","items":[{"name":"철뚝집(위례점)","tel":"","addr":"경기도 성남시 수정구 창곡동 551번지","category":""}]},{"lat":"37.4670179","long":"127.1397939","items":[{"name":"카타","tel":"031-754-7577","addr":"경기도 성남시 수정구 창곡동 547-1번지","category":""}]},{"lat":"37.467046","long":"127.1388218","items":[{"name":"커피베이","tel":"031-759-3114","addr":"경기도 성남시 수정구 창곡동 556-5번지","category":""}]},{"lat":"37.4659915","long":"127.1391251","items":[{"name":"커피와글 위례신도시점","tel":"031-723-6565","addr":"경기도 성남시 수정구 창곡동 549-8번지","category":""}]},{"lat":"37.4670458","long":"127.139014","items":[{"name":"트링켄74 (Trinken74)","tel":"","addr":"경기도 성남시 수정구 창곡동 556-6번지","category":""}]},{"lat":"37.4682725","long":"127.1378519","items":[{"name":"팬브레드","tel":"031-722-3900","addr":"경기도 성남시 수정구 창곡동 538-1번지","category":""}]},{"lat":"37.4678839","long":"127.1388798","items":[{"name":"포트하우스","tel":"031-721-8014","addr":"경기도 성남시 수정구 창곡동 543번지","category":""}]},{"lat":"37.4671922","long":"127.13707","items":[{"name":"풍년과일","tel":"","addr":"경기도 성남시 수정구 창곡동 557-3번지","category":""}]},{"lat":"37.4658551","long":"127.1477947","items":[{"name":"한살림성남용인소비자 생활협동조합 위례매장","tel":"070-8228-4666","addr":"경기도 성남시 수정구 창곡동 567번지 위례자연앤래미안이편한세상","category":""}]},{"lat":"37.4658025","long":"127.1389891","items":[{"name":"호수꼬치 성남위례점","tel":"031-752-8295","addr":"경기도 성남시 수정구 창곡동 549-6번지","category":""}]}]