[{"lat":"37.361645568","long":"126.92612352","items":[{"name":"(주)마이-짐코리아","tel":"031-396-2103","addr":"경기도 군포시 궁내동 1146번지","category":"학원 - 기타 교육기관"},{"name":"대림약국","tel":"031-391-9590","addr":"경기도 군포시 궁내동 1146번지 대림상가 117호","category":"약국 - 약국"},{"name":"연승산업(주)","tel":"031-96-2101","addr":"경기도 군포시 궁내동 1146번지","category":"레저업소 - 기타레져업소"}]},{"lat":"37.362923082","long":"126.92320986","items":[{"name":"극동슈퍼","tel":"031-391-8527","addr":"경기도 군포시 궁내동 1119-3번지 극동상가지 4호","category":"유통업 영리 - 슈퍼마켓"}]},{"lat":"37.364527272","long":"126.92378388","items":[{"name":"두경토탈패션","tel":"031-399-0616","addr":"경기도 군포시 궁내동 1119번지 한양상가 지하 53호","category":"의류 - 정장"},{"name":"시민약국","tel":"031-396-8933","addr":"경기도 군포시 궁내동 1119번지 한양백두상가 지층 42호","category":"약국 - 약국"},{"name":"클린스킨케어","tel":"031-395-1117","addr":"경기도 군포시 궁내동 1119번지 한양백두상가 2-203","category":"보건위생 - 화장품"},{"name":"한양열쇠","tel":"031-393-9245","addr":"경기도 군포시 궁내동 1119번지 한양백두상가 지층 39","category":"기타 - 기계공구"},{"name":"홍가네한우정육점","tel":"031-397-9600","addr":"경기도 군포시 궁내동 1119번지 한양백두상가 지층 43호","category":"음료식품 - 정육점"}]},{"lat":"37.362254852","long":"126.92104325","items":[{"name":"뚜레쥬르 산본롯데","tel":"031-392-2591","addr":"경기도 군포시 궁내동 1148번지 롯데상가 101호","category":"음료식품 - 제과점"}]},{"lat":"37.360778196","long":"126.92251228","items":[{"name":"설악감자탕","tel":"031-395-4111","addr":"경기도 군포시 궁내동 1147번지 금강2단지주상복합상가A,B 지하5층","category":"일반휴게음식 - 일반한식"}]},{"lat":"37.35975408","long":"126.92711876","items":[{"name":"코사마트","tel":"031-396-8060","addr":"경기도 군포시 궁내동 1146-7번지 중앙교육센터 1층 (주공7단지)","category":"유통업 영리 - 슈퍼마켓"}]}]