[{"lat":"37.4482702","long":"127.1456249","items":[{"name":"(춘향골)남원추어탕","tel":"031-741-9849","addr":"경기도 성남시 수정구 신흥동 1741-6번지","category":""},{"name":"정강철도시락","tel":"031-735-7080","addr":"경기도 성남시 수정구 신흥동 1741-6번지","category":""}]},{"lat":"37.4381389","long":"127.1414814","items":[{"name":"Go네일","tel":"","addr":"경기도 성남시 수정구 신흥동 6948-1번지","category":""},{"name":"오케이","tel":"","addr":"경기도 성남시 수정구 신흥동 6948-1번지","category":""},{"name":"핑크창고","tel":"070-8193-7800","addr":"경기도 성남시 수정구 신흥동 6948-1번지","category":""}]},{"lat":"37.4393886","long":"127.1437097","items":[{"name":"MUST (머스트)","tel":"","addr":"경기도 성남시 수정구 신흥동 4225-1번지","category":""},{"name":"노마드","tel":"","addr":"경기도 성남시 수정구 신흥동 4225-1번지","category":""},{"name":"다비치","tel":"031-721-3584","addr":"경기도 성남시 수정구 신흥동 4225-1번지","category":""},{"name":"베스트프렌드","tel":"031-722-3883","addr":"경기도 성남시 수정구 신흥동 4225-1번지","category":""},{"name":"카페쉼표","tel":"","addr":"경기도 성남시 수정구 신흥동 4225-1번지","category":""},{"name":"한스","tel":"031-723-8012","addr":"경기도 성남시 수정구 신흥동 4225-1번지","category":""},{"name":"해피우먼","tel":"031-755-3370","addr":"경기도 성남시 수정구 신흥동 4225-1번지","category":""}]},{"lat":"37.4457205","long":"127.1455184","items":[{"name":"㈜ 진학학원","tel":"031-749-4646","addr":"경기도 성남시 수정구 신흥동 3405-2번지","category":""},{"name":"아르페지오 침구잡화","tel":"031-735-7999","addr":"경기도 성남시 수정구 신흥동 3405-2번지","category":""}]},{"lat":"37.4408004","long":"127.146074","items":[{"name":"㈜샤가스포츠","tel":"031-733-9680","addr":"경기도 성남시 수정구 신흥동 4182번지","category":""},{"name":"성심치과의원","tel":"031-747-4340","addr":"경기도 성남시 수정구 신흥동 4182번지","category":""}]},{"lat":"37.444659","long":"127.144149","items":[{"name":"㈜현대종합카센타(한국타이어전문점)","tel":"031-741-4196","addr":"경기도 성남시 수정구 신흥동 3422번지","category":""}]},{"lat":"37.4424139","long":"127.1377602","items":[{"name":"가나동물병원","tel":"031-721-7582","addr":"경기도 성남시 수정구 신흥동 5536번지","category":""},{"name":"김가네김밥(성남시청점)","tel":"031-755-7016","addr":"경기도 성남시 수정구 신흥동 5536번지","category":""},{"name":"낙원떡방","tel":"031-755-8233","addr":"경기도 성남시 수정구 신흥동 5536번지","category":""}]},{"lat":"37.4405779","long":"127.143791","items":[{"name":"가람이벤트","tel":"031-742-7777","addr":"경기도 성남시 수정구 신흥동 4509번지","category":""}]},{"lat":"37.4423325","long":"127.1380652","items":[{"name":"강남식당","tel":"031-757-3850","addr":"경기도 성남시 수정구 신흥동 5534-1번지","category":""}]},{"lat":"37.4424934","long":"127.1391842","items":[{"name":"경신약국","tel":"031-757-2181","addr":"경기도 성남시 수정구 신흥동 5442번지","category":""},{"name":"태백산식당","tel":"031-757-5754","addr":"경기도 성남시 수정구 신흥동 5442번지","category":""}]},{"lat":"37.4429159","long":"127.1400437","items":[{"name":"경원자동차정비학원","tel":"031-757-0607","addr":"경기도 성남시 수정구 신흥동 5514번지","category":""},{"name":"장군족발보쌈","tel":"031-756-9555","addr":"경기도 성남시 수정구 신흥동 5514번지","category":""}]},{"lat":"37.4415493","long":"127.1374649","items":[{"name":"경호당","tel":"031-757-4552","addr":"경기도 성남시 수정구 신흥동 5910번지","category":""}]},{"lat":"37.4413039","long":"127.1469564","items":[{"name":"고은보석","tel":"031-749-8809","addr":"경기도 성남시 수정구 신흥동 2516번지","category":""},{"name":"백년교동 신흥점","tel":"031-735-8030","addr":"경기도 성남시 수정구 신흥동 2516번지","category":""}]},{"lat":"37.4421075","long":"127.1378727","items":[{"name":"고향손칼국수","tel":"031-721-3834","addr":"경기도 성남시 수정구 신흥동 5551번지","category":""}]},{"lat":"37.4413868","long":"127.1454084","items":[{"name":"곱창고","tel":"031-733-8892","addr":"경기도 성남시 수정구 신흥동 4102번지","category":""}]},{"lat":"37.440604","long":"127.1444917","items":[{"name":"공감 헤어케어 살롱","tel":"","addr":"경기도 성남시 수정구 신흥동 4214번지","category":""}]},{"lat":"37.4434151","long":"127.151876","items":[{"name":"교차로 알뜰서점(21세기아이들)","tel":"031-755-8002","addr":"경기도 성남시 수정구 신흥동 2465-7번지 신동아파라디움","category":""},{"name":"두리온누리약국","tel":"031-741-1480","addr":"경기도 성남시 수정구 신흥동 2465-7번지 신동아파라디움","category":""},{"name":"메디스킨바디","tel":"031-741-9703","addr":"경기도 성남시 수정구 신흥동 2465-7번지 신동아파라디움","category":""},{"name":"모스헤어(MOS헤어)","tel":"","addr":"경기도 성남시 수정구 신흥동 2465-7번지 신동아파라디움","category":""},{"name":"바바로아","tel":"031-743-0702","addr":"경기도 성남시 수정구 신흥동 2465-7번지 신동아파라디움","category":""},{"name":"시골야채","tel":"","addr":"경기도 성남시 수정구 신흥동 2465-7번지 신동아파라디움","category":""},{"name":"아이누리한의원","tel":"031-747-1275","addr":"경기도 성남시 수정구 신흥동 2465-7번지 신동아파라디움","category":""},{"name":"아이누리한의원 건강식품","tel":"031-747-1275","addr":"경기도 성남시 수정구 신흥동 2465-7번지 신동아파라디움","category":""},{"name":"예수마을","tel":"031-747-8181","addr":"경기도 성남시 수정구 신흥동 2465-7번지 신동아파라디움","category":""},{"name":"유자약국","tel":"031-748-0221","addr":"경기도 성남시 수정구 신흥동 2465-7번지 신동아파라디움","category":""},{"name":"짖어야개다","tel":"070-4132-4005","addr":"경기도 성남시 수정구 신흥동 2465-7번지 신동아파라디움","category":""},{"name":"착한정육점","tel":"031-732-8245","addr":"경기도 성남시 수정구 신흥동 2465-7번지 신동아파라디움","category":""},{"name":"키즈스토리","tel":"031-749-9067","addr":"경기도 성남시 수정구 신흥동 2465-7번지 신동아파라디움","category":""}]},{"lat":"37.4478558","long":"127.145545","items":[{"name":"교촌치킨(신흥1호점)","tel":"031-745-5898","addr":"경기도 성남시 수정구 신흥동 1741-25번지 수정해피빌","category":""}]},{"lat":"37.4424167","long":"127.150518","items":[{"name":"국민가판점","tel":"","addr":"경기도 성남시 수정구 신흥동 2478번지 삼부르네상스파크II","category":""}]},{"lat":"37.4416326","long":"127.1432958","items":[{"name":"그라스샵","tel":"031-753-4650","addr":"경기도 성남시 수정구 신흥동 4516번지","category":""},{"name":"라라패션","tel":"031-722-5448","addr":"경기도 성남시 수정구 신흥동 4516번지","category":""}]},{"lat":"37.4491893","long":"127.1455928","items":[{"name":"그랑발레학원","tel":"031-734-7980","addr":"경기도 성남시 수정구 신흥동 34번지","category":""},{"name":"우리약국","tel":"031-747-8002","addr":"경기도 성남시 수정구 신흥동 34번지","category":""}]},{"lat":"37.4399118","long":"127.1432361","items":[{"name":"금메달이용원","tel":"031-757-2828","addr":"경기도 성남시 수정구 신흥동 4258번지","category":""}]},{"lat":"37.4466654","long":"127.1464807","items":[{"name":"금메달할인마트","tel":"031-735-7420","addr":"경기도 성남시 수정구 신흥동 1814번지","category":""}]},{"lat":"37.4392498","long":"127.1391557","items":[{"name":"금화상회","tel":"031-756-6344","addr":"경기도 성남시 수정구 신흥동 6586번지","category":""}]},{"lat":"37.4417477","long":"127.1373183","items":[{"name":"김가네두부방","tel":"","addr":"경기도 성남시 수정구 신흥동 5544-1번지","category":""},{"name":"신성정육점","tel":"031-752-9596","addr":"경기도 성남시 수정구 신흥동 5544-1번지","category":""}]},{"lat":"37.4419926","long":"127.1510144","items":[{"name":"김이밥이커졌어요","tel":"031-721-7164","addr":"경기도 성남시 수정구 신흥동 6949번지","category":""},{"name":"민","tel":"031-722-3146","addr":"경기도 성남시 수정구 신흥동 6949번지","category":""}]},{"lat":"37.4430796","long":"127.1462931","items":[{"name":"까꼬뽀꼬 미용실","tel":"","addr":"경기도 성남시 수정구 신흥동 2785번지","category":""}]},{"lat":"37.4509129","long":"127.1507043","items":[{"name":"꼬꼬매니아","tel":"031-741-7182","addr":"경기도 성남시 수정구 신흥동 136번지","category":""}]},{"lat":"37.4502432","long":"127.1457869","items":[{"name":"나포리안경","tel":"031-745-8765","addr":"경기도 성남시 수정구 신흥동 30번지","category":""},{"name":"수정구청 구내식당","tel":"031-729-5560","addr":"경기도 성남시 수정구 신흥동 30번지","category":""},{"name":"키다리치킨","tel":"031-745-4558","addr":"경기도 성남시 수정구 신흥동 30번지","category":""}]},{"lat":"37.4427708","long":"127.1407893","items":[{"name":"남원골추어탕","tel":"","addr":"경기도 성남시 수정구 신흥동 5417번지","category":""},{"name":"하느","tel":"031-721-8132","addr":"경기도 성남시 수정구 신흥동 5417번지","category":""}]},{"lat":"37.4471085","long":"127.1451255","items":[{"name":"놀부족발보쌈 express","tel":"031-744-5382","addr":"경기도 성남시 수정구 신흥동 123-33번지","category":""},{"name":"은빛플라워","tel":"031-744-4500","addr":"경기도 성남시 수정구 신흥동 123-33번지","category":""}]},{"lat":"37.440828","long":"127.145543","items":[{"name":"놀숲성남신흥점","tel":"070-4233-1472","addr":"경기도 성남시 수정구 신흥동 4188번지","category":""},{"name":"보보쥬얼리","tel":"031-748-4894","addr":"경기도 성남시 수정구 신흥동 4188번지","category":""},{"name":"영일스포츠 (나이키 성남신흥점)","tel":"031-742-2333","addr":"경기도 성남시 수정구 신흥동 4188번지","category":""},{"name":"중원문고","tel":"031-736-2600","addr":"경기도 성남시 수정구 신흥동 4188번지","category":""}]},{"lat":"37.4426376","long":"127.139094","items":[{"name":"농민장터","tel":"031-755-1131","addr":"경기도 성남시 수정구 신흥동 5523번지","category":""}]},{"lat":"37.4504113","long":"127.1483187","items":[{"name":"농장사철탕","tel":"031-748-1237","addr":"경기도 성남시 수정구 신흥동 852번지","category":""}]},{"lat":"37.4480247","long":"127.1474552","items":[{"name":"뉴욕엔피자","tel":"031-743-3693","addr":"경기도 성남시 수정구 신흥동 1407번지","category":""}]},{"lat":"37.4418856","long":"127.1427087","items":[{"name":"뉴헤어센스","tel":"031-722-4332","addr":"경기도 성남시 수정구 신흥동 5136번지","category":""}]},{"lat":"37.4435267","long":"127.1416269","items":[{"name":"다비치안경 성남이마트앞점","tel":"031-759-9956","addr":"경기도 성남시 수정구 신흥동 5497번지","category":""}]},{"lat":"37.4430221","long":"127.1416486","items":[{"name":"다우리","tel":"031-758-2370","addr":"경기도 성남시 수정구 신흥동 5487-2번지","category":""}]},{"lat":"37.4421075","long":"127.1377936","items":[{"name":"다정식당","tel":"031-723-7651","addr":"경기도 성남시 수정구 신흥동 5550번지","category":""}]},{"lat":"37.4429434","long":"127.1395692","items":[{"name":"담소소사골순대 성남신흥점","tel":"031-751-1821","addr":"경기도 성남시 수정구 신흥동 5517번지","category":""}]},{"lat":"37.4405768","long":"127.136932","items":[{"name":"대림할인마트","tel":"031-758-2330","addr":"경기도 성남시 수정구 신흥동 5972번지","category":""}]},{"lat":"37.4412979","long":"127.1366508","items":[{"name":"대박수제돈까스","tel":"031-721-9736","addr":"경기도 성남시 수정구 신흥동 5967번지","category":""},{"name":"만원행복객찬","tel":"031-721-1223","addr":"경기도 성남시 수정구 신흥동 5967번지","category":""}]},{"lat":"37.4496943","long":"127.1524536","items":[{"name":"대중식당","tel":"031-745-1236","addr":"경기도 성남시 수정구 신흥동 149번지","category":""}]},{"lat":"37.4436103","long":"127.1470173","items":[{"name":"대진공판장","tel":"031-741-2626","addr":"경기도 성남시 수정구 신흥동 2908번지","category":""}]},{"lat":"37.4419998","long":"127.1374318","items":[{"name":"대훈유통","tel":"031-722-4004","addr":"경기도 성남시 수정구 신흥동 5546번지","category":""}]},{"lat":"37.4471864","long":"127.1477361","items":[{"name":"댑성남점","tel":"031-751-0277","addr":"경기도 성남시 수정구 신흥동 1311번지","category":""}]},{"lat":"37.4391612","long":"127.1378448","items":[{"name":"댕기머리","tel":"031-757-9514","addr":"경기도 성남시 수정구 신흥동 6522-1번지","category":""}]},{"lat":"37.4398018","long":"127.1448179","items":[{"name":"더네일","tel":"031-722-0806","addr":"경기도 성남시 수정구 신흥동 2467번지","category":""},{"name":"박하사탕","tel":"","addr":"경기도 성남시 수정구 신흥동 2467번지","category":""},{"name":"발만","tel":"031-754-4466","addr":"경기도 성남시 수정구 신흥동 2467번지","category":""},{"name":"스타일아이","tel":"031-755-1112","addr":"경기도 성남시 수정구 신흥동 2467번지","category":""},{"name":"씨앤앤","tel":"031-756-4203","addr":"경기도 성남시 수정구 신흥동 2467번지","category":""},{"name":"언더빌리지","tel":"","addr":"경기도 성남시 수정구 신흥동 2467번지","category":""},{"name":"에스.홀릭 (S. Holic)","tel":"","addr":"경기도 성남시 수정구 신흥동 2467번지","category":""},{"name":"오빠이거","tel":"031-755-5825","addr":"경기도 성남시 수정구 신흥동 2467번지","category":""},{"name":"이응 (E-UNG)","tel":"031-721-1976","addr":"경기도 성남시 수정구 신흥동 2467번지","category":""},{"name":"제이영 (J.YOUNG)","tel":"","addr":"경기도 성남시 수정구 신흥동 2467번지","category":""},{"name":"준꼬","tel":"031-752-7970","addr":"경기도 성남시 수정구 신흥동 2467번지","category":""},{"name":"청개구리","tel":"031-758-1882","addr":"경기도 성남시 수정구 신흥동 2467번지","category":""},{"name":"캉캉펫","tel":"031-756-7709","addr":"경기도 성남시 수정구 신흥동 2467번지","category":""},{"name":"헐랭이 R","tel":"031-722-6497","addr":"경기도 성남시 수정구 신흥동 2467번지","category":""},{"name":"호박","tel":"031-758-9053","addr":"경기도 성남시 수정구 신흥동 2467번지","category":""}]},{"lat":"37.4405493","long":"127.1450679","items":[{"name":"덩어리생고기","tel":"031-745-8324","addr":"경기도 성남시 수정구 신흥동 4197번지","category":""},{"name":"성희네 화장품","tel":"031-746-8371","addr":"경기도 성남시 수정구 신흥동 4197번지","category":""}]},{"lat":"37.4412428","long":"127.1376225","items":[{"name":"동아정육점","tel":"031-755-4959","addr":"경기도 성남시 수정구 신흥동 5905번지","category":""}]},{"lat":"37.4420545","long":"127.1369347","items":[{"name":"드림디포 문구유통","tel":"031-759-2275","addr":"경기도 성남시 수정구 신흥동 5542번지","category":""}]},{"lat":"37.4412786","long":"127.1377921","items":[{"name":"드림헤어","tel":"031-755-9819","addr":"경기도 성남시 수정구 신흥동 5765번지","category":""}]},{"lat":"37.4427706","long":"127.1409588","items":[{"name":"디자이너","tel":"031-757-8868","addr":"경기도 성남시 수정구 신흥동 5419번지","category":""}]},{"lat":"37.4434453","long":"127.1418528","items":[{"name":"또또와분식","tel":"031-756-0102","addr":"경기도 성남시 수정구 신흥동 5495번지","category":""}]},{"lat":"37.4440475","long":"127.1430969","items":[{"name":"또래오래 신흥점","tel":"031-731-0922","addr":"경기도 성남시 수정구 신흥동 3436-11번지","category":""},{"name":"쉐모아","tel":"031-755-7955","addr":"경기도 성남시 수정구 신흥동 3436-11번지","category":""}]},{"lat":"37.4437152","long":"127.1422036","items":[{"name":"레드페이스 성남수정점","tel":"031-757-0102","addr":"경기도 성남시 수정구 신흥동 5493-1번지","category":""},{"name":"영뷔엔나 미용실","tel":"031-756-6891","addr":"경기도 성남시 수정구 신흥동 5493-1번지","category":""},{"name":"원금당","tel":"031-757-7564","addr":"경기도 성남시 수정구 신흥동 5493-1번지","category":""}]},{"lat":"37.4498535","long":"127.1476508","items":[{"name":"마고헤어","tel":"031-742-8762","addr":"경기도 성남시 수정구 신흥동 914번지","category":""}]},{"lat":"37.4427986","long":"127.1401565","items":[{"name":"마포갈비","tel":"031-758-5257","addr":"경기도 성남시 수정구 신흥동 5463번지","category":""}]},{"lat":"37.4438851","long":"127.1433452","items":[{"name":"만나반찬","tel":"031-746-8999","addr":"경기도 성남시 수정구 신흥동 3436-10번지","category":""},{"name":"신흥신발","tel":"031-748-1656","addr":"경기도 성남시 수정구 신흥동 3436-10번지","category":""},{"name":"에스디유통","tel":"031-734-8989","addr":"경기도 성남시 수정구 신흥동 3436-10번지","category":""},{"name":"현대그린마트","tel":"031-734-8989","addr":"경기도 성남시 수정구 신흥동 3436-10번지","category":""}]},{"lat":"37.4404648","long":"127.1402879","items":[{"name":"만덕슈퍼","tel":"031-757-8444","addr":"경기도 성남시 수정구 신흥동 4803번지","category":""}]},{"lat":"37.4410281","long":"127.1440179","items":[{"name":"만물스토어","tel":"031-732-2674","addr":"경기도 성남시 수정구 신흥동 3778번지","category":""}]},{"lat":"37.4424998","long":"127.1489249","items":[{"name":"만석꾼","tel":"031-748-4114","addr":"경기도 성남시 수정구 신흥동 2562-1번지","category":""},{"name":"진선보쌈","tel":"031-747-1651","addr":"경기도 성남시 수정구 신흥동 2562-1번지","category":""}]},{"lat":"37.44341","long":"127.1412312","items":[{"name":"맘스터치 신흥점","tel":"031-751-3388","addr":"경기도 성남시 수정구 신흥동 5501번지","category":""}]},{"lat":"37.4423048","long":"127.1386301","items":[{"name":"맛나집","tel":"031-756-9536","addr":"경기도 성남시 수정구 신흥동 5559번지","category":""}]},{"lat":"37.4438588","long":"127.142735","items":[{"name":"메드백세약국","tel":"031-731-9655","addr":"경기도 성남시 수정구 신흥동 3436-13번지","category":""}]},{"lat":"37.4423573","long":"127.1400201","items":[{"name":"모아컴퓨터","tel":"","addr":"경기도 성남시 수정구 신흥동 5392번지","category":""}]},{"lat":"37.4423842","long":"127.1400993","items":[{"name":"미도 세탁소","tel":"031-758-2549","addr":"경기도 성남시 수정구 신흥동 5391번지","category":""}]},{"lat":"37.4425806","long":"127.1491511","items":[{"name":"미도향","tel":"031-734-4780","addr":"경기도 성남시 수정구 신흥동 2537번지","category":""}]},{"lat":"37.4387502","long":"127.1426237","items":[{"name":"바이수","tel":"070-8243-1944","addr":"경기도 성남시 수정구 신흥동 4240-1번지","category":""},{"name":"살림살이","tel":"","addr":"경기도 성남시 수정구 신흥동 4240-1번지","category":""},{"name":"시즌Ⅰ","tel":"031-721-5833","addr":"경기도 성남시 수정구 신흥동 4240-1번지","category":""},{"name":"어썸","tel":"031-755-6523","addr":"경기도 성남시 수정구 신흥동 4240-1번지","category":""},{"name":"호수","tel":"031-757-9150","addr":"경기도 성남시 수정구 신흥동 4240-1번지","category":""}]},{"lat":"37.4432748","long":"127.1412874","items":[{"name":"병천보양순대국","tel":"031-756-9047","addr":"경기도 성남시 수정구 신흥동 5500번지","category":""}]},{"lat":"37.4439109","long":"127.1443171","items":[{"name":"보건약국","tel":"031-736-4222","addr":"경기도 성남시 수정구 신흥동 3502번지","category":""}]},{"lat":"37.441747","long":"127.1379624","items":[{"name":"보그헤어아트","tel":"031-751-1710","addr":"경기도 성남시 수정구 신흥동 5630번지","category":""}]},{"lat":"37.4433293","long":"127.1409259","items":[{"name":"보다안경원","tel":"031-756-6031","addr":"경기도 성남시 수정구 신흥동 5504번지","category":""}]},{"lat":"37.4427729","long":"127.1390378","items":[{"name":"보디가드 대리점","tel":"031-756-6698","addr":"경기도 성남시 수정구 신흥동 5524번지","category":""}]},{"lat":"37.4423317","long":"127.1387093","items":[{"name":"복이네","tel":"","addr":"경기도 성남시 수정구 신흥동 5560번지","category":""}]},{"lat":"37.4399946","long":"127.1417673","items":[{"name":"뽀끌레미용실(두리머리방)","tel":"031-756-1562","addr":"경기도 성남시 수정구 신흥동 4364번지","category":""}]},{"lat":"37.4435806","long":"127.1417626","items":[{"name":"뿔난쭈꾸미","tel":"031-756-8449","addr":"경기도 성남시 수정구 신흥동 5494번지","category":""}]},{"lat":"37.448603","long":"127.1533216","items":[{"name":"상하운수(자)","tel":"031-734-2264","addr":"경기도 성남시 수정구 신흥동 2423번지","category":""}]},{"lat":"37.4476667","long":"127.1455108","items":[{"name":"색동미술학원","tel":"031-742-2539","addr":"경기도 성남시 수정구 신흥동 1741-10번지","category":""}]},{"lat":"37.4436934","long":"127.1527128","items":[{"name":"샤브네","tel":"031-741-4565","addr":"경기도 성남시 수정구 신흥동 2463-4번지","category":""},{"name":"손톱공주","tel":"","addr":"경기도 성남시 수정구 신흥동 2463-4번지","category":""},{"name":"코아매점","tel":"031-730-2846","addr":"경기도 성남시 수정구 신흥동 2463-4번지","category":""},{"name":"파사디나주식회사(롯데시네마 성남신흥)","tel":"031-745-1560","addr":"경기도 성남시 수정구 신흥동 2463-4번지","category":""},{"name":"한신분식","tel":"","addr":"경기도 성남시 수정구 신흥동 2463-4번지","category":""}]},{"lat":"37.4506633","long":"127.1485678","items":[{"name":"서울이발관","tel":"031-749-7966","addr":"경기도 성남시 수정구 신흥동 836번지","category":""}]},{"lat":"37.440549","long":"127.1453504","items":[{"name":"설빙 신흥역점","tel":"031-753-3147","addr":"경기도 성남시 수정구 신흥동 4193번지","category":""}]},{"lat":"37.4424169","long":"127.1429357","items":[{"name":"성남 헬로우컴퓨터","tel":"031-733-9993","addr":"경기도 성남시 수정구 신흥동 5167번지","category":""}]},{"lat":"37.4419719","long":"127.1382114","items":[{"name":"성남사","tel":"031-751-0745","addr":"경기도 성남시 수정구 신흥동 5599번지","category":""}]},{"lat":"37.4501657","long":"127.1502055","items":[{"name":"성남시니어클럽식품제조사업단","tel":"031-731-4458","addr":"경기도 성남시 수정구 신흥동 192번지","category":""}]},{"lat":"37.4416891","long":"127.1487086","items":[{"name":"성남인디안모드 <신흥점>","tel":"031-742-7335","addr":"경기도 성남시 수정구 신흥동 2491번지","category":""}]},{"lat":"37.4413868","long":"127.1377697","items":[{"name":"성남중앙공판장(신흥점)","tel":"031-756-0449","addr":"경기도 성남시 수정구 신흥동 5706번지","category":""}]},{"lat":"37.4380225","long":"127.1407919","items":[{"name":"성남한의원","tel":"031-721-1075","addr":"경기도 성남시 수정구 신흥동 6947번지 에드모스","category":""}]},{"lat":"37.4420763","long":"127.1414547","items":[{"name":"성심슈퍼","tel":"031-751-4250","addr":"경기도 성남시 수정구 신흥동 5107번지","category":""}]},{"lat":"37.4492773","long":"127.147322","items":[{"name":"수정공사","tel":"031-747-0715","addr":"경기도 성남시 수정구 신흥동 1017번지","category":""}]},{"lat":"37.4426099","long":"127.1396816","items":[{"name":"숙이네 완도식당","tel":"031-756-9446","addr":"경기도 성남시 수정구 신흥동 5453번지","category":""}]},{"lat":"37.4505206","long":"127.1473244","items":[{"name":"숯골동태탕","tel":"031-746-3551","addr":"경기도 성남시 수정구 신흥동 891-1번지","category":""}]},{"lat":"37.4407221","long":"127.1437122","items":[{"name":"스마트 학생복","tel":"031-753-7272","addr":"경기도 성남시 수정구 신흥동 4510번지","category":""},{"name":"스마트학생복","tel":"031-753-7272","addr":"경기도 성남시 수정구 신흥동 4510번지","category":""}]},{"lat":"37.442278","long":"127.1384267","items":[{"name":"시골밥상 신흥점","tel":"031-752-6641","addr":"경기도 성남시 수정구 신흥동 5557번지","category":""}]},{"lat":"37.4429952","long":"127.1415129","items":[{"name":"시골부부식당","tel":"031-721-5399","addr":"경기도 성남시 수정구 신흥동 5486번지","category":""}]},{"lat":"37.4413055","long":"127.1455665","items":[{"name":"신마포갈매기","tel":"031-732-6092","addr":"경기도 성남시 수정구 신흥동 4129번지","category":""}]},{"lat":"37.4428892","long":"127.147321","items":[{"name":"신일정육점","tel":"031-743-0943","addr":"경기도 성남시 수정구 신흥동 2685번지","category":""}]},{"lat":"37.4394711","long":"127.142546","items":[{"name":"신일크리닝상사","tel":"031-757-2178","addr":"경기도 성남시 수정구 신흥동 4249번지","category":""}]},{"lat":"37.4479377","long":"127.1449349","items":[{"name":"신흥뮤직아카데미","tel":"031-736-1810","addr":"경기도 성남시 수정구 신흥동 74번지","category":""}]},{"lat":"37.4424396","long":"127.1389581","items":[{"name":"신흥왕족발","tel":"031-759-9955","addr":"경기도 성남시 수정구 신흥동 5563번지","category":""}]},{"lat":"37.4402721","long":"127.1432594","items":[{"name":"신흥유통","tel":"031-757-0209","addr":"경기도 성남시 수정구 신흥동 4461번지","category":""}]},{"lat":"37.4400003","long":"127.144547","items":[{"name":"신흥종로약국","tel":"031-744-2992","addr":"경기도 성남시 수정구 신흥동 4223-2번지","category":""},{"name":"아이비스 안경콘택트","tel":"031-731-2345","addr":"경기도 성남시 수정구 신흥동 4223-2번지","category":""}]},{"lat":"37.442605","long":"127.1512303","items":[{"name":"신흥하나로약국","tel":"031-735-3600","addr":"경기도 성남시 수정구 신흥동 2471번지","category":""}]},{"lat":"37.4426921","long":"127.138789","items":[{"name":"쌈지 성남점","tel":"031-752-9033","addr":"경기도 성남시 수정구 신흥동 5525번지","category":""},{"name":"파리바게뜨 성남시청점","tel":"031-758-3596","addr":"경기도 성남시 수정구 신흥동 5525번지","category":""}]},{"lat":"37.4500784","long":"127.1479338","items":[{"name":"아름다운사람들","tel":"031-742-1479","addr":"경기도 성남시 수정구 신흥동 899번지","category":""}]},{"lat":"37.4425215","long":"127.1382124","items":[{"name":"아마로스피부관리실(시청점)","tel":"031-757-5155","addr":"경기도 성남시 수정구 신흥동 5532번지","category":""}]},{"lat":"37.4458285","long":"127.1455977","items":[{"name":"아미","tel":"031-732-9933","addr":"경기도 성남시 수정구 신흥동 3405번지","category":""}]},{"lat":"37.4401361","long":"127.1439823","items":[{"name":"아이비클럽성남점","tel":"031-751-6234","addr":"경기도 성남시 수정구 신흥동 4506번지","category":""}]},{"lat":"37.4414453","long":"127.141657","items":[{"name":"알뜰공판장","tel":"031-721-0793","addr":"경기도 성남시 수정구 신흥동 4693번지","category":""}]},{"lat":"37.4418262","long":"127.1471834","items":[{"name":"언제나좋은벗2호점","tel":"031-733-3338","addr":"경기도 성남시 수정구 신흥동 2571번지","category":""},{"name":"큰댁설렁탕","tel":"031-731-1123","addr":"경기도 성남시 수정구 신흥동 2571번지","category":""}]},{"lat":"37.4444416","long":"127.1450752","items":[{"name":"얼굴에밥주는여자","tel":"031-748-7003","addr":"경기도 성남시 수정구 신흥동 3373번지","category":""}]},{"lat":"37.4431937","long":"127.1488245","items":[{"name":"엘컴퓨터","tel":"031-734-5119","addr":"경기도 성남시 수정구 신흥동 2619-3번지","category":""}]},{"lat":"37.4427456","long":"127.1392637","items":[{"name":"열린 온누리약국","tel":"031-756-3600","addr":"경기도 성남시 수정구 신흥동 5521번지","category":""},{"name":"태평양약국","tel":"031-753-8020","addr":"경기도 성남시 수정구 신흥동 5521번지","category":""}]},{"lat":"37.4393816","long":"127.1420147","items":[{"name":"영토스트","tel":"031-755-5870","addr":"경기도 성남시 수정구 신흥동 6881번지","category":""}]},{"lat":"37.439607","long":"127.1418796","items":[{"name":"오 땡큐","tel":"070-8201-4470","addr":"경기도 성남시 수정구 신흥동 6835번지","category":""}]},{"lat":"37.4416321","long":"127.1437591","items":[{"name":"오늘손칼국수찜","tel":"031-743-6699","addr":"경기도 성남시 수정구 신흥동 3774번지","category":""}]},{"lat":"37.4420514","long":"127.1471838","items":[{"name":"오리가 밥먹는 집","tel":"031-749-2229","addr":"경기도 성남시 수정구 신흥동 2579-1번지","category":""}]},{"lat":"37.4409379","long":"127.1440742","items":[{"name":"왁스헤어","tel":"031-736-3947","addr":"경기도 성남시 수정구 신흥동 3779번지","category":""}]},{"lat":"37.444442","long":"127.1447362","items":[{"name":"왕약국","tel":"031-734-2143","addr":"경기도 성남시 수정구 신흥동 3433번지","category":""}]},{"lat":"37.4392733","long":"127.1421501","items":[{"name":"우리마트 신흥1동점","tel":"031-755-6897","addr":"경기도 성남시 수정구 신흥동 6909번지","category":""}]},{"lat":"37.4413022","long":"127.140764","items":[{"name":"우리마트 신흥점","tel":"031-755-0547","addr":"경기도 성남시 수정구 신흥동 4907번지","category":""}]},{"lat":"37.4442993","long":"127.1435381","items":[{"name":"우리안경","tel":"031-742-2003","addr":"경기도 성남시 수정구 신흥동 3436-1번지","category":""}]},{"lat":"37.4425478","long":"127.1388453","items":[{"name":"우림식당 신흥점","tel":"031-757-9790","addr":"경기도 성남시 수정구 신흥동 5526번지","category":""}]},{"lat":"37.4449648","long":"127.1445677","items":[{"name":"우수보습학원","tel":"031-735-6582","addr":"경기도 성남시 수정구 신흥동 3417번지","category":""}]},{"lat":"37.4402744","long":"127.1413158","items":[{"name":"우진전기","tel":"031-757-0566","addr":"경기도 성남시 수정구 신흥동 6729번지","category":""}]},{"lat":"37.4470539","long":"127.1456","items":[{"name":"우촌고기 백화점","tel":"031-747-8862","addr":"경기도 성남시 수정구 신흥동 1742번지","category":""}]},{"lat":"37.4448558","long":"127.1453246","items":[{"name":"육백계치킨","tel":"031-745-9212","addr":"경기도 성남시 수정구 신흥동 3396번지 송림빌라","category":""},{"name":"장미공판장","tel":"031-745-1747","addr":"경기도 성남시 수정구 신흥동 3396번지 송림빌라","category":""}]},{"lat":"37.4435789","long":"127.1432316","items":[{"name":"육해공푸드","tel":"031-744-9997","addr":"경기도 성남시 수정구 신흥동 3436-9번지","category":""}]},{"lat":"37.4423861","long":"127.1460996","items":[{"name":"의주할인마트 신흥점","tel":"031-731-7066","addr":"경기도 성남시 수정구 신흥동 2653번지","category":""}]},{"lat":"37.4428868","long":"127.1418178","items":[{"name":"인하종합광고","tel":"","addr":"경기도 성남시 수정구 신흥동 5255번지","category":""}]},{"lat":"37.4427717","long":"127.1400661","items":[{"name":"일미식당","tel":"031-757-8710","addr":"경기도 성남시 수정구 신흥동 5462번지","category":""}]},{"lat":"37.4514108","long":"127.1488179","items":[{"name":"임가미 헤어뷰","tel":"031-744-1352","addr":"경기도 성남시 수정구 신흥동 179번지 삼부르네상스파크","category":""}]},{"lat":"37.4489712","long":"127.1470954","items":[{"name":"잉꼬방","tel":"","addr":"경기도 성남시 수정구 신흥동 1025번지","category":""}]},{"lat":"37.4504666","long":"127.1472678","items":[{"name":"장모네 화로구이 돌솥한정식 전문점","tel":"031-736-3453","addr":"경기도 성남시 수정구 신흥동 892번지","category":""}]},{"lat":"37.4495797","long":"127.150453","items":[{"name":"전주식당","tel":"031-741-8740","addr":"경기도 성남시 수정구 신흥동 287번지","category":""}]},{"lat":"37.4428326","long":"127.149321","items":[{"name":"전주식당 신흥동","tel":"031-731-3792","addr":"경기도 성남시 수정구 신흥동 2595-2번지","category":""}]},{"lat":"37.4435793","long":"127.14287","items":[{"name":"정관장(성남신흥점)","tel":"","addr":"경기도 성남시 수정구 신흥동 3436-16번지","category":""}]},{"lat":"37.4420219","long":"127.1491839","items":[{"name":"정다운산부인과","tel":"031-747-9944","addr":"경기도 성남시 수정구 신흥동 2484번지","category":""}]},{"lat":"37.4423034","long":"127.1398166","items":[{"name":"제이토탈패션","tel":"031-757-8868","addr":"경기도 성남시 수정구 신흥동 5394번지","category":""}]},{"lat":"37.4426084","long":"127.1410376","items":[{"name":"조이미용실","tel":"031-754-0260","addr":"경기도 성남시 수정구 신흥동 5291번지","category":""}]},{"lat":"37.4501877","long":"127.1469847","items":[{"name":"종로떡집","tel":"031-732-4014","addr":"경기도 성남시 수정구 신흥동 923-1번지","category":""}]},{"lat":"37.4416923","long":"127.1461548","items":[{"name":"종합감자탕","tel":"031-735-3362","addr":"경기도 성남시 수정구 신흥동 4118번지","category":""}]},{"lat":"37.4426086","long":"127.1408455","items":[{"name":"주경미용실","tel":"031-757-0340","addr":"경기도 성남시 수정구 신흥동 5274번지","category":""}]},{"lat":"37.4451614","long":"127.1458789","items":[{"name":"중고컴퓨터재활용센터","tel":"031-736-7365","addr":"경기도 성남시 수정구 신흥동 3386번지","category":""}]},{"lat":"37.4426605","long":"127.1426762","items":[{"name":"진로마트 신흥점","tel":"031-721-9025","addr":"경기도 성남시 수정구 신흥동 5180번지 샤르망","category":""}]},{"lat":"37.4430236","long":"127.1403717","items":[{"name":"진미감자탕","tel":"031-743-8989","addr":"경기도 성남시 수정구 신흥동 5510번지","category":""}]},{"lat":"37.4503586","long":"127.1472337","items":[{"name":"착한순대국","tel":"031-735-4854","addr":"경기도 성남시 수정구 신흥동 921번지","category":""}]},{"lat":"37.4411619","long":"127.1451481","items":[{"name":"참맛나리아","tel":"031-747-2338","addr":"경기도 성남시 수정구 신흥동 4135번지","category":""}]},{"lat":"37.4426637","long":"127.1399642","items":[{"name":"청기와여행사","tel":"031-754-4000","addr":"경기도 성남시 수정구 신흥동 5460번지","category":""},{"name":"청기와집","tel":"031-757-0808","addr":"경기도 성남시 수정구 신흥동 5460번지","category":""}]},{"lat":"37.4488016","long":"127.1530733","items":[{"name":"청송기업㈜","tel":"031-752-4390","addr":"경기도 성남시 수정구 신흥동 2422번지","category":""}]},{"lat":"37.4428883","long":"127.1405183","items":[{"name":"청진동이모네식당","tel":"031-721-0387","addr":"경기도 성남시 수정구 신흥동 5471번지","category":""}]},{"lat":"37.4488825","long":"127.1459538","items":[{"name":"축우촌숯불갈비","tel":"031-745-6337","addr":"경기도 성남시 수정구 신흥동 1741-1번지","category":""}]},{"lat":"37.442804","long":"127.143185","items":[{"name":"친구네","tel":"031-755-3131","addr":"경기도 성남시 수정구 신흥동 3440번지","category":""}]},{"lat":"37.4428896","long":"127.1393996","items":[{"name":"침구랜드","tel":"031-753-7955","addr":"경기도 성남시 수정구 신흥동 5520번지","category":""}]},{"lat":"37.4418823","long":"127.1377932","items":[{"name":"코리아나치킨","tel":"","addr":"경기도 성남시 수정구 신흥동 5588번지","category":""}]},{"lat":"37.4434685","long":"127.145096","items":[{"name":"코사마트(제일점)","tel":"031-735-4993","addr":"경기도 성남시 수정구 신흥동 3586번지","category":""}]},{"lat":"37.4426094","long":"127.1401223","items":[{"name":"크린크린빨래방","tel":"031-722-6135","addr":"경기도 성남시 수정구 신흥동 5429번지","category":""}]},{"lat":"37.4425511","long":"127.1510946","items":[{"name":"티샤다이아몬드","tel":"031-742-4949","addr":"경기도 성남시 수정구 신흥동 2472번지","category":""}]},{"lat":"37.4450273","long":"127.1450424","items":[{"name":"피자앤피자","tel":"031-735-8482","addr":"경기도 성남시 수정구 신흥동 3412-2번지","category":""}]},{"lat":"37.443193","long":"127.1419314","items":[{"name":"피자에땅","tel":"031-742-2082","addr":"경기도 성남시 수정구 신흥동 5490번지","category":""}]},{"lat":"37.4492415","long":"127.1470959","items":[{"name":"피자칸","tel":"031-746-9800","addr":"경기도 성남시 수정구 신흥동 1000번지","category":""}]},{"lat":"37.4426355","long":"127.1409359","items":[{"name":"하라Hair","tel":"070-8654-9104","addr":"경기도 성남시 수정구 신흥동 5273번지","category":""}]},{"lat":"37.4418059","long":"127.1490365","items":[{"name":"하모니유통","tel":"031-747-7711","addr":"경기도 성남시 수정구 신흥동 2486번지","category":""}]},{"lat":"37.4392729","long":"127.1425682","items":[{"name":"한국유통(신흥점)","tel":"031-754-5611","addr":"경기도 성남시 수정구 신흥동 4242번지","category":""}]},{"lat":"37.4432495","long":"127.1473782","items":[{"name":"한국유통신흥점","tel":"031-734-4450","addr":"경기도 성남시 수정구 신흥동 2804번지","category":""}]},{"lat":"37.4440558","long":"127.1437637","items":[{"name":"한성목욕탕","tel":"031-747-4763","addr":"경기도 성남시 수정구 신흥동 3436-4번지","category":""}]},{"lat":"37.4476585","long":"127.144844","items":[{"name":"한양본갈비","tel":"031-732-5807","addr":"경기도 성남시 수정구 신흥동 109번지","category":""}]},{"lat":"37.4447205","long":"127.14546","items":[{"name":"한우고을정육점","tel":"031-731-2391","addr":"경기도 성남시 수정구 신흥동 3378번지","category":""}]},{"lat":"37.4415223","long":"127.1374083","items":[{"name":"한우리정육점","tel":"031-756-4033","addr":"경기도 성남시 수정구 신흥동 5911번지","category":""}]},{"lat":"37.4421344","long":"127.1379631","items":[{"name":"해미식당","tel":"031-753-4951","addr":"경기도 성남시 수정구 신흥동 5552번지","category":""}]},{"lat":"37.4404156","long":"127.1438472","items":[{"name":"행복떡집","tel":"031-755-0435","addr":"경기도 성남시 수정구 신흥동 4508번지","category":""}]},{"lat":"37.4392774","long":"127.1387038","items":[{"name":"행복한헤어샵","tel":"","addr":"경기도 성남시 수정구 신흥동 6392번지","category":""}]},{"lat":"37.4410271","long":"127.1448428","items":[{"name":"헤어갤러리","tel":"031-731-9275","addr":"경기도 성남시 수정구 신흥동 4201번지","category":""}]},{"lat":"37.4426352","long":"127.1412072","items":[{"name":"헬로헤어","tel":"031-759-5412","addr":"경기도 성남시 수정구 신흥동 5270번지","category":""}]},{"lat":"37.440748","long":"127.1369323","items":[{"name":"현대e마트","tel":"031-722-3111","addr":"경기도 성남시 수정구 신흥동 5971번지","category":""}]},{"lat":"37.4395013","long":"127.1398228","items":[{"name":"호세아바베큐","tel":"031-759-5293","addr":"경기도 성남시 수정구 신흥동 6643번지","category":""}]},{"lat":"37.4514102","long":"127.1492587","items":[{"name":"호야옛날통닭","tel":"031-736-5559","addr":"경기도 성남시 수정구 신흥동 173번지 셀레스빌","category":""}]},{"lat":"37.4428614","long":"127.1404053","items":[{"name":"황산","tel":"031-753-4228","addr":"경기도 성남시 수정구 신흥동 5470번지","category":""}]},{"lat":"37.4391919","long":"127.1424551","items":[{"name":"효자떡전문점","tel":"031-758-7010","addr":"경기도 성남시 수정구 신흥동 4245번지","category":""}]},{"lat":"37.4467727","long":"127.1471251","items":[{"name":"희망슈퍼","tel":"031-746-5323","addr":"경기도 성남시 수정구 신흥동 1427번지","category":""}]},{"lat":"37.4495223","long":"127.145842","items":[{"name":"희플라워","tel":"031-741-2999","addr":"경기도 성남시 수정구 신흥동 32번지","category":""}]}]