[{"lat":"37.809473974","long":"126.68980207","imageIndex":17,"items":[{"name":"꼬마솜씨(어린이도예교육)","tel":"031-944-1880","addr":"경기도 파주시 탄현면 대동리 209-3번지","indutype":"문화.취미 - 민예·공예품","category":"other"}]},{"lat":"37.811550032","long":"126.6912696","imageIndex":17,"items":[{"name":"나비엔ENG","tel":"031-939-0414","addr":"경기도 파주시 탄현면 대동리 278-15번지","indutype":"수리서비스 - 기타수리서비스","category":"other"}]},{"lat":"37.813133265","long":"126.69035444","imageIndex":17,"items":[{"name":"메주꽃공방(허브앤솝)","tel":"031-944-7822","addr":"경기도 파주시 탄현면 대동리 284-4번지","indutype":"신변잡화 - 기타잡화","category":"other"}]},{"lat":"37.801000578","long":"126.6881006","imageIndex":17,"items":[{"name":"아르티스타","tel":"","addr":"경기도 파주시 탄현면 대동리 산21-7번지","indutype":"문화.취미 - 티켓","category":"other"}]},{"lat":"37.81852755","long":"126.68946855","imageIndex":17,"items":[{"name":"제이에스컴퍼니","tel":"070-4891-3402","addr":"경기도 파주시 탄현면 대동리 371-1번지","indutype":"가구 - 일반가구","category":"other"}]},{"lat":"37.803559046","long":"126.68802161","imageIndex":17,"items":[{"name":"튜즐","tel":"070-8285-2223","addr":"경기도 파주시 탄현면 대동리 108-13번지","indutype":"가구 - 일반가구","category":"other"}]},{"lat":"37.803115066","long":"126.68708105","imageIndex":17,"items":[{"name":"플로렌스 너싱홈","tel":"031-946-5231","addr":"경기도 파주시 탄현면 대동리 107-14번지","indutype":"기타의료기관 - 기타의료기관 및 기타","category":"other"}]},{"lat":"37.800836496","long":"126.68738597","imageIndex":17,"items":[{"name":"해민도예","tel":"031-942-3221","addr":"경기도 파주시 탄현면 대동리 93-11번지","indutype":"문화.취미 - 골동품점","category":"other"}]}]