[{"lat":"36.99352698","long":"127.11136268","imageIndex":17,"items":[{"name":"(자)경기건설엔지니어링","tel":"031-652-2551","addr":"경기도 평택시 비전동 835-4번지 2층","indutype":"용역 서비스 - 사무서비스","category":"other"},{"name":"경기건설 ENG","tel":"031-618-1382","addr":"경기도 평택시 비전동 835-4번지","indutype":"서비스업 - 설계","category":"other"},{"name":"삼신종합장식","tel":"031-654-4447","addr":"경기도 평택시 비전동 835-4번지","indutype":"직물 - 카페트,커튼,천막,지물","category":"other"}]},{"lat":"37.01140645","long":"127.10885998","imageIndex":17,"items":[{"name":"(주)대지건축사사무소","tel":"031-655-2224","addr":"경기도 평택시 비전동 38-4번지 4층 402호","indutype":"용역 서비스 - 사무서비스","category":"other"},{"name":"주식회사 가인건설알앤씨","tel":"031-656-2380","addr":"경기도 평택시 비전동 38-4번지 302호","indutype":"용역 서비스 - 기타용역서비스","category":"other"}]},{"lat":"36.995911374","long":"127.10508641","imageIndex":17,"items":[{"name":"(주)도어월드 (Door World.Inc.)","tel":"031-656-5009","addr":"경기도 평택시 비전동 821번지","indutype":"건축자재 - 기타건축자재","category":"other"},{"name":"명품도어","tel":"031-656-5009","addr":"경기도 평택시 비전동 821번지","indutype":"건축자재 - 기타건축자재","category":"other"}]},{"lat":"36.996213051","long":"127.08820247","imageIndex":17,"items":[{"name":"(주)비전캐슬","tel":"031-657-7671","addr":"경기도 평택시 비전동 630-12번지 비전프라자","indutype":"회원제형태 - 레져업소","category":"other"},{"name":"법무사강정환사무소","tel":"031-653-5544","addr":"경기도 평택시 비전동 630-12번지 효성빌딩 102호","indutype":"용역 서비스 - 법률회계서비스(개인)","category":"other"},{"name":"비전스포츠","tel":"031-653-9600","addr":"경기도 평택시 비전동 630-12번지","indutype":"레져용품 - 스포츠·레져용품","category":"other"},{"name":"스포츠아트","tel":"031-657-7671","addr":"경기도 평택시 비전동 630-12번지","indutype":"회원제형태 - 레져업소","category":"other"}]},{"lat":"36.999688707","long":"127.11309027","imageIndex":17,"items":[{"name":"(주)신세계인터내셔날 JAJU평택소사벌점","tel":"02-6979-1923","addr":"경기도 평택시 비전동 1105번지 프라우빌딩","indutype":"의류 - 정장","category":"other"},{"name":"아이젠트리평택","tel":"031-656-3339","addr":"경기도 평택시 비전동 1105번지 프라우빌딩 106호","indutype":"도소매업 - 안경","category":"other"}]},{"lat":"36.990664232","long":"127.10841558","imageIndex":17,"items":[{"name":"(주)아름다운여행","tel":"031-656-0101","addr":"경기도 평택시 비전동 183-1번지","indutype":"여행 - 관광여행","category":"other"},{"name":"감각디자인","tel":"031-657-6404","addr":"경기도 평택시 비전동 183-1번지 102호","indutype":"용역 서비스 - 종합용역","category":"other"},{"name":"베비카","tel":"031-618-6427","addr":"경기도 평택시 비전동 183-1번지 103호","indutype":"레져용품 - 스포츠·레져용품","category":"other"},{"name":"평고서점","tel":"031-653-6383","addr":"경기도 평택시 비전동 183-1번지","indutype":"서적문구 - 일반서적","category":"other"}]},{"lat":"36.999713816","long":"127.09411561","imageIndex":17,"items":[{"name":"(주)에이엠렌터카 평택지점","tel":"031-653-8283","addr":"경기도 평택시 비전동 790-2번지 우측 상가","indutype":"여행 - 렌터카","category":"other"},{"name":"신라나염광고","tel":"031-652-7006","addr":"경기도 평택시 비전동 790-2번지","indutype":"용역 서비스 - 종합용역","category":"other"}]},{"lat":"36.994355714","long":"127.10130988","imageIndex":17,"items":[{"name":"(주)엘지정보통신","tel":"031-658-6565","addr":"경기도 평택시 비전동 751-2번지","indutype":"사무통신 - 통신기기","category":"other"},{"name":"스마트OA","tel":"031-652-5543","addr":"경기도 평택시 비전동 751-2번지 외1필지","indutype":"수리서비스 - 사무·통신기기수리","category":"other"},{"name":"장수장식","tel":"031-658-1304","addr":"경기도 평택시 비전동 751-2번지","indutype":"직물 - 카페트,커튼,천막,지물","category":"other"}]},{"lat":"36.997102348","long":"127.10325688","imageIndex":17,"items":[{"name":"(주)운트아인","tel":"031-652-0808","addr":"경기도 평택시 비전동 818-1번지 303호","indutype":"가구 - 일반가구","category":"other"},{"name":"가나공조평택점","tel":"031-653-4507","addr":"경기도 평택시 비전동 818-1번지 위니아딤채","indutype":"전기제품 - 가전제품","category":"other"},{"name":"동아세무회계사무소","tel":"031-692-3571","addr":"경기도 평택시 비전동 818-1번지 201호","indutype":"용역 서비스 - 법률회계서비스(개인)","category":"other"},{"name":"에넥스평택점","tel":"031-651-3355","addr":"경기도 평택시 비전동 818-1번지","indutype":"가구 - 기타가구","category":"other"},{"name":"주식회사 이지원","tel":"","addr":"경기도 평택시 비전동 818-1번지 201호","indutype":"가구 - 일반가구","category":"other"}]},{"lat":"37.000824749","long":"127.1123392","imageIndex":17,"items":[{"name":"(주)제이커머스","tel":"031-622-7782","addr":"경기도 평택시 비전동 1090-5번지 골든프라자-7 3층 1호","indutype":"신변잡화 - 기타잡화","category":"other"},{"name":"GS 25 평택골든점","tel":"031-691-7510","addr":"경기도 평택시 비전동 1090-5번지 골든프라자-7 112호","indutype":"소매업 - 편의점","category":"other"},{"name":"롱커피(비전점)","tel":"031-655-8897","addr":"경기도 평택시 비전동 1090-5번지 골든프라자-7 115호","indutype":"소매업 - 카페","category":"other"},{"name":"세무사최길해사무소","tel":"031-656-0096","addr":"경기도 평택시 비전동 1090-5번지 골든프라자7차 407호","indutype":"용역 서비스 - 법률회계서비스(개인)","category":"other"},{"name":"참조은세무회계사무소","tel":"031-647-3747","addr":"경기도 평택시 비전동 1090-5번지 골든프라자-7 302호","indutype":"용역 서비스 - 법률회계서비스(개인)","category":"other"}]},{"lat":"36.993742732","long":"127.11191342","imageIndex":17,"items":[{"name":"(주)제일측량설계사무소","tel":"031-658-4091","addr":"경기도 평택시 비전동 834번지","indutype":"용역 서비스 - 법률회계서비스(법인)","category":"other"},{"name":"궁전스튜디오","tel":"031-657-0888","addr":"경기도 평택시 비전동 834번지","indutype":"광학제품 - 사진관","category":"other"},{"name":"궁전스튜디오","tel":"031-654-1255","addr":"경기도 평택시 비전동 834번지","indutype":"서비스업 - 사진관","category":"other"},{"name":"해아 스튜디오","tel":"031-658-4322","addr":"경기도 평택시 비전동 834번지 3층","indutype":"서비스업 - 사진촬영, 의류","category":"other"}]},{"lat":"37.000073846","long":"127.11556238","imageIndex":17,"items":[{"name":"(주)프렌즈 투어","tel":"031-654-7373","addr":"경기도 평택시 비전동 1101-3번지 205호","indutype":"여행 - 관광여행","category":"other"},{"name":"그랑블루 다이아몬드","tel":"031-652-3667","addr":"경기도 평택시 비전동 1101-3번지 107호","indutype":"신변잡화 - 귀금속","category":"other"},{"name":"변호사 이춘성법률사무소","tel":"031-656-5300","addr":"경기도 평택시 비전동 1101-3번지 레이크타워 603호","indutype":"용역 서비스 - 법률회계서비스(개인)","category":"other"},{"name":"사랑하개","tel":"031-692-4215","addr":"경기도 평택시 비전동 1101-3번지 101호","indutype":"서비스업 - 애견샵","category":"other"},{"name":"사랑하개","tel":"031-657-0799","addr":"경기도 평택시 비전동 1101-3번지","indutype":"문화.취미 - 애완동물","category":"other"},{"name":"아르도르","tel":"031-653-7779","addr":"경기도 평택시 비전동 1101-3번지 레이크타워 206호","indutype":"의류 - 맞춤복점","category":"other"},{"name":"채움한복","tel":"031-618-2925","addr":"경기도 평택시 비전동 1101-3번지 레이크타워 203호","indutype":"의류 - 맞춤복점","category":"other"}]},{"lat":"37.001885471","long":"127.1150595","imageIndex":17,"items":[{"name":"114리치공인중개사사무소","tel":"031-652-1982","addr":"경기도 평택시 비전동 1096-2번지","indutype":"서비스업 - 부동산","category":"other"},{"name":"아싸비어 소사벌점","tel":"","addr":"경기도 평택시 비전동 1096-2번지 메스타워 104호","indutype":"유통업 영리 - 편 의 점","category":"other"},{"name":"아싸비어소사벌점","tel":"031-655-3332","addr":"경기도 평택시 비전동 1096-2번지 에스타워 104호","indutype":"소매업 - 편의점","category":"other"},{"name":"이가스튜디오","tel":"031-647-0990","addr":"경기도 평택시 비전동 1096-2번지 304호 303호,304호","indutype":"광학제품 - 사진관","category":"other"}]},{"lat":"37.002548103","long":"127.10980263","imageIndex":17,"items":[{"name":"12M","tel":"031-656-1809","addr":"경기도 평택시 비전동 1041번지 퀸스타워 104호","indutype":"소매업 - 의류","category":"other"},{"name":"demain(드맹)","tel":"031-663-9929","addr":"경기도 평택시 비전동 1041번지 퀸즈타워 107호","indutype":"의류 - 정장","category":"other"},{"name":"날라리","tel":"000-000-0000","addr":"경기도 평택시 비전동 1041번지 퀸즈타워 105호","indutype":"의류 - 정장","category":"other"},{"name":"루","tel":"","addr":"경기도 평택시 비전동 1041번지 퀸즈타워 101호","indutype":"소매업 - 잡화","category":"other"},{"name":"루 (RU)","tel":"031-657-0310","addr":"경기도 평택시 비전동 1041번지 퀸즈타워 101호","indutype":"의류 - 정장","category":"other"},{"name":"리디아","tel":"031-666-3114","addr":"경기도 평택시 비전동 1041번지 퀸즈타워 108호","indutype":"소매업 - 의류","category":"other"},{"name":"모모펫 그루머","tel":"031-654-3453","addr":"경기도 평택시 비전동 1041번지 퀸즈타워 115호","indutype":"문화.취미 - 애완동물","category":"other"},{"name":"바오밥나무","tel":"031-691-8223","addr":"경기도 평택시 비전동 1041번지 퀸즈타워 109호","indutype":"의류 - 정장","category":"other"},{"name":"심플소잉NCC 평택소사벌점","tel":"070-4106-7793","addr":"경기도 평택시 비전동 1041번지 퀸즈타워 113동","indutype":"직물 - 옷감·직물","category":"other"},{"name":"아이러브홈","tel":"031-692-3370","addr":"경기도 평택시 비전동 1041번지 퀸즈타워 110호","indutype":"직물 - 침구·수예점","category":"other"},{"name":"어스","tel":"031-9376-6932","addr":"경기도 평택시 비전동 1041번지 퀸즈타워 104호","indutype":"의류 - 정장","category":"other"},{"name":"어썸(Awesome)","tel":"031-691-1316","addr":"경기도 평택시 비전동 1041번지 퀸즈타워 101호","indutype":"의류 - 정장","category":"other"},{"name":"에스제이더블유","tel":"02-1111-1111","addr":"경기도 평택시 비전동 1041번지 퀸즈타워 115호","indutype":"문화.취미 - 애완동물","category":"other"},{"name":"엔젤","tel":"031-691-8223","addr":"경기도 평택시 비전동 1041번지 퀸즈타워 109호","indutype":"신변잡화 - 액세서리","category":"other"},{"name":"위드미평택퀸즈타워점","tel":"031-323-6016","addr":"경기도 평택시 비전동 1041번지 퀸즈타워 103호","indutype":"유통업 영리 - 편 의 점","category":"other"},{"name":"필미","tel":"","addr":"경기도 평택시 비전동 1041번지 퀸즈타워 114호","indutype":"의류 - 정장","category":"other"}]},{"lat":"36.996830892","long":"127.11461395","imageIndex":17,"items":[{"name":"24시편의점","tel":"031-652-2335","addr":"경기도 평택시 비전동 873-4번지","indutype":"유통업 영리 - 편 의 점","category":"other"}]},{"lat":"37.005595306","long":"127.09730218","imageIndex":17,"items":[{"name":"3.8선지하도아리랑동산문화사","tel":"031-8029-5508","addr":"경기도 평택시 비전동 1004번지 휴먼시아2단지 208동 701호","indutype":"서적문구 - 출판 및 인쇄물","category":"other"}]},{"lat":"36.996523798","long":"127.09441511","imageIndex":17,"items":[{"name":"6월공상","tel":"031-000-0000","addr":"경기도 평택시 비전동 604-17번지","indutype":"신변잡화 - 기타잡화","category":"other"}]},{"lat":"36.99399194","long":"127.09422111","imageIndex":17,"items":[{"name":"AII 디자인","tel":"031-618-2225","addr":"경기도 평택시 비전동 615-4번지","indutype":"용역 서비스 - 종합용역","category":"other"}]},{"lat":"36.993297054","long":"127.09559075","imageIndex":17,"items":[{"name":"Coy Dog","tel":"031-654-1228","addr":"경기도 평택시 비전동 731-19번지","indutype":"문화.취미 - 애완동물","category":"other"},{"name":"레몬컴퓨터","tel":"031-653-3955","addr":"경기도 평택시 비전동 731-19번지","indutype":"소매업 - 컴퓨터 및 주변기기","category":"other"},{"name":"레몬컴퓨터 평택센터","tel":"031-651-2979","addr":"경기도 평택시 비전동 731-19번지","indutype":"사무통신 - 컴퓨터","category":"other"}]},{"lat":"36.995020993","long":"127.09180712","imageIndex":17,"items":[{"name":"D&J","tel":"031-651-5077","addr":"경기도 평택시 비전동 622-14번지","indutype":"용역 서비스 - 종합용역","category":"other"},{"name":"비둘기세탁소","tel":"031-653-7111","addr":"경기도 평택시 비전동 622-14번지","indutype":"수리서비스 - 세탁소","category":"other"}]},{"lat":"37.001185976","long":"127.08955616","imageIndex":17,"items":[{"name":"Danny Bike","tel":"031-8022-6300","addr":"경기도 평택시 비전동 433-9번지 1층","indutype":"레져용품 - 스포츠·레져용품","category":"other"}]},{"lat":"36.995939941","long":"127.09199916","imageIndex":17,"items":[{"name":"GAP건설","tel":"031-654-4017","addr":"경기도 평택시 비전동 609-24번지","indutype":"용역 서비스 - 기타용역서비스","category":"other"},{"name":"서진C&S","tel":"031-654-0397","addr":"경기도 평택시 비전동 609-24번지","indutype":"신변잡화 - 기타잡화","category":"other"}]},{"lat":"37.000323951","long":"127.10813683","imageIndex":17,"items":[{"name":"GS25 평택효성점","tel":"031-656-9577","addr":"경기도 평택시 비전동 1089번지 평택비전동효성백년가약 1동 107호","indutype":"소매업 - 편의점","category":"other"},{"name":"GS25평택효성점","tel":"","addr":"경기도 평택시 비전동 1089번지 효성백년가약 상가동 1동 107호","indutype":"유통업 영리 - 편 의 점","category":"other"},{"name":"기쁜세탁소","tel":"031-657-6237","addr":"경기도 평택시 비전동 1089번지 평택비전동효성백년가약 상가동 106호","indutype":"수리서비스 - 세탁소","category":"other"},{"name":"미니스톱평택효성점","tel":"031-1577-9621","addr":"경기도 평택시 비전동 1089번지 효성백년가약단지내 상가 상가동 2호 103,104호","indutype":"유통업 영리 - 편 의 점","category":"other"},{"name":"백년과일","tel":"031-651-0211","addr":"경기도 평택시 비전동 1089번지 평택비전동효성백년가약 1층 104호","indutype":"도소매업 - 과일","category":"other"},{"name":"소사벌114부동산","tel":"031-652-6444","addr":"경기도 평택시 비전동 1089번지 평택비전동효성백년가약 1층 101호","indutype":"서비스업 - 부동산","category":"other"}]},{"lat":"37.004469363","long":"127.09680645","imageIndex":17,"items":[{"name":"GS25비전휴먼시아점","tel":"","addr":"경기도 평택시 비전동 1004번지 휴먼시아2단지 나상가동(2동상가) 103,104호","indutype":"유통업 영리 - 편 의 점","category":"other"}]},{"lat":"37.001768915","long":"127.11444142","imageIndex":17,"items":[{"name":"GS25소사벌센트럴점","tel":"","addr":"경기도 평택시 비전동 1097번지 스페이스 스퀘어 103호","indutype":"소매업 - 편의점","category":"other"},{"name":"GS25소사벌센트럴점","tel":"","addr":"경기도 평택시 비전동 1097번지 스페이스 스퀘어 103호","indutype":"유통업 영리 - 편 의 점","category":"other"},{"name":"미지","tel":"031-692-3510","addr":"경기도 평택시 비전동 1097번지 스페이스 스퀘어 1층 102호","indutype":"서적문구 - 출판 및 인쇄물","category":"other"}]},{"lat":"37.004327932","long":"127.10442358","imageIndex":17,"items":[{"name":"GS25소사벌중앙점","tel":"","addr":"경기도 평택시 비전동 1012-3번지 폴리프라자 111호","indutype":"유통업 영리 - 편 의 점","category":"other"},{"name":"퍼스트올로","tel":"031-647-6898","addr":"경기도 평택시 비전동 1012-3번지 폴리프라자 101호","indutype":"소매업 - 의류","category":"other"},{"name":"퍼스트올로","tel":"031-657-3300","addr":"경기도 평택시 비전동 1012-3번지 폴리프라자 101호","indutype":"의류 - 내의판매","category":"other"}]},{"lat":"37.00274316","long":"127.11327444","imageIndex":17,"items":[{"name":"GS25소사벌타운점","tel":"","addr":"경기도 평택시 비전동 1061-3번지 1층","indutype":"유통업 영리 - 편 의 점","category":"other"},{"name":"GS25소사벌타운점","tel":"031-652-7312","addr":"경기도 평택시 비전동 1061-3번지 1층","indutype":"소매업 - 편의점","category":"other"}]},{"lat":"37.004882121","long":"127.10952502","imageIndex":17,"items":[{"name":"GS25우미린센트럴점","tel":"","addr":"경기도 평택시 비전동 1031번지 상가동 106호, 107호","indutype":"유통업 영리 - 편 의 점","category":"other"},{"name":"우미린세탁소","tel":"031-657-3771","addr":"경기도 평택시 비전동 1031번지 우미린센트럴파크 204호","indutype":"수리서비스 - 세탁소","category":"other"}]},{"lat":"36.996300965","long":"127.09120199","imageIndex":17,"items":[{"name":"GS25평택가톨릭점","tel":"","addr":"경기도 평택시 비전동 624-10번지","indutype":"유통업 영리 - 편 의 점","category":"other"}]},{"lat":"37.002687031","long":"127.10553364","imageIndex":17,"items":[{"name":"GS25평택강일점","tel":"","addr":"경기도 평택시 비전동 1070-1번지 강일프라자-1 102호","indutype":"유통업 영리 - 편 의 점","category":"other"},{"name":"디지로그","tel":"031-651-9101","addr":"경기도 평택시 비전동 1070-1번지 강일프라자1 3층 302호","indutype":"사무통신 - 통신기기","category":"other"},{"name":"장앤장세무회계사무소","tel":"031-647-3088","addr":"경기도 평택시 비전동 1070-1번지 강일프라자 303호","indutype":"용역 서비스 - 법률회계서비스(개인)","category":"other"},{"name":"티는아이(T=I)","tel":"070-7198-9688","addr":"경기도 평택시 비전동 1070-1번지 강일프라자 1동 1층 103호","indutype":"의류 - 정장","category":"other"}]},{"lat":"36.997771585","long":"127.08864234","imageIndex":17,"items":[{"name":"GS25평택교육청점","tel":"080-555-2525","addr":"경기도 평택시 비전동 471-2번지","indutype":"유통업 영리 - 편 의 점","category":"other"},{"name":"팡'스탬프","tel":"031-658-1406","addr":"경기도 평택시 비전동 471-2번지","indutype":"건축자재 - 목재·석재·철물","category":"other"}]},{"lat":"36.998795875","long":"127.11392031","imageIndex":17,"items":[{"name":"GS25평택로데오점","tel":"","addr":"경기도 평택시 비전동 1103-1번지 외2필지(1103-2,3) 로데오1103더테라스 130호, 143호","indutype":"유통업 영리 - 편 의 점","category":"other"},{"name":"더테라스몰꽃길","tel":"02-0000-0000","addr":"경기도 평택시 비전동 1103-1번지 지상 1층 122,123,140호","indutype":"의류 - 정장","category":"other"},{"name":"모브(mauve)","tel":"","addr":"경기도 평택시 비전동 1103-1번지 1층 142호","indutype":"의류 - 정장","category":"other"},{"name":"인생네컷 평택소사벌","tel":"","addr":"경기도 평택시 비전동 1103-1번지 1층 125,141호","indutype":"광학제품 - 사진관","category":"other"}]},{"lat":"36.993964666","long":"127.09453561","imageIndex":17,"items":[{"name":"GS25평택로얄점","tel":"","addr":"경기도 평택시 비전동 730-6번지 1층","indutype":"유통업 영리 - 편 의 점","category":"other"},{"name":"GS25평택로얄점","tel":"031-651-7203","addr":"경기도 평택시 비전동 730-6번지 1층","indutype":"소매업 - 편의점","category":"other"},{"name":"그로우즈","tel":"031-652-1318","addr":"경기도 평택시 비전동 730-6번지 로얄팰리스 상가 1층","indutype":"소매업 - 꽃집","category":"other"},{"name":"그로우즈(growoods)","tel":"02-0000-0000","addr":"경기도 평택시 비전동 730-6번지 상가 1층","indutype":"문화.취미 - 화원","category":"other"}]},{"lat":"36.992441496","long":"127.11586565","imageIndex":17,"items":[{"name":"GS25평택문화점","tel":"","addr":"경기도 평택시 비전동 886-15번지 1층","indutype":"유통업 영리 - 편 의 점","category":"other"},{"name":"크린토피아","tel":"031-691-6645","addr":"경기도 평택시 비전동 886-15번지 세탁소 1층","indutype":"수리서비스 - 세탁소","category":"other"}]},{"lat":"36.995940662","long":"127.09103306","imageIndex":17,"items":[{"name":"GS25평택성당점","tel":"080-555-2525","addr":"경기도 평택시 비전동 621-1번지","indutype":"유통업 영리 - 편 의 점","category":"other"},{"name":"아쿠아티스트","tel":"070-7804-2707","addr":"경기도 평택시 비전동 621-1번지 지하층","indutype":"문화.취미 - 수족관","category":"other"}]},{"lat":"37.003218652","long":"127.09453549","imageIndex":17,"items":[{"name":"GS25평택소사벌점","tel":"","addr":"경기도 평택시 비전동 1005번지 상가동 101,102호","indutype":"유통업 영리 - 편 의 점","category":"other"},{"name":"휴먼시아세탁소","tel":"031-691-5402","addr":"경기도 평택시 비전동 1005번지 휴먼시아1단지 소사벌A-1블럭동 210호","indutype":"수리서비스 - 세탁소","category":"other"}]},{"lat":"36.995497902","long":"127.10389509","imageIndex":17,"items":[{"name":"GS25평택수신제가점","tel":"","addr":"경기도 평택시 비전동 820번지 평택윤중수신제가아파트 103동 101호","indutype":"유통업 영리 - 편 의 점","category":"other"}]},{"lat":"36.992995461","long":"127.10087003","imageIndex":17,"items":[{"name":"GS25평택영진점","tel":"031-655-5500","addr":"경기도 평택시 비전동 756-6번지","indutype":"소매업 - 편의점","category":"other"}]},{"lat":"36.995689525","long":"127.11138821","imageIndex":17,"items":[{"name":"GS25평택이화점","tel":"","addr":"경기도 평택시 비전동 829-2번지 1층","indutype":"유통업 영리 - 편 의 점","category":"other"},{"name":"라벤다맘","tel":"070-8186-1714","addr":"경기도 평택시 비전동 829-2번지 상가서쪽 1층 1호","indutype":"의류 - 정장","category":"other"}]},{"lat":"36.999524315","long":"127.09447488","imageIndex":17,"items":[{"name":"GS25평택캐슬점","tel":"","addr":"경기도 평택시 비전동 산108-10번지","indutype":"유통업 영리 - 편 의 점","category":"other"}]},{"lat":"36.996190316","long":"127.09452705","imageIndex":17,"items":[{"name":"GS25평택한광점","tel":"02-2006-2485","addr":"경기도 평택시 비전동 603-8번지","indutype":"유통업 영리 - 편 의 점","category":"other"},{"name":"갑부장식","tel":"031-653-4431","addr":"경기도 평택시 비전동 603-8번지","indutype":"건축자재 - 인테리어전문","category":"other"}]},{"lat":"36.992609397","long":"127.10969885","imageIndex":17,"items":[{"name":"GS25평택한일점","tel":"","addr":"경기도 평택시 비전동 923번지 솔매마을한일유앤아이 상가동 101호","indutype":"유통업 영리 - 편 의 점","category":"other"}]},{"lat":"36.994188115","long":"127.09686121","imageIndex":17,"items":[{"name":"HDnG교육연구소","tel":"031-655-2738","addr":"경기도 평택시 비전동 741-17번지","indutype":"용역 서비스 - 사무서비스","category":"other"}]},{"lat":"37.0001639","long":"127.09470033","imageIndex":17,"items":[{"name":"KB종합광고","tel":"031-657-9817","addr":"경기도 평택시 비전동 793-5번지","indutype":"건축자재 - 인테리어전문","category":"other"}]},{"lat":"37.002192722","long":"127.11411624","imageIndex":17,"items":[{"name":"KCB김정훈챠밍복싱센터","tel":"031-663-9679","addr":"경기도 평택시 비전동 1095번지 로얄프라자 5층","indutype":"서비스업 - 체육시설","category":"other"},{"name":"동그라미파티","tel":"","addr":"경기도 평택시 비전동 1095번지 로얄프라자 3층 307호","indutype":"광학제품 - 사진관","category":"other"},{"name":"박기화세무회계사무소","tel":"031-653-7766","addr":"경기도 평택시 비전동 1095번지 로얄프라자 401호, 402호","indutype":"용역 서비스 - 법률회계서비스(개인)","category":"other"},{"name":"봉쥬베이비","tel":"031-618-9262","addr":"경기도 평택시 비전동 1095번지 로얄프라자 3층","indutype":"서비스업 - 사진관","category":"other"},{"name":"크로스핏샤인","tel":"031-618-1222","addr":"경기도 평택시 비전동 1095번지 로얄프라자 508호","indutype":"서비스업 - 헬스","category":"other"},{"name":"평택아가월드","tel":"031-657-4537","addr":"경기도 평택시 비전동 1095번지 로얄프라자 4층 410호","indutype":"서적문구 - 기타서적문구","category":"other"},{"name":"홍종열클라이밍짐주식회사","tel":"031-656-2744","addr":"경기도 평택시 비전동 1095 로얄프라자 4층 403호","indutype":"회원제형태 - 레져업소","category":"other"},{"name":"효리세탁소","tel":"031-655-4531","addr":"경기도 평택시 비전동 1095번지 로얄프라자 119호","indutype":"수리서비스 - 세탁소","category":"other"}]},{"lat":"36.993160073","long":"127.09789341","imageIndex":17,"items":[{"name":"KS종합광고기획","tel":"031-653-8994","addr":"경기도 평택시 비전동 746-5번지","indutype":"용역 서비스 - 종합용역","category":"other"}]},{"lat":"36.993215615","long":"127.09602875","imageIndex":17,"items":[{"name":"Lagom bike(삼천리 자전거)","tel":"031-656-1955","addr":"경기도 평택시 비전동 739-20번지","indutype":"소매업 - 자전거","category":"other"},{"name":"삼천리자전거평택대리점","tel":"031-655-5131","addr":"경기도 평택시 비전동 739-20번지","indutype":"레져용품 - 스포츠·레져용품","category":"other"},{"name":"샘텔레콤","tel":"031-653-9297","addr":"경기도 평택시 비전동 739-20번지","indutype":"사무통신 - 통신기기","category":"other"},{"name":"성동광고사","tel":"031-655-0480","addr":"경기도 평택시 비전동 739-20번지","indutype":"용역 서비스 - 종합용역","category":"other"}]},{"lat":"36.997857545","long":"127.09420327","imageIndex":17,"items":[{"name":"MAD건축","tel":"031-651-8858","addr":"경기도 평택시 비전동 599-7번지","indutype":"서비스업 - 설계","category":"other"}]},{"lat":"37.000661453","long":"127.11352982","imageIndex":17,"items":[{"name":"MORE","tel":"031-654-4747","addr":"경기도 평택시 비전동 1092-2번지 쏘울스퀘어 102호","indutype":"소매업 - 의류","category":"other"},{"name":"모어 (MORE)","tel":"031-000-0000","addr":"경기도 평택시 비전동 1092-2번지 쏘울스퀘어 1층 102호","indutype":"의류 - 정장","category":"other"},{"name":"블룸무르 꽃집","tel":"031-652-7733","addr":"경기도 평택시 비전동 1092-2번지 쏘울스퀘어 105호","indutype":"소매업 - 꽃집","category":"other"},{"name":"샵(SHOP)153","tel":"031-658-4893","addr":"경기도 평택시 비전동 1092-2번지 쏘울스퀘어 1층 110호","indutype":"의류 - 정장","category":"other"},{"name":"아리따움 평택소사벌점","tel":"031-656-7544","addr":"경기도 평택시 비전동 1092-2번지 103,104호","indutype":"소매업 - 화장품","category":"other"},{"name":"킹전자담배","tel":"","addr":"경기도 평택시 비전동 1092-2번지 쏘울스퀘어 110호","indutype":"기타 - 기타 전문점","category":"other"}]},{"lat":"36.996353018","long":"127.09386445","imageIndex":17,"items":[{"name":"NG25","tel":"031-655-1588","addr":"경기도 평택시 비전동 606-8번지 1층","indutype":"서적문구 - 출판 및 인쇄물","category":"other"}]},{"lat":"36.996212816","long":"127.08852825","imageIndex":17,"items":[{"name":"PC-CLEANER","tel":"031-657-9933","addr":"경기도 평택시 비전동 630-10번지","indutype":"사무통신 - 컴퓨터","category":"other"}]},{"lat":"36.995022601","long":"127.1115333","imageIndex":17,"items":[{"name":"Queen,s(퀸즈)","tel":"031-618-8977","addr":"경기도 평택시 비전동 832-7번지","indutype":"의류 - 정장","category":"other"},{"name":"gallery R","tel":"031-651-8275","addr":"경기도 평택시 비전동 832-7번지","indutype":"소매업 - 의류, 잡화","category":"other"},{"name":"멜모즈(melmods)","tel":"031-691-0801","addr":"경기도 평택시 비전동 832-7번지","indutype":"의류 - 정장","category":"other"},{"name":"인앤인","tel":"031-656-1601","addr":"경기도 평택시 비전동 832-7번지","indutype":"의류 - 정장","category":"other"}]},{"lat":"36.991270479","long":"127.10552953","imageIndex":17,"items":[{"name":"SS컴퓨터","tel":"031-656-0846","addr":"경기도 평택시 비전동 764-17번지 1층","indutype":"사무통신 - 컴퓨터","category":"other"},{"name":"중앙지물상사","tel":"031-655-8502","addr":"경기도 평택시 비전동 764-17번지","indutype":"직물 - 카페트,커튼,천막,지물","category":"other"},{"name":"천사날개","tel":"031-657-6151","addr":"경기도 평택시 비전동 764-17번지","indutype":"문화.취미 - 문화취미기타","category":"other"}]},{"lat":"36.997607395","long":"127.11291876","imageIndex":17,"items":[{"name":"TIME컴퓨터","tel":"031-658-8283","addr":"경기도 평택시 비전동 866-11번지 10호","indutype":"회원제형태 - 기타3","category":"other"},{"name":"믿음동물병원","tel":"031-656-0553","addr":"경기도 평택시 비전동 866-11번지","indutype":"서비스업 - 수의","category":"other"},{"name":"태봉","tel":"070-4307-4663","addr":"경기도 평택시 비전동 866-11번지 1층","indutype":"주방용구 - 주방용구","category":"other"}]},{"lat":"36.996406749","long":"127.10533422","imageIndex":17,"items":[{"name":"Tonic Piano","tel":"031-652-6787","addr":"경기도 평택시 비전동 277-22 7/5","indutype":"수리서비스 - 기타수리서비스","category":"other"}]},{"lat":"36.997463369","long":"127.09116963","imageIndex":17,"items":[{"name":"Win 디자인","tel":"031-658-7733","addr":"경기도 평택시 비전동 576-4번지","indutype":"용역 서비스 - 종합용역","category":"other"},{"name":"평택이산국악사","tel":"070-8774-8979","addr":"경기도 평택시 비전동 576-4번지","indutype":"레져용품 - 악기점","category":"other"}]},{"lat":"37.000887002","long":"127.11322681","imageIndex":17,"items":[{"name":"XO(엑소)당구클럽","tel":"031-656-4212","addr":"경기도 평택시 비전동 1092-1번지 4층 401,402호","indutype":"서비스업 - 당구장","category":"other"},{"name":"소사벌 락볼링장 편의점","tel":"031-656-3877","addr":"경기도 평택시 비전동 1092-1번지 아토시티 304호","indutype":"유통업 영리 - 편 의 점","category":"other"}]},{"lat":"36.993939785","long":"127.11319431","imageIndex":17,"items":[{"name":"enterkok(엔터콕)","tel":"070-8822-4545","addr":"경기도 평택시 비전동 844번지 BYC빌딩 2층 205호","indutype":"사무통신 - 사무용 OA기기","category":"other"},{"name":"세무법인 세방 평택지점","tel":"031-655-7906","addr":"경기도 평택시 비전동 844번지 4층","indutype":"용역 서비스 - 법률회계서비스(법인)","category":"other"},{"name":"우리네꽃화원","tel":"031-656-6461","addr":"경기도 평택시 비전동 844번지 1층","indutype":"문화.취미 - 화원","category":"other"},{"name":"우리네꽃화원","tel":"031-657-4205","addr":"경기도 평택시 비전동 844번지","indutype":"소매업 - 화훼","category":"other"},{"name":"주식회사 엔터콕","tel":"031-4214-2646","addr":"경기도 평택시 비전동 844번지 205호","indutype":"사무통신 - 컴퓨터","category":"other"},{"name":"코리아북마트","tel":"031-655-2234","addr":"경기도 평택시 비전동 844번지","indutype":"서적문구 - 일반서적","category":"other"}]},{"lat":"36.992491848","long":"127.09966743","imageIndex":17,"items":[{"name":"㈜가고파관광","tel":"031-658-8208","addr":"경기도 평택시 비전동 759-17번지 1층","indutype":"서비스업 - 전세버스","category":"other"},{"name":"동진타일","tel":"031-656-8868","addr":"경기도 평택시 비전동 759-17번지","indutype":"건축자재 - 건축용 요업제품","category":"other"}]},{"lat":"37.001303643","long":"127.11089064","imageIndex":17,"items":[{"name":"㈜가나엔지니어링","tel":"","addr":"경기도 평택시 비전동 1068번지","indutype":"서비스업 - 엔지니어링","category":"other"},{"name":"명당공인중개사사무소","tel":"031-618-0013","addr":"경기도 평택시 비전동 1068번지 가나빌딩 102호","indutype":"서비스업 - 부동산","category":"other"}]},{"lat":"36.99768594","long":"127.1156375","imageIndex":17,"items":[{"name":"㈜뉴스포츠센터","tel":"031-656-2226","addr":"경기도 평택시 비전동 874번지 시대한우리아파트 하이웨이마트","indutype":"서비스업 - 헬스","category":"other"}]},{"lat":"36.99479867","long":"127.08778525","imageIndex":17,"items":[{"name":"㈜다현정보통신","tel":"031-691-9296","addr":"경기도 평택시 비전동 633-18번지","indutype":"소매업 - 전산소모품, 프린터","category":"other"},{"name":"평택복사프린트","tel":"031-654-2466","addr":"경기도 평택시 비전동 633-18번지","indutype":"사무통신 - 기타 사무용품","category":"other"}]},{"lat":"37.005934964","long":"127.10069563","imageIndex":17,"items":[{"name":"㈜미래지반기술","tel":"031-658-2141","addr":"경기도 평택시 비전동 985번지 101호","indutype":"서비스업 - 지질조사, 지하수개발시공","category":"other"}]},{"lat":"36.994913397","long":"127.11270144","imageIndex":17,"items":[{"name":"㈜아이엠토탈레저","tel":"","addr":"경기도 평택시 비전동 830-2번지 패밀리타운 9,10층","indutype":"서비스업 - 골프연습장","category":"other"},{"name":"베스트통신","tel":"031-655-1501","addr":"경기도 평택시 비전동 830-2번지","indutype":"사무통신 - 통신기기","category":"other"},{"name":"베스트통신","tel":"","addr":"경기도 평택시 비전동 830-2번지 패밀리타운 1층","indutype":"소매업 - 전자기기","category":"other"},{"name":"블루통신","tel":"031-655-1501","addr":"경기도 평택시 비전동 830-2번지 패밀리타운 1층","indutype":"소매업 - 전자기기","category":"other"},{"name":"블루통신","tel":"031-657-2770","addr":"경기도 평택시 비전동 830-2번지 한세전자 1층","indutype":"사무통신 - 통신기기","category":"other"},{"name":"블루한마음","tel":"031-658-1400","addr":"경기도 평택시 비전동 830-2번지 훼미리타운 1층","indutype":"사무통신 - 통신기기","category":"other"},{"name":"블루한마음","tel":"","addr":"경기도 평택시 비전동 830-2번지 패밀리타운 1층","indutype":"소매업 - 전자기기","category":"other"},{"name":"비트통신","tel":"031-652-8277","addr":"경기도 평택시 비전동 830-2번지","indutype":"소매업 - 전자기기","category":"other"},{"name":"비트통신","tel":"031-653-5016","addr":"경기도 평택시 비전동 830-2번지 한세전자주식회사평택지점 1층","indutype":"사무통신 - 통신기기","category":"other"},{"name":"싸이버통신","tel":"","addr":"경기도 평택시 비전동 830-2번지 패밀리타운 1층","indutype":"소매업 - 전자기기","category":"other"},{"name":"싸이버통신","tel":"031-651-9019","addr":"경기도 평택시 비전동 830-2번지 한세전자 1층","indutype":"사무통신 - 통신기기","category":"other"},{"name":"오션차일드","tel":"031-654-8775","addr":"경기도 평택시 비전동 830-2번지 지하1층","indutype":"회원제형태 - 레져업소","category":"other"},{"name":"주식회사 헬스보이짐","tel":"031-662-4416","addr":"경기도 평택시 비전동 830-2번지 9층, 10층","indutype":"서비스업 - 헬스","category":"other"}]},{"lat":"36.993409636","long":"127.11158718","imageIndex":17,"items":[{"name":"㈜평택ENG","tel":"","addr":"경기도 평택시 비전동 835-6번지","indutype":"서비스업 - 설계","category":"other"}]},{"lat":"36.997913738","long":"127.11294167","imageIndex":17,"items":[{"name":"가나간판광고사","tel":"031-653-7990","addr":"경기도 평택시 비전동 866-2번지","indutype":"건축자재 - 인테리어전문","category":"other"}]},{"lat":"36.997329899","long":"127.08886652","imageIndex":17,"items":[{"name":"가나건축사사무소","tel":"031-651-4238","addr":"경기도 평택시 비전동 629-17번지","indutype":"용역 서비스 - 사무서비스","category":"other"},{"name":"레스포자전거비전대","tel":"031-656-8871","addr":"경기도 평택시 비전동 629-17번지","indutype":"레져용품 - 스포츠·레져용품","category":"other"},{"name":"에덴화원","tel":"031-655-3332","addr":"경기도 평택시 비전동 629-17번지","indutype":"문화.취미 - 화원","category":"other"},{"name":"에덴화원","tel":"031-652-8368","addr":"경기도 평택시 비전동 629-17번지","indutype":"소매업 - 생화","category":"other"},{"name":"정보문화사","tel":"031-657-1557","addr":"경기도 평택시 비전동 629-17번지","indutype":"서적문구 - 출판 및 인쇄물","category":"other"},{"name":"터전문화사","tel":"031-657-1557","addr":"경기도 평택시 비전동 629-17번지","indutype":"서적문구 - 출판 및 인쇄물","category":"other"},{"name":"평택종합알뜰매장","tel":"031-653-4154","addr":"경기도 평택시 비전동 629-17번지","indutype":"전기제품 - 가전제품","category":"other"}]},{"lat":"36.999941837","long":"127.11219189","imageIndex":17,"items":[{"name":"가나리아","tel":"02-1111-1111","addr":"경기도 평택시 비전동 1091-5번지 중앙프라자 108호","indutype":"의류 - 정장","category":"other"},{"name":"보임안경원","tel":"","addr":"경기도 평택시 비전동 1091-5번지","indutype":"소매업 - 안경","category":"other"},{"name":"빨간지붕 평택점","tel":"031-657-9556","addr":"경기도 평택시 비전동 1091-5번지 중앙프라자 101호","indutype":"의류 - 정장","category":"other"},{"name":"씨유평택소사벌점","tel":"031-239-6693","addr":"경기도 평택시 비전동 1091-5 중앙프라자 1층105호","indutype":"유통업 영리 - 편 의 점","category":"other"},{"name":"이 끌리지","tel":"031-515-5995","addr":"경기도 평택시 비전동 1091-5번지 중앙프라자 1층 106호","indutype":"회원제형태 - 기타4","category":"other"}]},{"lat":"36.998137075","long":"127.09394522","imageIndex":17,"items":[{"name":"가나목재","tel":"031-652-7133","addr":"경기도 평택시 비전동 599-1번지","indutype":"가구 - 일반가구","category":"other"},{"name":"세종인테리어","tel":"031-618-8202","addr":"경기도 평택시 비전동 599-1번지 1층 중간호","indutype":"건축자재 - 인테리어전문","category":"other"},{"name":"평택원예농자재","tel":"031-654-3411","addr":"경기도 평택시 비전동 599-1번지","indutype":"농업 - 비료,사료,종자","category":"other"}]},{"lat":"36.99471258","long":"127.09450281","imageIndex":17,"items":[{"name":"가나유리","tel":"031-618-6554","addr":"경기도 평택시 비전동 613-5번지","indutype":"건축자재 - 유리","category":"other"},{"name":"샤누아 빈티지 구제샵","tel":"031-618-8019","addr":"경기도 평택시 비전동 613-5번지 1층","indutype":"의류 - 기타의류","category":"other"}]},{"lat":"36.996969596","long":"127.1107834","imageIndex":17,"items":[{"name":"가나유통","tel":"031-658-0047","addr":"경기도 평택시 비전동 828-2번지 현대이화아파트","indutype":"주방용구 - 주방용구","category":"other"}]},{"lat":"36.999300473","long":"127.11392104","imageIndex":17,"items":[{"name":"가로수길","tel":"031-528-4690","addr":"경기도 평택시 비전동 1106번지 골든타워 120호","indutype":"의류 - 정장","category":"other"},{"name":"소사벌통신","tel":"031-652-6117","addr":"경기도 평택시 비전동 1106번지 골든타워 1층 101호","indutype":"사무통신 - 통신기기","category":"other"},{"name":"위드미 평택이마트점","tel":"02-6916-1500","addr":"경기도 평택시 비전동 1106번지 골든타워 121호","indutype":"유통업 영리 - 편 의 점","category":"other"}]},{"lat":"36.993049208","long":"127.11158666","imageIndex":17,"items":[{"name":"가로쓰기문구","tel":"031-654-0703","addr":"경기도 평택시 비전동 838-1번지","indutype":"소매업 - 문구","category":"other"},{"name":"경기문공사","tel":"031-618-4509","addr":"경기도 평택시 비전동 838-1번지","indutype":"소매업 - 문구","category":"other"},{"name":"마리앙쥬","tel":"031-658-3878","addr":"경기도 평택시 비전동 838-1번지 1층","indutype":"의류 - 정장","category":"other"},{"name":"마리앙쥬","tel":"031-618-4509","addr":"경기도 평택시 비전동 838-1번지","indutype":"소매업 - 의류","category":"other"},{"name":"인디자인","tel":"031-666-0001","addr":"경기도 평택시 비전동 838-1번지 4층","indutype":"용역 서비스 - 사무서비스","category":"other"},{"name":"태훈상회","tel":"031-651-7717","addr":"경기도 평택시 비전동 838-1번지 1층","indutype":"소매업 - 생활용품, 잡화","category":"other"},{"name":"태훈상회","tel":"031-658-3878","addr":"경기도 평택시 비전동 838-1번지","indutype":"신변잡화 - 기타잡화","category":"other"}]},{"lat":"36.992661779","long":"127.11155241","imageIndex":17,"items":[{"name":"가로쓰기문구","tel":"031-618-4509","addr":"경기도 평택시 비전동 838-6번지","indutype":"서적문구 - 문구용품","category":"other"},{"name":"건축사무소좋은집","tel":"031-652-6618","addr":"경기도 평택시 비전동 838-6번지","indutype":"용역 서비스 - 사무서비스","category":"other"},{"name":"사진174baby","tel":"031-658-0174","addr":"경기도 평택시 비전동 838-6번지 지하1층","indutype":"광학제품 - 사진관","category":"other"},{"name":"성문사","tel":"031-618-1382","addr":"경기도 평택시 비전동 838-6번지","indutype":"용역 서비스 - 종합용역","category":"other"},{"name":"성문사","tel":"070-4109-4148","addr":"경기도 평택시 비전동 838-6번지","indutype":"서비스업 - 광고","category":"other"}]},{"lat":"36.999103584","long":"127.11247155","imageIndex":17,"items":[{"name":"간지나라","tel":"031-630-2877","addr":"경기도 평택시 비전동 1104번지 1199호","indutype":"신변잡화 - 가방","category":"other"},{"name":"노닥노닥","tel":"02-1577-0000","addr":"경기도 평택시 비전동 1104번지 2층 2097호","indutype":"신변잡화 - 액세서리","category":"other"},{"name":"로즈골드","tel":"","addr":"경기도 평택시 비전동 1104번지 평택가로수길센트럴돔캐슬 1210호","indutype":"신변잡화 - 귀금속","category":"other"},{"name":"빨간고양이","tel":"","addr":"경기도 평택시 비전동 1104번지 2층 2077호","indutype":"신변잡화 - 신발","category":"other"},{"name":"아이디어 평택점","tel":"","addr":"경기도 평택시 비전동 1104번지 1층 1122~1123호","indutype":"소매업 - 안경","category":"other"},{"name":"안경매니저 센트럴돔점","tel":"031-686-6441","addr":"경기도 평택시 비전동 1104번지 1층 1141호","indutype":"소매업 - 안경","category":"other"},{"name":"평택어린이전문서점","tel":"031-630-2699","addr":"경기도 평택시 비전동 1104번지 2층 2019호","indutype":"서적문구 - 일반서적","category":"other"},{"name":"플스빌 평택 비전점","tel":"031-111-1111","addr":"경기도 평택시 비전동 1104번지","indutype":"서적문구 - 완구점","category":"other"},{"name":"한결 공인중개사 사무소","tel":"031-630-2888","addr":"경기도 평택시 비전동 1104번지 1176호","indutype":"용역 서비스 - 부동산 중개·임대","category":"other"}]},{"lat":"36.991415434","long":"127.10461984","imageIndex":17,"items":[{"name":"간판공사새샘광고","tel":"031-654-6543","addr":"경기도 평택시 비전동 763-29번지","indutype":"용역 서비스 - 종합용역","category":"other"}]},{"lat":"37.002076119","long":"127.09214114","imageIndex":17,"items":[{"name":"갑부장식","tel":"031-653-4431","addr":"경기도 평택시 비전동 783-3번지","indutype":"직물 - 카페트,커튼,천막,지물","category":"other"}]},{"lat":"36.997660192","long":"127.11427815","imageIndex":17,"items":[{"name":"강아지를부탁해","tel":"031-656-4353","addr":"경기도 평택시 비전동 869-4번지 102호","indutype":"문화.취미 - 애완동물","category":"other"},{"name":"제이에스(JS)코리아","tel":"031-656-0904","addr":"경기도 평택시 비전동 869-4번지","indutype":"기타 - 기계공구","category":"other"}]},{"lat":"37.007799923","long":"127.10100138","imageIndex":17,"items":[{"name":"강인규법무사사무소","tel":"031-655-1526","addr":"경기도 평택시 비전동 365-2,101","indutype":"용역 서비스 - 법률회계서비스(개인)","category":"other"}]},{"lat":"36.995329946","long":"127.08828012","imageIndex":17,"items":[{"name":"개미인쇄사","tel":"031-655-4181","addr":"경기도 평택시 비전동 633-30번지","indutype":"서적문구 - 출판 및 인쇄물","category":"other"}]},{"lat":"36.991854992","long":"127.10688952","imageIndex":17,"items":[{"name":"거하플라워","tel":"031-691-7372","addr":"경기도 평택시 비전동 190-1번지 영진빌딩 1층 101호","indutype":"문화.취미 - 화원","category":"other"}]},{"lat":"36.992880562","long":"127.09811773","imageIndex":17,"items":[{"name":"건강나라","tel":"031-655-7714","addr":"경기도 평택시 비전동 747-5번지","indutype":"회원제형태 - 기타4","category":"other"},{"name":"평택공조","tel":"031-657-7557","addr":"경기도 평택시 비전동 747-5번지","indutype":"전기제품 - 냉열기기","category":"other"}]},{"lat":"36.991714529","long":"127.11277547","imageIndex":17,"items":[{"name":"건강한 부모 협동조합 온","tel":"070-0000-0000","addr":"경기도 평택시 비전동 846번지 구의회건물 2층","indutype":"문화.취미 - 화원","category":"other"},{"name":"고덕면사무소","tel":"031-659-4027","addr":"경기도 평택시 비전동 846번지 평택시청 세정과","indutype":"용역 서비스 - 사무서비스","category":"other"},{"name":"비전1동 주민센터","tel":"031-659-4027","addr":"경기도 평택시 비전동 846번지 평택시청 세정과","indutype":"용역 서비스 - 사무서비스","category":"other"},{"name":"비전2동주민센터","tel":"031-659-4027","addr":"경기도 평택시 비전동 846번지 평택시청 세정과","indutype":"용역 서비스 - 사무서비스","category":"other"},{"name":"서정동행정복지센터","tel":"031-8024-6950","addr":"경기도 평택시 비전동 846번지 평택시청 세정과","indutype":"용역 서비스 - 사무서비스","category":"other"},{"name":"서탄면사무소","tel":"031-659-4027","addr":"경기도 평택시 비전동 846번지 평택시청세정과","indutype":"용역 서비스 - 사무서비스","category":"other"},{"name":"세교동주민센터","tel":"031-8024-5848","addr":"경기도 평택시 비전동 846번지 평택시청 세정과","indutype":"용역 서비스 - 사무서비스","category":"other"},{"name":"송북동주민센터","tel":"031-659-4027","addr":"경기도 평택시 비전동 846번지 평택시청세정과","indutype":"용역 서비스 - 사무서비스","category":"other"},{"name":"송탄동사무소","tel":"031-659-4027","addr":"경기도 평택시 비전동 846번지 평택시청세정과","indutype":"용역 서비스 - 사무서비스","category":"other"},{"name":"신장1동주민센터","tel":"031-659-4027","addr":"경기도 평택시 비전동 846번지 평택시청 세정과","indutype":"용역 서비스 - 사무서비스","category":"other"},{"name":"신장2동주민센터","tel":"031-659-4027","addr":"경기도 평택시 비전동 846번지 평택시청 세정과","indutype":"용역 서비스 - 사무서비스","category":"other"},{"name":"신평동주민센터","tel":"031-659-4027","addr":"경기도 평택시 비전동 846번지 평택시청 세정과","indutype":"용역 서비스 - 사무서비스","category":"other"},{"name":"안중읍사무소","tel":"031-8024-8535","addr":"경기도 평택시 비전동 846번지 평택시청 세정과","indutype":"용역 서비스 - 사무서비스","category":"other"},{"name":"오성면사무소","tel":"031-659-4027","addr":"경기도 평택시 비전동 846번지 평택시청 세정과","indutype":"용역 서비스 - 사무서비스","category":"other"},{"name":"원평동주민센터","tel":"031-659-4027","addr":"경기도 평택시 비전동 846번지 평택시청 세정과","indutype":"용역 서비스 - 사무서비스","category":"other"},{"name":"중앙동주민센터","tel":"031-8024-2341","addr":"경기도 평택시 비전동 846번지 평택시청 세정과","indutype":"용역 서비스 - 사무서비스","category":"other"},{"name":"지산동사무소","tel":"031-659-4027","addr":"경기도 평택시 비전동 846번지 평택시청 세정과","indutype":"용역 서비스 - 사무서비스","category":"other"},{"name":"진위면사무소","tel":"031-659-4027","addr":"경기도 평택시 비전동 846번지 평택시청 세정과","indutype":"용역 서비스 - 사무서비스","category":"other"},{"name":"청북면사무소","tel":"031-659-4027","addr":"경기도 평택시 비전동 846번지 평택시청 세정과","indutype":"용역 서비스 - 사무서비스","category":"other"},{"name":"통복동주민센터","tel":"031-659-4027","addr":"경기도 평택시 비전동 846번지 평택시청 세정과","indutype":"용역 서비스 - 사무서비스","category":"other"},{"name":"팽성읍사무소","tel":"031-659-4027","addr":"경기도 평택시 비전동 846번지 평택시청 세정과","indutype":"용역 서비스 - 사무서비스","category":"other"},{"name":"평택시안중출장소","tel":"031-8024-8113","addr":"경기도 평택시 비전동 846번지 평택시청 세정과","indutype":"용역 서비스 - 사무서비스","category":"other"},{"name":"평택시청","tel":"031-659-4027","addr":"경기도 평택시 비전동 846번지 평택시청 세정과","indutype":"용역 서비스 - 사무서비스","category":"other"},{"name":"평택시청","tel":"031-659-4027","addr":"경기도 평택시 비전동 846번지 평택시청 세정과","indutype":"용역 서비스 - 사무서비스","category":"other"},{"name":"평택시청","tel":"031-659-4027","addr":"경기도 평택시 비전동 846번지 평택시청 세정과","indutype":"용역 서비스 - 사무서비스","category":"other"},{"name":"평택시청/평택시립추모공원","tel":"031-8024-3122","addr":"경기도 평택시 비전동 846번지 평택시청 노인장애인과","indutype":"용역 서비스 - 가례서비스업","category":"other"},{"name":"행운매점","tel":"031-654-5672","addr":"경기도 평택시 비전동 846번지 평택시청 2층 본관","indutype":"유통업 비영리 - 구내매점(국가기관","category":"other"},{"name":"행운매점","tel":"031-658-6208","addr":"경기도 평택시 비전동 846번지 2층","indutype":"소매업 - 구내매점","category":"other"},{"name":"현덕면사무소","tel":"031-659-4027","addr":"경기도 평택시 비전동 846번지 평택시청 세정과","indutype":"용역 서비스 - 사무서비스","category":"other"}]},{"lat":"36.99421813","long":"127.11425066","imageIndex":17,"items":[{"name":"건축사사무소세종","tel":"031-691-8115","addr":"경기도 평택시 비전동 878-2번지","indutype":"용역 서비스 - 사무서비스","category":"other"}]},{"lat":"36.992940678","long":"127.11202461","imageIndex":17,"items":[{"name":"건축사사무소창조건축","tel":"031-655-0117","addr":"경기도 평택시 비전동 834-3번지","indutype":"용역 서비스 - 사무서비스","category":"other"},{"name":"대한측량설계공사","tel":"031-654-2828","addr":"경기도 평택시 비전동 834-3번지 전진빌딩","indutype":"용역 서비스 - 법률회계서비스(개인)","category":"other"},{"name":"시청사진관","tel":"070-7798-2135","addr":"경기도 평택시 비전동 834-3번지 전진빌딩 4층 401호","indutype":"광학제품 - 사진관","category":"other"},{"name":"연세기획","tel":"031-655-9369","addr":"경기도 평택시 비전동 834-3 전진빌딩3층 3","indutype":"서적문구 - 출판 및 인쇄물","category":"other"}]},{"lat":"36.994914305","long":"127.08986359","imageIndex":17,"items":[{"name":"걸만사 사진관","tel":"031-653-2903","addr":"경기도 평택시 비전동 620-11번지","indutype":"광학제품 - 사진관","category":"other"}]},{"lat":"36.994275042","long":"127.11117277","imageIndex":17,"items":[{"name":"걸음마어린이집","tel":"031-652-9912","addr":"경기도 평택시 비전동 931번지 경남아너스 105동 103호","indutype":"서비스업 - 교육","category":"other"}]},{"lat":"36.995492116","long":"127.10003071","imageIndex":17,"items":[{"name":"경기무선통신","tel":"031-658-5800","addr":"경기도 평택시 비전동 258-20번지","indutype":"사무통신 - 통신기기","category":"other"},{"name":"성진건설","tel":"031-657-3492","addr":"경기도 평택시 비전동 258-20번지","indutype":"용역 서비스 - 기타용역서비스","category":"other"}]},{"lat":"36.99294108","long":"127.11158651","imageIndex":17,"items":[{"name":"경기문공사","tel":"031-618-4509","addr":"경기도 평택시 비전동 838-3번지","indutype":"용역 서비스 - 사무서비스","category":"other"},{"name":"대성미디어","tel":"031-655-5921","addr":"경기도 평택시 비전동 838-3번지 202호","indutype":"전기제품 - 가전제품","category":"other"}]},{"lat":"37.000191813","long":"127.09355446","imageIndex":17,"items":[{"name":"경기오성유리점","tel":"031-655-2588","addr":"경기도 평택시 비전동 789-8번지","indutype":"건축자재 - 유리","category":"other"}]},{"lat":"36.992462729","long":"127.10219486","imageIndex":17,"items":[{"name":"경기위드맘케어","tel":"031-618-5567","addr":"경기도 평택시 비전동 236-22번지 동아목련아파트 203호","indutype":"서비스업 - 산후도우미","category":"other"},{"name":"단아","tel":"031-652-7141","addr":"경기도 평택시 비전동 236-22번지 동아목련아파트 상가 207호","indutype":"소매업 - 화장품","category":"other"},{"name":"비전텔레콤","tel":"031-618-2010","addr":"경기도 평택시 비전동 236-22번지 동아목련 상가 103호","indutype":"사무통신 - 통신기기","category":"other"},{"name":"새론인테리어","tel":"031-651-7283","addr":"경기도 평택시 비전동 236-22번지 동아목련아파트 107호","indutype":"주방용구 - 주방용구","category":"other"},{"name":"팽성베이징중국어학원","tel":"031-653-9393","addr":"경기도 평택시 비전동 236-22번지 동아목련 상가 202호","indutype":"서비스업 - 교육","category":"other"}]},{"lat":"36.996109086","long":"127.1056933","imageIndex":17,"items":[{"name":"경동나비엔평택대리점","tel":"031-618-6150","addr":"경기도 평택시 비전동 823번지","indutype":"서비스업 - 보일러","category":"other"},{"name":"크린토피아 평택덕동점","tel":"031-657-1681","addr":"경기도 평택시 비전동 823번지","indutype":"서비스업 - 세탁","category":"other"}]},{"lat":"36.996629828","long":"127.10783966","imageIndex":17,"items":[{"name":"경일떡집","tel":"031-651-4415","addr":"경기도 평택시 비전동 825-6번지","indutype":"제조업 - 떡","category":"other"}]},{"lat":"36.992908043","long":"127.0975561","imageIndex":17,"items":[{"name":"경희통신","tel":"031-654-1921","addr":"경기도 평택시 비전동 746-11번지","indutype":"사무통신 - 통신기기","category":"other"},{"name":"대교타일","tel":"031-656-1315","addr":"경기도 평택시 비전동 746-11번지 앞동 1층","indutype":"건축자재 - 기타건축자재","category":"other"},{"name":"쎈텐 학생복","tel":"031-655-9004","addr":"경기도 평택시 비전동 746-11번지 1층","indutype":"의류 - 정장","category":"other"},{"name":"쎈텐학생복","tel":"031-654-6742","addr":"경기도 평택시 비전동 746-11번지","indutype":"도소매업 - 교복","category":"other"}]},{"lat":"37.008767817","long":"127.10717097","imageIndex":17,"items":[{"name":"고기장인 백정","tel":"031-616-4470","addr":"경기도 평택시 비전동 59-8번지 113~116호","indutype":"도소매업 - 정육","category":"other"}]},{"lat":"37.007021748","long":"127.10486534","imageIndex":17,"items":[{"name":"고드룸GODE-ROOM","tel":"","addr":"경기도 평택시 비전동 968번지 엘에이치이곡마을6단지 601동 701호","indutype":"의류 - 정장","category":"other"},{"name":"대명수도설비.하수구","tel":"031-000-0000","addr":"경기도 평택시 비전동 968번지 엘에이치이곡마을6단지 601동 504호","indutype":"용역 서비스 - 기타용역서비스","category":"other"},{"name":"드리밍매직","tel":"070-8804-4105","addr":"경기도 평택시 비전동 968번지 이곡마을6단지 608동 1003호","indutype":"문화.취미 - 티켓","category":"other"},{"name":"크린에이드 이곡점","tel":"031-656-4545","addr":"경기도 평택시 비전동 968번지 엘에이치이곡마을6단지 상가동 102호","indutype":"수리서비스 - 세탁소","category":"other"},{"name":"퓨처코퍼레이션","tel":"031-671-3218","addr":"경기도 평택시 비전동 968번지 엘에이치이곡마을6단지 603동 2004호","indutype":"서적문구 - 과학기자재","category":"other"},{"name":"피마켓","tel":"","addr":"경기도 평택시 비전동 968번지 엘에이치이곡마을6단지 1층 105호","indutype":"사무통신 - 통신기기","category":"other"}]},{"lat":"36.99322074","long":"127.11122744","imageIndex":17,"items":[{"name":"고려건축사사무소","tel":"031-654-2021","addr":"경기도 평택시 비전동 835-11번지","indutype":"용역 서비스 - 법률회계서비스(개인)","category":"other"}]},{"lat":"37.000545904","long":"127.11181079","imageIndex":17,"items":[{"name":"골드마트(평택점)","tel":"031-652-1666","addr":"경기도 평택시 비전동 1090-3번지 메가타워 1층 104호","indutype":"신변잡화 - 귀금속","category":"other"},{"name":"글라스스토리(소사벌점)","tel":"","addr":"경기도 평택시 비전동 1090-3번지 메가타워 1층 105호","indutype":"도소매업 - 안경","category":"other"}]},{"lat":"36.995824253","long":"127.11186022","imageIndex":17,"items":[{"name":"골드뱅크","tel":"031-651-0329","addr":"경기도 평택시 비전동 829-4번지","indutype":"소매업 - 귀금속","category":"other"},{"name":"골드뱅크","tel":"031-657-1235","addr":"경기도 평택시 비전동 829-4번지","indutype":"신변잡화 - 시계","category":"other"},{"name":"송월타월","tel":"031-658-2300","addr":"경기도 평택시 비전동 829-4번지","indutype":"소매업 - 타월","category":"other"},{"name":"송월타월(대영)","tel":"031-657-8668","addr":"경기도 평택시 비전동 829-4번지","indutype":"직물 - 옷감·직물","category":"other"},{"name":"일공공일안경","tel":"031-657-8464","addr":"경기도 평택시 비전동 829-4번지","indutype":"소매업 - 안경","category":"other"}]},{"lat":"37.001489921","long":"127.11408151","imageIndex":17,"items":[{"name":"골프존아카데미","tel":"","addr":"경기도 평택시 비전동 1098번지 스타타워 5층","indutype":"서비스업 - 골프연습장","category":"other"},{"name":"골프존키즈아카데미","tel":"031-651-9679","addr":"경기도 평택시 비전동 1098번지 스타타워 501호","indutype":"서비스업 - 골프연습장","category":"other"}]},{"lat":"36.991243253","long":"127.10575415","imageIndex":17,"items":[{"name":"공간공인중개사사무소","tel":"031-655-7798","addr":"경기도 평택시 비전동 764-21번지","indutype":"용역 서비스 - 부동산 중개·임대","category":"other"},{"name":"청인테리어","tel":"031-656-2562","addr":"경기도 평택시 비전동 764-21번지","indutype":"건축자재 - 인테리어전문","category":"other"}]},{"lat":"36.995518905","long":"127.11074765","imageIndex":17,"items":[{"name":"공간인테리어","tel":"031-652-2413","addr":"경기도 평택시 비전동 829-10번지 1층","indutype":"건축자재 - 인테리어전문","category":"other"},{"name":"블럭맘","tel":"031-656-4796","addr":"경기도 평택시 비전동 829-10번지 3층 301호","indutype":"소매업 - 완구판매 및 대여","category":"other"},{"name":"블럭맘","tel":"031-658-4811","addr":"경기도 평택시 비전동 829-10번지 3층 301호","indutype":"서적문구 - 완구점","category":"other"},{"name":"한우영토","tel":"031-653-9233","addr":"경기도 평택시 비전동 829-10번지","indutype":"소매업 - 정육","category":"other"}]},{"lat":"36.996411189","long":"127.0883375","imageIndex":17,"items":[{"name":"공감행정사사무소","tel":"031-657-0020","addr":"경기도 평택시 비전동 630-2번지 1층","indutype":"용역 서비스 - 법률회계서비스(개인)","category":"other"}]},{"lat":"36.995939704","long":"127.09231371","imageIndex":17,"items":[{"name":"공성건설조경중기","tel":"","addr":"경기도 평택시 비전동 609-3번지","indutype":"기타 - 기계공구","category":"other"},{"name":"늘푸른","tel":"031-652-8027","addr":"경기도 평택시 비전동 609-3번지","indutype":"기타 - 기계공구","category":"other"},{"name":"드림건설중기","tel":"031-611-8188","addr":"경기도 평택시 비전동 609-3번지","indutype":"기타 - 기계공구","category":"other"},{"name":"드림지게차","tel":"031-681-0482","addr":"경기도 평택시 비전동 609-3번지","indutype":"기타 - 기계공구","category":"other"},{"name":"서부지게차","tel":"031-657-7731","addr":"경기도 평택시 비전동 609-3번지","indutype":"기타 - 기계공구","category":"other"},{"name":"의경중기","tel":"031-652-8027","addr":"경기도 평택시 비전동 609-3번지","indutype":"기타 - 기계공구","category":"other"},{"name":"의경중기","tel":"031-652-8027","addr":"경기도 평택시 비전동 609-3번지","indutype":"기타 - 기계공구","category":"other"},{"name":"의경중기","tel":"","addr":"경기도 평택시 비전동 609-3번지 2층","indutype":"기타 - 기계공구","category":"other"},{"name":"의경중기","tel":"031-675-9661","addr":"경기도 평택시 비전동 609-3번지","indutype":"기타 - 기계공구","category":"other"}]},{"lat":"36.991467679","long":"127.1067205","imageIndex":17,"items":[{"name":"공인회계사권용무사무소","tel":"031-618-2291","addr":"경기도 평택시 비전동 766-3번지","indutype":"용역 서비스 - 법률회계서비스(개인)","category":"other"}]},{"lat":"36.995964739","long":"127.10589531","imageIndex":17,"items":[{"name":"광진종합에어컨","tel":"031-618-5686","addr":"경기도 평택시 비전동 823-16번지 1층","indutype":"전기제품 - 냉열기기","category":"other"}]},{"lat":"37.00007388","long":"127.09458788","imageIndex":17,"items":[{"name":"국제앵글","tel":"031-655-8224","addr":"경기도 평택시 비전동 793-6번지","indutype":"소매업 - 앵글, 선반","category":"other"},{"name":"국제앵글","tel":"031-651-0552","addr":"경기도 평택시 비전동 793-6번지","indutype":"건축자재 - 기타건축자재","category":"other"}]},{"lat":"36.993131266","long":"127.11053085","imageIndex":17,"items":[{"name":"국토측량설계공사","tel":"","addr":"경기도 평택시 비전동 836번지 1층","indutype":"서비스업 - 설계","category":"other"},{"name":"사랑채디자인","tel":"031-651-9421","addr":"경기도 평택시 비전동 836번지","indutype":"건축자재 - 인테리어전문","category":"other"},{"name":"스마일","tel":"070-4250-9540","addr":"경기도 평택시 비전동 836번지","indutype":"의류 - 정장","category":"other"}]},{"lat":"36.991716933","long":"127.11969507","imageIndex":17,"items":[{"name":"굿모닝의료기","tel":"","addr":"경기도 평택시 비전동 889번지 벽산아파트 상가 105호","indutype":"소매업 - 의료기기","category":"other"},{"name":"푸는세탁소","tel":"031-692-2141","addr":"경기도 평택시 비전동 889번지 벽산상가 207호","indutype":"서비스업 - 세탁","category":"other"},{"name":"푸른세탁소","tel":"031-651-1060","addr":"경기도 평택시 비전동 889번지 벽산 상가 207호","indutype":"수리서비스 - 세탁소","category":"other"}]},{"lat":"36.99335831","long":"127.1085541","imageIndex":17,"items":[{"name":"궁중떡방앗간","tel":"","addr":"경기도 평택시 비전동 207-6번지 1층","indutype":"제조업 - 떡, 들기름","category":"other"}]},{"lat":"36.995991794","long":"127.09489753","imageIndex":17,"items":[{"name":"그냥저냥","tel":"031-618-5001","addr":"경기도 평택시 비전동 602-7번지 1층 1호 우측","indutype":"사무통신 - 통신기기","category":"other"},{"name":"평택컴퓨터프라자","tel":"031-658-3060","addr":"경기도 평택시 비전동 602-7번지","indutype":"사무통신 - 컴퓨터","category":"other"}]},{"lat":"36.99721956","long":"127.09186585","imageIndex":17,"items":[{"name":"그릇일기","tel":"","addr":"경기도 평택시 비전동 625-14번지 1층 102호","indutype":"주방용구 - 주방용식기","category":"other"}]},{"lat":"36.994712389","long":"127.09474995","imageIndex":17,"items":[{"name":"그리고","tel":"031-654-4686","addr":"경기도 평택시 비전동 729-2번지 2호","indutype":"소매업 - 의류","category":"other"},{"name":"그리고(GREEGO)","tel":"070-4383-5369","addr":"경기도 평택시 비전동 729-2번지 2호","indutype":"의류 - 정장","category":"other"}]},{"lat":"36.992826447","long":"127.11847234","imageIndex":17,"items":[{"name":"그린팬시문구","tel":"031-658-0889","addr":"경기도 평택시 비전동 882-5번지","indutype":"서적문구 - 문구용품","category":"other"},{"name":"그린팬시문구점","tel":"031-655-0040","addr":"경기도 평택시 비전동 882-5번지","indutype":"소매업 - 문구","category":"other"}]},{"lat":"37.004995458","long":"127.10355937","imageIndex":17,"items":[{"name":"글라스바바안경 평택소사벌점","tel":"031-8029-9784","addr":"경기도 평택시 비전동 996번지 SK타워 101호","indutype":"소매업 - 안경","category":"other"},{"name":"밸런스브레인평택센터","tel":"031-651-9930","addr":"경기도 평택시 비전동 996번지 SK타워 4층 402호","indutype":"서비스업 - 심리상담 등","category":"other"}]},{"lat":"36.998324963","long":"127.10656131","imageIndex":17,"items":[{"name":"글로리썬업","tel":"031-658-5715","addr":"경기도 평택시 비전동 813-1번지 태산그린상가 지하3층","indutype":"의류 - 아동의류","category":"other"}]},{"lat":"37.000244262","long":"127.09564412","imageIndex":17,"items":[{"name":"글로벌마케팅","tel":"031-683-6566","addr":"경기도 평택시 비전동 484-6번지","indutype":"서비스업 - 광고","category":"other"},{"name":"다가온애견","tel":"031-501-7576","addr":"경기도 평택시 비전동 484-6번지 484-10,101호","indutype":"문화.취미 - 애완동물","category":"other"}]},{"lat":"36.994942921","long":"127.08767307","imageIndex":17,"items":[{"name":"금당","tel":"031-656-3178","addr":"경기도 평택시 비전동 633-17번지 외1필지","indutype":"신변잡화 - 귀금속","category":"other"},{"name":"위드미 평택중앙점","tel":"02-6916-1500","addr":"경기도 평택시 비전동 633-17번지 1층","indutype":"유통업 영리 - 편 의 점","category":"other"},{"name":"평택인쇄사","tel":"031-656-0659","addr":"경기도 평택시 비전동 633-17번지","indutype":"서적문구 - 출판 및 인쇄물","category":"other"}]},{"lat":"37.002718798","long":"127.11036461","imageIndex":17,"items":[{"name":"금빵마녀","tel":"","addr":"경기도 평택시 비전동 1043-7번지 1층","indutype":"신변잡화 - 액세서리","category":"other"},{"name":"룩킹투데이","tel":"","addr":"경기도 평택시 비전동 1043-7번지 4층","indutype":"의류 - 정장","category":"other"}]},{"lat":"36.991387977","long":"127.10511406","imageIndex":17,"items":[{"name":"금영유리","tel":"031-654-6204","addr":"경기도 평택시 비전동 764-1번지","indutype":"건축자재 - 유리","category":"other"},{"name":"미공사","tel":"031-691-0369","addr":"경기도 평택시 비전동 764-1번지","indutype":"서비스업 - 간판제작","category":"other"},{"name":"미공사","tel":"031-651-5006","addr":"경기도 평택시 비전동 764-1 764-18","indutype":"건축자재 - 인테리어전문","category":"other"},{"name":"비전건축사사무소","tel":"031-656-0092","addr":"경기도 평택시 비전동 764-1번지","indutype":"용역 서비스 - 사무서비스","category":"other"},{"name":"어린왕자 스터디 행성","tel":"031-655-3354","addr":"경기도 평택시 비전동 764-1번지 4층","indutype":"용역 서비스 - 사무서비스","category":"other"},{"name":"평택 린나이","tel":"031-618-8600","addr":"경기도 평택시 비전동 764-1번지","indutype":"건축자재 - 보일러·펌프·샷시","category":"other"}]},{"lat":"37.001552426","long":"127.09355608","imageIndex":17,"items":[{"name":"금천축산","tel":"031-653-8462","addr":"경기도 평택시 비전동 787-4번지","indutype":"도매업 - 정육","category":"other"}]},{"lat":"36.995301743","long":"127.10142343","imageIndex":17,"items":[{"name":"기능장 카센타","tel":"031-651-6607","addr":"경기도 평택시 비전동 259-4번지","indutype":"서비스업 - 공구","category":"other"}]},{"lat":"36.997382284","long":"127.11274993","imageIndex":17,"items":[{"name":"기정도예공방","tel":"","addr":"경기도 평택시 비전동 865-6번지","indutype":"문화.취미 - 문화취미기타","category":"other"}]},{"lat":"36.991908543","long":"127.10747371","imageIndex":17,"items":[{"name":"김기혁동물용품점","tel":"","addr":"경기도 평택시 비전동 191-8번지","indutype":"소매업 - 애견용품","category":"other"}]},{"lat":"36.997912722","long":"127.11403137","imageIndex":17,"items":[{"name":"김민주그린테라피","tel":"031-691-4653","addr":"경기도 평택시 비전동 869-9번지","indutype":"회원제형태 - 기타4","category":"other"},{"name":"심마니마을","tel":"031-651-3534","addr":"경기도 평택시 비전동 869-9번지 101호","indutype":"제조업 - 약초(탕제)","category":"other"},{"name":"홈델링평택비전점","tel":"031-692-2447","addr":"경기도 평택시 비전동 869-9번지","indutype":"건축자재 - 인테리어전문","category":"other"}]},{"lat":"36.996719696","long":"127.1081094","imageIndex":17,"items":[{"name":"김박사하수구","tel":"031-654-4979","addr":"경기도 평택시 비전동 825-8번지","indutype":"용역 서비스 - 기타용역서비스","category":"other"}]},{"lat":"36.998831264","long":"127.11461688","imageIndex":17,"items":[{"name":"김복순 꽃 이야기","tel":"031-655-8661","addr":"경기도 평택시 비전동 1103-3번지 144호","indutype":"문화.취미 - 화원","category":"other"},{"name":"파인트리","tel":"","addr":"경기도 평택시 비전동 1103-3번지 1층 128호","indutype":"의류 - 정장","category":"other"}]},{"lat":"37.003049283","long":"127.11353328","imageIndex":17,"items":[{"name":"꼬낄(kkokkil)","tel":"","addr":"경기도 평택시 비전동 1057-5번지","indutype":"의류 - 정장","category":"other"}]},{"lat":"37.003636247","long":"127.11216348","imageIndex":17,"items":[{"name":"꼼지락카페","tel":"032-1111-1111","addr":"경기도 평택시 비전동 1054-9번지 202호","indutype":"가구 - 기타가구","category":"other"},{"name":"담아요","tel":"031-655-6578","addr":"경기도 평택시 비전동 1054-9번지 1층","indutype":"문화.취미 - 민예·공예품","category":"other"}]},{"lat":"37.00279668","long":"127.11385872","imageIndex":17,"items":[{"name":"꽃담","tel":"031-657-4016","addr":"경기도 평택시 비전동 1057-8번지","indutype":"소매업 - 화훼","category":"other"}]},{"lat":"36.996767976","long":"127.11444535","imageIndex":17,"items":[{"name":"꿈보따리","tel":"031-8029-2070","addr":"경기도 평택시 비전동 873-5번지","indutype":"문화.취미 - 문화취미기타","category":"other"},{"name":"인테리어하는 고양이","tel":"031-692-2766","addr":"경기도 평택시 비전동 873-5번지 1층상가","indutype":"건축자재 - 인테리어전문","category":"other"},{"name":"퀼트타임","tel":"031-618-7090","addr":"경기도 평택시 비전동 873-5번지 2층","indutype":"문화.취미 - 민예·공예품","category":"other"}]},{"lat":"36.997769801","long":"127.10247138","imageIndex":17,"items":[{"name":"나누리유통","tel":"031-652-2052","addr":"경기도 평택시 비전동 807-2번지 1층","indutype":"서적문구 - 문구용품","category":"other"}]},{"lat":"36.995409852","long":"127.08992032","imageIndex":17,"items":[{"name":"나눔의료기","tel":"","addr":"경기도 평택시 비전동 626-65번지","indutype":"소매업 - 의료기","category":"other"}]},{"lat":"36.991578297","long":"127.10383374","imageIndex":17,"items":[{"name":"나드리옷수선","tel":"031-692-3392","addr":"경기도 평택시 비전동 762-11번지","indutype":"의류 - 정장","category":"other"}]},{"lat":"36.997804415","long":"127.11422219","imageIndex":17,"items":[{"name":"나무야 (NAMUYA)","tel":"031-692-6647","addr":"경기도 평택시 비전동 869-3번지","indutype":"의류 - 정장","category":"other"},{"name":"옷나래","tel":"031-656-8127","addr":"경기도 평택시 비전동 869-3번지","indutype":"의류 - 정장","category":"other"}]},{"lat":"36.999137028","long":"127.09424973","imageIndex":17,"items":[{"name":"나은떡집","tel":"031-654-1564","addr":"경기도 평택시 비전동 487-58번지 1층","indutype":"제조업 - 떡집","category":"other"},{"name":"인성공인중개사사무소","tel":"031-652-5534","addr":"경기도 평택시 비전동 487-58번지","indutype":"용역 서비스 - 부동산 중개·임대","category":"other"}]},{"lat":"37.002157527","long":"127.09172555","imageIndex":17,"items":[{"name":"나이스체크","tel":"031-655-5003","addr":"경기도 평택시 비전동 783번지","indutype":"사무통신 - 통신기기","category":"other"}]},{"lat":"36.997716291","long":"127.1018085","imageIndex":17,"items":[{"name":"나이스체크","tel":"031-000-0000","addr":"경기도 평택시 비전동 806번지","indutype":"사무통신 - 통신기기","category":"other"}]},{"lat":"37.001741539","long":"127.09370235","imageIndex":17,"items":[{"name":"남호OA상사","tel":"031-656-5030","addr":"경기도 평택시 비전동 786-4번지","indutype":"사무통신 - 사무용 OA기기","category":"other"},{"name":"남호OA상사/특별할부","tel":"031-656-5030","addr":"경기도 평택시 비전동 786-4번지","indutype":"사무통신 - 사무용 OA기기","category":"other"},{"name":"비전에어컨자재전문점","tel":"031-657-6127","addr":"경기도 평택시 비전동 786-4번지 1층","indutype":"전기제품 - 냉열기기","category":"other"},{"name":"유진메디케어스팩트라","tel":"","addr":"경기도 평택시 비전동 786-4번지","indutype":"도소매업 - 의료기기","category":"other"}]},{"lat":"36.996495183","long":"127.10725532","imageIndex":17,"items":[{"name":"내가만든가구","tel":"031-618-1124","addr":"경기도 평택시 비전동 825-2번지","indutype":"가구 - 일반가구","category":"other"}]},{"lat":"37.000050574","long":"127.11152922","imageIndex":17,"items":[{"name":"넥스트맘 비전점","tel":"031-654-2885","addr":"경기도 평택시 비전동 1090-1번지 삼성타워 102, 103호","indutype":"소매업 - 아기용품","category":"other"},{"name":"미니미본점(MINIME)","tel":"070-4412-8884","addr":"경기도 평택시 비전동 1090-1번지 삼성타워 104호","indutype":"의류 - 정장","category":"other"},{"name":"임군모바일","tel":"070-4897-7987","addr":"경기도 평택시 비전동 1090-1번지 삼성타워 101호","indutype":"사무통신 - 통신기기","category":"other"}]},{"lat":"36.993493136","long":"127.09830946","imageIndex":17,"items":[{"name":"노비타평안","tel":"070-8288-4982","addr":"경기도 평택시 비전동 748-9번지 1층","indutype":"주방용구 - 정수기","category":"other"}]},{"lat":"36.997019778","long":"127.11497371","imageIndex":17,"items":[{"name":"뉴스포츠 수영복","tel":"031-000-0000","addr":"경기도 평택시 비전동 874-1번지 비전상가 2층","indutype":"레져용품 - 스포츠·레져용품","category":"other"}]},{"lat":"36.99419242","long":"127.09125572","imageIndex":17,"items":[{"name":"뉴월드학생복","tel":"","addr":"경기도 평택시 비전동 619-7번지","indutype":"소매업 - 교복","category":"other"},{"name":"평택연합행정사사무소","tel":"031-647-6070","addr":"경기도 평택시 비전동 619-7번지","indutype":"용역 서비스 - 법률회계서비스(개인)","category":"other"}]},{"lat":"36.99538214","long":"127.11249991","imageIndex":17,"items":[{"name":"뉴코아아울렛평택점","tel":"031-650-6723","addr":"경기도 평택시 비전동 830-1번지 뉴코아아울렛백화점","indutype":"레져용품 - 스포츠·레져용품","category":"other"},{"name":"롯데시네마 평택비전/(주)이에스에이 평택","tel":"02-1544-8855","addr":"경기도 평택시 비전동 830-1번지 뉴코아아울렛백화점 10층","indutype":"문화.취미 - 영화관","category":"other"},{"name":"블럭버스평택점","tel":"031-652-0246","addr":"경기도 평택시 비전동 830-1번지 뉴코아아울렛백화점 11층","indutype":"서적문구 - 완구점","category":"other"},{"name":"알리앙스","tel":"031-653-6116","addr":"경기도 평택시 비전동 830-1 평택뉴코아아울렛1층","indutype":"신변잡화 - 액세서리","category":"other"},{"name":"크린에이드","tel":"031-650-6558","addr":"경기도 평택시 비전동 830-1번지 3층","indutype":"수리서비스 - 세탁소","category":"other"}]},{"lat":"36.997381271","long":"127.11383962","imageIndex":17,"items":[{"name":"니트 레시피","tel":"031-652-1453","addr":"경기도 평택시 비전동 868-7번지","indutype":"직물 - 침구·수예점","category":"other"}]},{"lat":"36.996325624","long":"127.10536781","imageIndex":17,"items":[{"name":"다나와컴퓨터평택센터","tel":"031-691-2114","addr":"경기도 평택시 비전동 277-23번지","indutype":"사무통신 - 컴퓨터","category":"other"}]},{"lat":"36.993134148","long":"127.09650045","imageIndex":17,"items":[{"name":"다모아 중고알뜰매장","tel":"031-376-0949","addr":"경기도 평택시 비전동 739-16번지 1층","indutype":"전기제품 - 가전제품","category":"other"}]},{"lat":"36.997939628","long":"127.11416621","imageIndex":17,"items":[{"name":"다온","tel":"031-000-0000","addr":"경기도 평택시 비전동 869-2번지","indutype":"문화.취미 - 화원","category":"other"},{"name":"제로잉크","tel":"031-618-9880","addr":"경기도 평택시 비전동 869-2번지 1층","indutype":"사무통신 - 기타 사무용품","category":"other"}]},{"lat":"37.009380157","long":"127.10761","imageIndex":17,"items":[{"name":"달링달링","tel":"070-5104-5235","addr":"경기도 평택시 비전동 47-12번지","indutype":"신변잡화 - 액세서리","category":"other"},{"name":"크린토피아 비전진로마트점","tel":"031-651-8621","addr":"경기도 평택시 비전동 47-12번지","indutype":"수리서비스 - 세탁소","category":"other"}]},{"lat":"37.000353942","long":"127.11475392","imageIndex":17,"items":[{"name":"달솜","tel":"070-4190-1119","addr":"경기도 평택시 비전동 1101번지 502호","indutype":"의류 - 정장","category":"other"},{"name":"세븐일레븐평택좋은프라자점","tel":"","addr":"경기도 평택시 비전동 1101번지 103호","indutype":"유통업 영리 - 편 의 점","category":"other"},{"name":"카툰공감 평택소사벌점","tel":"031-652-4737","addr":"경기도 평택시 비전동 1101번지 3층 302호","indutype":"임대업 - 도서대여","category":"other"}]},{"lat":"36.992355405","long":"127.10122867","imageIndex":17,"items":[{"name":"대덕건기","tel":"031-611-1404","addr":"경기도 평택시 비전동 761번지","indutype":"기타 - 기계공구","category":"other"},{"name":"정현화외국어학원","tel":"","addr":"경기도 평택시 비전동 761번지 동아빌딩 3층","indutype":"서비스업 - 교육","category":"other"},{"name":"코리아판넬","tel":"031-1544-2102","addr":"경기도 평택시 비전동 761번지 3층","indutype":"건축자재 - 기타건축자재","category":"other"},{"name":"한국에어로빅","tel":"031-652-5664","addr":"경기도 평택시 비전동 761번지 동아빌딩 5층","indutype":"회원제형태 - 레져업소","category":"other"}]},{"lat":"36.991080631","long":"127.10624818","imageIndex":17,"items":[{"name":"대동종합철물","tel":"031-651-5391","addr":"경기도 평택시 비전동 764-10번지","indutype":"건축자재 - 목재·석재·철물","category":"other"}]},{"lat":"36.99487979","long":"127.08775164","imageIndex":17,"items":[{"name":"대륙&삼성사진관","tel":"031-655-2176","addr":"경기도 평택시 비전동 633-19번지","indutype":"광학제품 - 사진관","category":"other"}]},{"lat":"36.992329058","long":"127.10039738","imageIndex":17,"items":[{"name":"대성전기","tel":"031-655-1540","addr":"경기도 평택시 비전동 760-7번지","indutype":"전기제품 - 기타전기제품","category":"other"},{"name":"두올,비시시(커튼)","tel":"031-654-3938","addr":"경기도 평택시 비전동 760-7번지","indutype":"직물 - 카페트,커튼,천막,지물","category":"other"},{"name":"삼성스포츠","tel":"031-657-7422","addr":"경기도 평택시 비전동 760-7번지","indutype":"레져용품 - 스포츠·레져용품","category":"other"}]},{"lat":"36.993304227","long":"127.09791606","imageIndex":17,"items":[{"name":"대진종합이벤트 놀이조아체육교실","tel":"031-655-2769","addr":"경기도 평택시 비전동 746-3번지 1층","indutype":"용역 서비스 - 사무서비스","category":"other"}]},{"lat":"36.993303848","long":"127.09838786","imageIndex":17,"items":[{"name":"대한영재교육사","tel":"031-658-2940","addr":"경기도 평택시 비전동 747-13번지","indutype":"회원제형태 - 서적","category":"other"}]},{"lat":"36.994797404","long":"127.08953768","imageIndex":17,"items":[{"name":"대한인쇄","tel":"031-652-4085","addr":"경기도 평택시 비전동 632-18번지","indutype":"서적문구 - 출판 및 인쇄물","category":"other"}]},{"lat":"37.000577746","long":"127.09553218","imageIndex":17,"items":[{"name":"대한정보","tel":"031-652-7131","addr":"경기도 평택시 비전동 793-1번지","indutype":"사무통신 - 통신기기","category":"other"}]},{"lat":"37.002185237","long":"127.11247597","imageIndex":17,"items":[{"name":"더 AURA","tel":"","addr":"경기도 평택시 비전동 1060-14번지 1층","indutype":"의류 - 정장","category":"other"},{"name":"더AURA","tel":"031-655-1720","addr":"경기도 평택시 비전동 1060-14번지 1층","indutype":"소매업 - 의류","category":"other"},{"name":"에이라운드","tel":"","addr":"경기도 평택시 비전동 1060-14번지 102호","indutype":"의류 - 정장","category":"other"}]},{"lat":"37.003020766","long":"127.10514087","imageIndex":17,"items":[{"name":"더끌리오","tel":"031-652-8556","addr":"경기도 평택시 비전동 1027번지 A동 4층 401호","indutype":"회원제형태 - 기타4","category":"other"},{"name":"슬라임카페 라임","tel":"031-652-2232","addr":"경기도 평택시 비전동 1027번지 연경프라자 A동 3층 4호","indutype":"서적문구 - 완구점","category":"other"},{"name":"오빌","tel":"070-4755-1913","addr":"경기도 평택시 비전동 1027번지 연경프라자 106호","indutype":"의류 - 정장","category":"other"},{"name":"평택 강아지 분양 차일드독","tel":"031-657-9870","addr":"경기도 평택시 비전동 1027번지 1층 107호","indutype":"문화.취미 - 애완동물","category":"other"}]},{"lat":"37.002716898","long":"127.11244303","imageIndex":17,"items":[{"name":"더밤비","tel":"031-658-0108","addr":"경기도 평택시 비전동 1059-7번지","indutype":"문화.취미 - 애완동물","category":"other"}]},{"lat":"37.002267335","long":"127.11138633","imageIndex":17,"items":[{"name":"더올 (The All)","tel":"","addr":"경기도 평택시 비전동 1049번지","indutype":"의류 - 정장","category":"other"}]},{"lat":"36.996244799","long":"127.10505316","imageIndex":17,"items":[{"name":"덕동떡방앗간","tel":"031-618-2875","addr":"경기도 평택시 비전동 272-22번지","indutype":"제조업 - 떡","category":"other"}]},{"lat":"37.001717302","long":"127.08997245","imageIndex":17,"items":[{"name":"데이 앤 데이(day & day)편의점","tel":"070-4100-4655","addr":"경기도 평택시 비전동 433-6번지","indutype":"유통업 영리 - 편 의 점","category":"other"}]},{"lat":"36.992215252","long":"127.10708097","imageIndex":17,"items":[{"name":"데이지플라워","tel":"031-657-5660","addr":"경기도 평택시 비전동 191-18번지 대창빌딩 1층","indutype":"문화.취미 - 화원","category":"other"},{"name":"데이지플라워","tel":"031-652-6535","addr":"경기도 평택시 비전동 191-18번지","indutype":"소매업 - 화훼","category":"other"},{"name":"천사열쇠도장","tel":"031-654-1413","addr":"경기도 평택시 비전동 191-18번지","indutype":"기타 - 기계공구","category":"other"},{"name":"평택공예연구아카데미","tel":"031-618-1667","addr":"경기도 평택시 비전동 191-18번지 외1필지 1층","indutype":"직물 - 옷감·직물","category":"other"},{"name":"평택공예연구아카데미","tel":"031-651-6141","addr":"경기도 평택시 비전동 191-18번지 대창빌딩 1층 상가","indutype":"소매업 - 공예재료","category":"other"}]},{"lat":"37.003247706","long":"127.11333134","imageIndex":17,"items":[{"name":"데코홀릭","tel":"031-618-2950","addr":"경기도 평택시 비전동 1057-3번지","indutype":"직물 - 침구·수예점","category":"other"}]},{"lat":"36.999829964","long":"127.09539646","imageIndex":17,"items":[{"name":"델리퀸 평택비전점","tel":"031-652-9289","addr":"경기도 평택시 비전동 487번지","indutype":"소매업 - 정육","category":"other"}]},{"lat":"36.997410143","long":"127.09003494","imageIndex":17,"items":[{"name":"도도한속눈썹","tel":"031-652-2141","addr":"경기도 평택시 비전동 554번지","indutype":"회원제형태 - 기타1","category":"other"},{"name":"제일열쇠","tel":"031-657-0533","addr":"경기도 평택시 비전동 554번지","indutype":"기타 - 기계공구","category":"other"}]},{"lat":"36.990799112","long":"127.10873029","imageIndex":17,"items":[{"name":"도무스갤러리","tel":"031-651-5359","addr":"경기도 평택시 비전동 855번지","indutype":"가구 - 일반가구","category":"other"},{"name":"엘뮤직음악학원","tel":"031-653-2908","addr":"경기도 평택시 비전동 855번지","indutype":"서비스업 - 교육","category":"other"}]},{"lat":"36.998331789","long":"127.10903281","imageIndex":17,"items":[{"name":"동백크리닝","tel":"031-657-5563","addr":"경기도 평택시 비전동 828번지 동아동백 상가 104호","indutype":"수리서비스 - 세탁소","category":"other"},{"name":"동백크리닝","tel":"031-658-9288","addr":"경기도 평택시 비전동 828번지 동아동백 상가 104호","indutype":"서비스업 - 세탁","category":"other"}]},{"lat":"36.993107027","long":"127.09661275","imageIndex":17,"items":[{"name":"동산상사","tel":"031-656-1696","addr":"경기도 평택시 비전동 739-15번지","indutype":"직물 - 카페트,커튼,천막,지물","category":"other"}]},{"lat":"36.997852682","long":"127.08864243","imageIndex":17,"items":[{"name":"동서열쇠","tel":"031-658-1405","addr":"경기도 평택시 비전동 471번지","indutype":"기타 - 기계공구","category":"other"}]},{"lat":"36.99477103","long":"127.10031063","imageIndex":17,"items":[{"name":"동아건업","tel":"031-658-6462","addr":"경기도 평택시 비전동 253-9번지","indutype":"건축자재 - 보일러·펌프·샷시","category":"other"},{"name":"서한기업","tel":"031-656-2987","addr":"경기도 평택시 비전동 253-9번지","indutype":"용역 서비스 - 기타용역서비스","category":"other"}]},{"lat":"36.99258109","long":"127.10072346","imageIndex":17,"items":[{"name":"동아칼라","tel":"031-652-2379","addr":"경기도 평택시 비전동 760-3번지","indutype":"광학제품 - 사진관","category":"other"}]},{"lat":"36.997301235","long":"127.0910908","imageIndex":17,"items":[{"name":"동우축산","tel":"031-656-5859","addr":"경기도 평택시 비전동 586번지 1층","indutype":"도소매업 - 닭고기","category":"other"}]},{"lat":"36.997246404","long":"127.10339188","imageIndex":17,"items":[{"name":"동평택로타리클럽","tel":"031-655-4779","addr":"경기도 평택시 비전동 818번지","indutype":"기타 - 비영리/대상","category":"other"},{"name":"에스엠씨 아쿠아(SMC AQUA)","tel":"031-656-8812","addr":"경기도 평택시 비전동 818번지 3층 전체","indutype":"문화.취미 - 수족관","category":"other"},{"name":"평택수정로타리클럽","tel":"031-000-0000","addr":"경기도 평택시 비전동 818번지","indutype":"기타 - 비영리/비대상","category":"other"}]},{"lat":"37.001300433","long":"127.1143621","imageIndex":17,"items":[{"name":"두루마리","tel":"031-652-6524","addr":"경기도 평택시 비전동 1098-1번지 희성프라자 109호","indutype":"소매업 - 카페","category":"other"}]},{"lat":"36.991051341","long":"127.10880927","imageIndex":17,"items":[{"name":"두리기획(집드림)","tel":"031-651-3574","addr":"경기도 평택시 비전동 854-8번지","indutype":"서적문구 - 출판 및 인쇄물","category":"other"},{"name":"두리인쇄","tel":"031-651-3574","addr":"경기도 평택시 비전동 854-8번지 1층","indutype":"서적문구 - 출판 및 인쇄물","category":"other"},{"name":"진성익스테리어","tel":"031-658-3434","addr":"경기도 평택시 비전동 854-8번지","indutype":"용역 서비스 - 종합용역","category":"other"}]},{"lat":"37.002746762","long":"127.10933105","imageIndex":17,"items":[{"name":"드레브","tel":"","addr":"경기도 평택시 비전동 1038-4번지 1층","indutype":"소매업 - 의류","category":"other"},{"name":"드레브(De reve)","tel":"031-657-8746","addr":"경기도 평택시 비전동 1038-4번지","indutype":"의류 - 정장","category":"other"}]},{"lat":"36.992274819","long":"127.10061074","imageIndex":17,"items":[{"name":"드림문구","tel":"031-655-5448","addr":"경기도 평택시 비전동 760-6번지 1층","indutype":"서적문구 - 문구용품","category":"other"}]},{"lat":"37.005131905","long":"127.10203158","imageIndex":17,"items":[{"name":"드림인테리어","tel":"031-656-0510","addr":"경기도 평택시 비전동 990-1번지 102호","indutype":"건축자재 - 인테리어전문","category":"other"},{"name":"보우보우","tel":"","addr":"경기도 평택시 비전동 990-1번지 202호","indutype":"문화.취미 - 애완동물","category":"other"}]},{"lat":"36.997102849","long":"127.11286186","imageIndex":17,"items":[{"name":"들꽃정원","tel":"031-653-9080","addr":"경기도 평택시 비전동 865-8번지","indutype":"직물 - 옷감·직물","category":"other"}]},{"lat":"37.002103252","long":"127.09200635","imageIndex":17,"items":[{"name":"디앤디","tel":"031-656-5486","addr":"경기도 평택시 비전동 783-2번지 1층","indutype":"주방용구 - 주방용구","category":"other"},{"name":"칸디자인광고기획","tel":"","addr":"경기도 평택시 비전동 783-2번지 102호","indutype":"용역 서비스 - 사무서비스","category":"other"}]},{"lat":"37.002275913","long":"127.11185819","imageIndex":17,"items":[{"name":"디어링","tel":"031-691-8223","addr":"경기도 평택시 비전동 1049-3번지 101호","indutype":"의류 - 정장","category":"other"},{"name":"디어링","tel":"031-652-3302","addr":"경기도 평택시 비전동 1049-3번지","indutype":"소매업 - 의류","category":"other"},{"name":"미미아미티 평택점","tel":"031-652-0052","addr":"경기도 평택시 비전동 1049-3번지 102호","indutype":"의류 - 아동의류","category":"other"},{"name":"산나리","tel":"031-611-3775","addr":"경기도 평택시 비전동 1049-3번지","indutype":"직물 - 침구·수예점","category":"other"},{"name":"산나리","tel":"","addr":"경기도 평택시 비전동 1049-3번지","indutype":"소매업 - 침구 및 소품","category":"other"}]},{"lat":"36.996831608","long":"127.10375082","imageIndex":17,"items":[{"name":"디자인 나비","tel":"031-658-0181","addr":"경기도 평택시 비전동 816-3번지 102호","indutype":"용역 서비스 - 사무서비스","category":"other"}]},{"lat":"36.993330988","long":"127.09825309","imageIndex":17,"items":[{"name":"디자인 위드유","tel":"031-654-0493","addr":"경기도 평택시 비전동 747번지 101호","indutype":"서적문구 - 출판 및 인쇄물","category":"other"}]},{"lat":"36.994102213","long":"127.09139041","imageIndex":17,"items":[{"name":"디자인쁘렝땅 평택점","tel":"031-651-2713","addr":"경기도 평택시 비전동 619-38번지 1층","indutype":"신변잡화 - 기타잡화","category":"other"},{"name":"최 플라워 혜인꽃농원","tel":"031-651-2713","addr":"경기도 평택시 비전동 619-38번지 1층","indutype":"문화.취미 - 화원","category":"other"}]},{"lat":"36.992970913","long":"127.11816926","imageIndex":17,"items":[{"name":"디자인하라","tel":"031-653-5518","addr":"경기도 평택시 비전동 882-10번지","indutype":"서적문구 - 출판 및 인쇄물","category":"other"}]},{"lat":"36.994108993","long":"127.09433359","imageIndex":17,"items":[{"name":"디케이","tel":"031-618-2237","addr":"경기도 평택시 비전동 615-9번지","indutype":"용역 서비스 - 기타용역서비스","category":"other"}]},{"lat":"36.99274619","long":"127.10786803","imageIndex":17,"items":[{"name":"딜라잇(dellght)","tel":"031-9391-8469","addr":"경기도 평택시 비전동 217-16번지 1층","indutype":"의류 - 정장","category":"other"}]},{"lat":"37.00138738","long":"127.10794731","imageIndex":17,"items":[{"name":"떡,한과 전통음식 연구원 다미방","tel":"031-684-1330","addr":"경기도 평택시 비전동 1083번지 강일타워 121호","indutype":"문화.취미 - 문화취미기타","category":"other"},{"name":"평택인테리어디자인더블유(W)","tel":"031-652-2369","addr":"경기도 평택시 비전동 1083번지 강일타워 119호","indutype":"건축자재 - 인테리어전문","category":"other"}]},{"lat":"37.008905431","long":"127.10433978","imageIndex":17,"items":[{"name":"뜨레어린이집","tel":"031-616-8651","addr":"경기도 평택시 비전동 967번지 뜨레휴이곡마을7단지","indutype":"서비스업 - 교육","category":"other"},{"name":"세븐일레븐평택이곡7단지점","tel":"031-1577-0711","addr":"경기도 평택시 비전동 967번지 이곡마을7단지 단지내상가 103,104호","indutype":"유통업 영리 - 편 의 점","category":"other"},{"name":"엠케이(MK)코퍼레이션","tel":"","addr":"경기도 평택시 비전동 967번지 뜨레휴이곡마을7단지 708동 202호","indutype":"신변잡화 - 기타잡화","category":"other"},{"name":"쿨라임","tel":"","addr":"경기도 평택시 비전동 967번지 뜨레휴이곡마을7단지 703동 15층 4호","indutype":"신변잡화 - 기타잡화","category":"other"}]},{"lat":"36.993523142","long":"127.09453508","imageIndex":17,"items":[{"name":"라드피아노학원","tel":"031-653-5553","addr":"경기도 평택시 비전동 731-2번지 2층","indutype":"서비스업 - 교육","category":"other"},{"name":"아이비클럽","tel":"031-657-2288","addr":"경기도 평택시 비전동 731-2번지","indutype":"의류 - 단체복","category":"other"}]},{"lat":"37.005546817","long":"127.10152654","imageIndex":17,"items":[{"name":"라라블룸스 (rarablooms)","tel":"031-657-2175","addr":"경기도 평택시 비전동 986번지 라임하우스 101호","indutype":"문화.취미 - 화원","category":"other"},{"name":"해피애견타운","tel":"031-654-2230","addr":"경기도 평택시 비전동 986번지 102호","indutype":"문화.취미 - 애완동물","category":"other"}]},{"lat":"37.002358524","long":"127.11019558","imageIndex":17,"items":[{"name":"라망","tel":"031-666-4744","addr":"경기도 평택시 비전동 1042-7번지 1층","indutype":"의류 - 정장","category":"other"}]},{"lat":"37.002214627","long":"127.10989204","imageIndex":17,"items":[{"name":"라미제이","tel":"070-3520-4095","addr":"경기도 평택시 비전동 1040-4번지 101호","indutype":"의류 - 정장","category":"other"}]},{"lat":"37.002827525","long":"127.10970191","imageIndex":17,"items":[{"name":"라비돌","tel":"031-656-4467","addr":"경기도 평택시 비전동 1043-11번지 101호","indutype":"소매업 - 의류","category":"other"},{"name":"라비돌(La vie D'or)","tel":"031-618-1027","addr":"경기도 평택시 비전동 1043-11번지 101호","indutype":"의류 - 정장","category":"other"}]},{"lat":"37.002331115","long":"127.11061122","imageIndex":17,"items":[{"name":"라엘플레르","tel":"031-652-7855","addr":"경기도 평택시 비전동 1042-4번지","indutype":"소매업 - 화훼","category":"other"},{"name":"라엘플레르","tel":"031-692-2536","addr":"경기도 평택시 비전동 1042-4번지","indutype":"문화.취미 - 화원","category":"other"},{"name":"어나더 유 (another U)","tel":"031-691-8223","addr":"경기도 평택시 비전동 1042-4번지","indutype":"의류 - 정장","category":"other"}]},{"lat":"36.994968039","long":"127.09031299","imageIndex":17,"items":[{"name":"라이프정보통신","tel":"031-653-9391","addr":"경기도 평택시 비전동 620-3번지","indutype":"사무통신 - 사무용 OA기기","category":"other"}]},{"lat":"36.992881934","long":"127.11700086","imageIndex":17,"items":[{"name":"러블리멍","tel":"031-667-7423","addr":"경기도 평택시 비전동 883번지","indutype":"서비스업 - 애견샵","category":"other"},{"name":"러블리멍","tel":"","addr":"경기도 평택시 비전동 883번지 1층 1호","indutype":"문화.취미 - 애완동물","category":"other"},{"name":"아름다운공간","tel":"031-618-5329","addr":"경기도 평택시 비전동 883번지 상가 1층","indutype":"건축자재 - 인테리어전문","category":"other"}]},{"lat":"37.001823705","long":"127.11366632","imageIndex":17,"items":[{"name":"러블리캣","tel":"031-651-9798","addr":"경기도 평택시 비전동 1094-1번지 좋은메디타워 109호","indutype":"문화.취미 - 애완동물","category":"other"},{"name":"리본필라테스","tel":"","addr":"경기도 평택시 비전동 1094-1번지 좋은메디타워 804호","indutype":"서비스업 - 필라테스","category":"other"},{"name":"본골프연습장","tel":"","addr":"경기도 평택시 비전동 1094-1번지 좋은메디타워 801호","indutype":"서비스업 - 골프연습장","category":"other"},{"name":"본대중사우나","tel":"031-658-1880","addr":"경기도 평택시 비전동 1094-1번지 좋은메디타워 7층","indutype":"서비스업 - 목욕탕","category":"other"},{"name":"본스포츠센터","tel":"031-663-9679","addr":"경기도 평택시 비전동 1094-1번지 좋은메디타워 6층","indutype":"서비스업 - 헬스","category":"other"},{"name":"신재은로봇학원","tel":"031-658-2992","addr":"경기도 평택시 비전동 1094-1번지 좋은메디타워 402호","indutype":"서비스업 - 교육","category":"other"}]},{"lat":"37.002381673","long":"127.10436482","imageIndex":17,"items":[{"name":"럭셔리포레","tel":"031-658-9981","addr":"경기도 평택시 비전동 1027-4번지 2층 3층, 402호","indutype":"서비스업 - 산후조리원","category":"other"},{"name":"씨에스모바일","tel":"031-654-7103","addr":"경기도 평택시 비전동 1027-4번지 107호","indutype":"사무통신 - 통신기기","category":"other"},{"name":"이예린수학학원","tel":"031-651-0552","addr":"경기도 평택시 비전동 1027-4번지 4층","indutype":"서비스업 - 교육","category":"other"},{"name":"이지플라워","tel":"031-657-0307","addr":"경기도 평택시 비전동 1027-4번지 106호","indutype":"문화.취미 - 화원","category":"other"},{"name":"주식회사 럭셔리포레","tel":"031-651-8279","addr":"경기도 평택시 비전동 1027-4번지 2층, 3층, 402호","indutype":"기타의료기관 - 산후조리원","category":"other"},{"name":"축산물직매장(비전축산)","tel":"031-655-7828","addr":"경기도 평택시 비전동 1027-4번지 101호","indutype":"소매업 - 정육","category":"other"}]},{"lat":"36.997220026","long":"127.1026167","imageIndex":17,"items":[{"name":"럭키당구장","tel":"031-691-3352","addr":"경기도 평택시 비전동 809-2번지","indutype":"서비스업 - 체육시설","category":"other"},{"name":"일광전기조명","tel":"031-657-5504","addr":"경기도 평택시 비전동 809-2번지","indutype":"건축자재 - 조명기구","category":"other"}]},{"lat":"36.996327076","long":"127.10367151","imageIndex":17,"items":[{"name":"럭키세탁소","tel":"031-653-6901","addr":"경기도 평택시 비전동 817-6번지","indutype":"수리서비스 - 세탁소","category":"other"}]},{"lat":"36.993161348","long":"127.09628705","imageIndex":17,"items":[{"name":"레노마","tel":"031-653-0556","addr":"경기도 평택시 비전동 739-18번지","indutype":"직물 - 침구·수예점","category":"other"}]},{"lat":"37.002106225","long":"127.11019523","imageIndex":17,"items":[{"name":"레브로(REVELO)","tel":"031-215-2142","addr":"경기도 평택시 비전동 1048-1번지 1층","indutype":"신변잡화 - 가방","category":"other"},{"name":"초선화","tel":"","addr":"경기도 평택시 비전동 1048-1번지 401호","indutype":"문화.취미 - 화원","category":"other"},{"name":"홈앤창","tel":"031-692-2536","addr":"경기도 평택시 비전동 1048-1번지 1층 상가","indutype":"도소매업 - 커튼, 블라인드","category":"other"}]},{"lat":"36.999687522","long":"127.11435974","imageIndex":17,"items":[{"name":"렌즈미","tel":"","addr":"경기도 평택시 비전동 1107번지","indutype":"도소매업 - 렌즈","category":"other"},{"name":"세웅관리 주식회사","tel":"031-692-3808","addr":"경기도 평택시 비전동 1107번지 좋은프라자1차 105호","indutype":"용역 서비스 - 종합용역","category":"other"}]},{"lat":"37.003269673","long":"127.10900597","imageIndex":17,"items":[{"name":"로사플라워","tel":"031-655-8028","addr":"경기도 평택시 비전동 1037번지 102호","indutype":"문화.취미 - 화원","category":"other"},{"name":"모닝글로리 평택비전점","tel":"031-618-2070","addr":"경기도 평택시 비전동 1037번지","indutype":"서적문구 - 문구용품","category":"other"},{"name":"모닝글로리평택비전점","tel":"031-657-9979","addr":"경기도 평택시 비전동 1037번지","indutype":"소매업 - 문구","category":"other"}]},{"lat":"37.00177077","long":"127.0907814","imageIndex":17,"items":[{"name":"로자노프언어교육연구원","tel":"02-3217-5423","addr":"경기도 평택시 비전동 779-9번지 지하층","indutype":"서적문구 - 출판 및 인쇄물","category":"other"}]},{"lat":"36.999688247","long":"127.11358458","imageIndex":17,"items":[{"name":"루디아주얼리","tel":"031-618-6766","addr":"경기도 평택시 비전동 1105-2번지 골든프라자-IV 1층 107호","indutype":"신변잡화 - 액세서리","category":"other"}]},{"lat":"37.002493328","long":"127.11058898","imageIndex":17,"items":[{"name":"루아흐(Ruach)","tel":"031-111-1111","addr":"경기도 평택시 비전동 1042-3번지 101호","indutype":"의류 - 정장","category":"other"}]},{"lat":"36.992941541","long":"127.11108101","imageIndex":17,"items":[{"name":"룰루랄라","tel":"031-656-6663","addr":"경기도 평택시 비전동 837-3번지","indutype":"서적문구 - 과학기자재","category":"other"}]},{"lat":"37.005632732","long":"127.10644764","imageIndex":17,"items":[{"name":"리더스하임세탁소","tel":"031-656-5819","addr":"경기도 평택시 비전동 1011번지 엘에이치리더스하임 상가동 201호","indutype":"수리서비스 - 세탁소","category":"other"},{"name":"세븐일레븐평택리더스점","tel":"","addr":"경기도 평택시 비전동 1011번지 엘에이치리더스하임 상가동 104호","indutype":"유통업 영리 - 편 의 점","category":"other"},{"name":"헬씨바디","tel":"031-338-5125","addr":"경기도 평택시 비전동 1011번지 엘에이치리더스하임 804동 1103호","indutype":"의류 - 내의판매","category":"other"}]},{"lat":"37.001487595","long":"127.10670041","imageIndex":17,"items":[{"name":"리밍슬라임","tel":"","addr":"경기도 평택시 비전동 1089번지 평택비전동효성백년가약 104동 401호","indutype":"서적문구 - 완구점","category":"other"}]},{"lat":"36.994536771","long":"127.11071257","imageIndex":17,"items":[{"name":"리셋","tel":"","addr":"경기도 평택시 비전동 931번지 비전경남아너스빌 111동 1403호","indutype":"의류 - 정장","category":"other"},{"name":"우정정보통신","tel":"031-618-0031","addr":"경기도 평택시 비전동 931번지 비전경남아너스빌 111동 202호","indutype":"회원제형태 - 기타4","category":"other"}]},{"lat":"37.002990744","long":"127.09789441","imageIndex":17,"items":[{"name":"리틀팡팡경기남부","tel":"","addr":"경기도 평택시 비전동 1008번지 엘에이치이곡마을3단지 303동 104호","indutype":"서적문구 - 기타서적문구","category":"other"},{"name":"밴쿠버설비 평택점","tel":"","addr":"경기도 평택시 비전동 1008번지 엘에이치이곡마을3단지 308동 905호","indutype":"용역 서비스 - 기타용역서비스","category":"other"},{"name":"수미디어","tel":"070-8966-6992","addr":"경기도 평택시 비전동 1008번지 엘에이치이곡마을3단지 306동 2003호","indutype":"광학제품 - 사진관","category":"other"},{"name":"신세계축산","tel":"031-655-6845","addr":"경기도 평택시 비전동 1008번지 엘에이치이곡마을3단지 상가동 104호","indutype":"도소매업 - 정육","category":"other"},{"name":"플랜비 디자인","tel":"","addr":"경기도 평택시 비전동 1008번지 엘에이치이곡마을3단지 313동 1102호","indutype":"용역 서비스 - 사무서비스","category":"other"}]},{"lat":"37.003130484","long":"127.11342105","imageIndex":17,"items":[{"name":"린온미","tel":"041-584-6135","addr":"경기도 평택시 비전동 1057-4번지 102호 린온미","indutype":"문화.취미 - 화원","category":"other"},{"name":"아라모다","tel":"","addr":"경기도 평택시 비전동 1057-4번지 다니엘주택 1층","indutype":"소매업 - 의류","category":"other"}]},{"lat":"37.001605783","long":"127.09447738","imageIndex":17,"items":[{"name":"마당발광고기획","tel":"031-653-7435","addr":"경기도 평택시 비전동 786-9번지 상가 1호","indutype":"용역 서비스 - 종합용역","category":"other"}]},{"lat":"36.999825224","long":"127.11161878","imageIndex":17,"items":[{"name":"마망엘리펀트","tel":"031-657-8333","addr":"경기도 평택시 비전동 1090번지 1층 지엔산부인과","indutype":"의류 - 정장","category":"other"},{"name":"베베또(마망엘리펀트)","tel":"031-653-5812","addr":"경기도 평택시 비전동 1090번지","indutype":"소매업 - 의류","category":"other"},{"name":"지엔 산후조리원","tel":"031-651-8279","addr":"경기도 평택시 비전동 1090번지","indutype":"서비스업 - 산후조리원","category":"other"},{"name":"지엔산후조리원","tel":"031-668-0075","addr":"경기도 평택시 비전동 1090번지","indutype":"기타의료기관 - 산후조리원","category":"other"},{"name":"커피집","tel":"031-653-2533","addr":"경기도 평택시 비전동 1090번지 지앤산부인과 1층","indutype":"소매업 - 카페","category":"other"},{"name":"한성청과","tel":"","addr":"경기도 평택시 비전동 1090번지","indutype":"소매업 - 과일","category":"other"}]},{"lat":"36.998077965","long":"127.08862021","imageIndex":17,"items":[{"name":"맑음","tel":"031-657-0130","addr":"경기도 평택시 비전동 470-4번지 1층","indutype":"신변잡화 - 기타잡화","category":"other"},{"name":"무한상상쓰리디","tel":"","addr":"경기도 평택시 비전동 470-4번지","indutype":"사무통신 - 컴퓨터","category":"other"}]},{"lat":"37.000192583","long":"127.11386617","imageIndex":17,"items":[{"name":"망고케이스 평택소사벌점","tel":"031-223-9159","addr":"경기도 평택시 비전동 1100번지 미투빌딩","indutype":"신변잡화 - 기타잡화","category":"other"},{"name":"스트라이크존(소사벌구장)","tel":"031-658-1979","addr":"경기도 평택시 비전동 1100번지 미투빌딩 4층 401~404호","indutype":"서비스업 - 스크린야구","category":"other"}]},{"lat":"36.999490242","long":"127.11333714","imageIndex":17,"items":[{"name":"매직포토스튜디오","tel":"031-658-5050","addr":"경기도 평택시 비전동 1105-3번지 광장프라자 304호","indutype":"광학제품 - 사진관","category":"other"},{"name":"세븐일레븐평택광장프라자점","tel":"031-1577-0711","addr":"경기도 평택시 비전동 1105-3번지 광장프라자 1층 105호","indutype":"유통업 영리 - 편 의 점","category":"other"},{"name":"프로바디짐","tel":"031-658-8489","addr":"경기도 평택시 비전동 1105-3번지 광장프라자 501호, 502호","indutype":"서비스업 - 헬스","category":"other"}]},{"lat":"36.996018878","long":"127.1157249","imageIndex":17,"items":[{"name":"맵시크리닝","tel":"031-657-5388","addr":"경기도 평택시 비전동 876번지 경남선경 105호","indutype":"수리서비스 - 세탁소","category":"other"}]},{"lat":"37.001609231","long":"127.08989368","imageIndex":17,"items":[{"name":"멀티돌 샵","tel":"","addr":"경기도 평택시 비전동 778-6번지","indutype":"서적문구 - 완구점","category":"other"}]},{"lat":"36.991297657","long":"127.10536107","imageIndex":17,"items":[{"name":"멍이와양이 애완용품할인매장","tel":"031-657-6277","addr":"경기도 평택시 비전동 764-16번지 1층 101호","indutype":"소매업 - 애완용품","category":"other"},{"name":"멍이와양이 애완용품할인매장","tel":"070-8704-1212","addr":"경기도 평택시 비전동 764-16번지 301호","indutype":"문화.취미 - 애완동물","category":"other"},{"name":"명품 운동화 유모차 손세탁","tel":"031-655-1414","addr":"경기도 평택시 비전동 764-16번지","indutype":"수리서비스 - 세탁소","category":"other"},{"name":"명품운동화유모차손세탁","tel":"031-655-8033","addr":"경기도 평택시 비전동 764-16번지","indutype":"서비스업 - 세탁소","category":"other"}]},{"lat":"36.993576971","long":"127.09483845","imageIndex":17,"items":[{"name":"메디칼프라자(하모니24)","tel":"031-658-4582","addr":"경기도 평택시 비전동 731-5번지 외2필지","indutype":"유통업 영리 - 편 의 점","category":"other"}]},{"lat":"37.002745453","long":"127.11078033","imageIndex":17,"items":[{"name":"메르엘","tel":"","addr":"경기도 평택시 비전동 1046-11번지 102호","indutype":"의류 - 아동의류","category":"other"},{"name":"메르엘(mer l)","tel":"031-681-1795","addr":"경기도 평택시 비전동 1046-11번지 102호","indutype":"의류 - 정장","category":"other"},{"name":"보리샵","tel":"031-000-0000","addr":"경기도 평택시 비전동 1046-11번지","indutype":"의류 - 정장","category":"other"}]},{"lat":"37.002157769","long":"127.11294778","imageIndex":17,"items":[{"name":"메리수인 (소사벌점)","tel":"02-1111-1111","addr":"경기도 평택시 비전동 1063번지 102호","indutype":"의류 - 정장","category":"other"},{"name":"비치나(Vichna)","tel":"","addr":"경기도 평택시 비전동 1063번지 1층 좌측","indutype":"의류 - 정장","category":"other"}]},{"lat":"36.992188982","long":"127.11608994","imageIndex":17,"items":[{"name":"모네의정원","tel":"031-652-4256","addr":"경기도 평택시 비전동 885번지","indutype":"서비스업 - 교육","category":"other"},{"name":"평택차이코프스키 음악학원","tel":"","addr":"경기도 평택시 비전동 885번지 3층","indutype":"서비스업 - 교육","category":"other"}]},{"lat":"36.993604541","long":"127.09414201","imageIndex":17,"items":[{"name":"모닝아트(한별에듀)","tel":"031-652-6645","addr":"경기도 평택시 비전동 617-2번지","indutype":"소매업 - 문구","category":"other"},{"name":"한별에듀","tel":"031-657-6993","addr":"경기도 평택시 비전동 617-2번지","indutype":"서적문구 - 문구용품","category":"other"}]},{"lat":"36.993025557","long":"127.09708445","imageIndex":17,"items":[{"name":"모바일명품#","tel":"","addr":"경기도 평택시 비전동 739-12번지","indutype":"사무통신 - 통신기기","category":"other"}]},{"lat":"36.999551727","long":"127.09398061","imageIndex":17,"items":[{"name":"목화화원","tel":"031-658-6476","addr":"경기도 평택시 비전동 790-4번지","indutype":"문화.취미 - 화원","category":"other"}]},{"lat":"36.9936938","long":"127.11605847","imageIndex":17,"items":[{"name":"무발비전점","tel":"031-657-5507","addr":"경기도 평택시 비전동 879-5번지 비전현대아파트","indutype":"소매업 - 신발","category":"other"}]},{"lat":"36.998488237","long":"127.10531454","imageIndex":17,"items":[{"name":"무지개나라어린이집","tel":"031-657-9590","addr":"경기도 평택시 비전동 813번지 엘지덕동아파트 103동 104호","indutype":"서비스업 - 교육","category":"other"}]},{"lat":"36.993188469","long":"127.09617475","imageIndex":17,"items":[{"name":"문열쇠","tel":"031-657-7723","addr":"경기도 평택시 비전동 739-19번지","indutype":"건축자재 - 목재·석재·철물","category":"other"}]},{"lat":"37.001940518","long":"127.09272518","imageIndex":17,"items":[{"name":"문화상회","tel":"031-618-3377","addr":"경기도 평택시 비전동 783-7번지 202호","indutype":"문화.취미 - 민예·공예품","category":"other"},{"name":"평택제일공조","tel":"031-658-5405","addr":"경기도 평택시 비전동 783-7번지 101호","indutype":"전기제품 - 냉열기기","category":"other"}]},{"lat":"37.00285867","long":"127.1050283","imageIndex":17,"items":[{"name":"뮤직톡톡음악학원","tel":"031-651-0059","addr":"경기도 평택시 비전동 1027-1번지 비전타워 301호","indutype":"서비스업 - 교육","category":"other"},{"name":"미광채에스테틱","tel":"031-655-2579","addr":"경기도 평택시 비전동 1027-1번지 비전타워 4층 401호","indutype":"소매업 - 화장품","category":"other"},{"name":"애크미실용음악학원(소사벌점)","tel":"031-653-8844","addr":"경기도 평택시 비전동 1027-1번지 비전타워 501호","indutype":"서비스업 - 교육","category":"other"}]},{"lat":"36.994381663","long":"127.11281301","imageIndex":17,"items":[{"name":"미니스톱 평택비전2점","tel":"031-1577-9621","addr":"경기도 평택시 비전동 830-6번지","indutype":"유통업 영리 - 편 의 점","category":"other"},{"name":"평택언어심리치료센터","tel":"031-651-0225","addr":"경기도 평택시 비전동 830-6번지 삼육빌딩 5층","indutype":"회원제형태 - 기타4","category":"other"}]},{"lat":"36.997520948","long":"127.10889688","imageIndex":17,"items":[{"name":"미니스톱평택태산점","tel":"031-1577-9621","addr":"경기도 평택시 비전동 828-1번지 태산신그린APT 상가동 101호","indutype":"유통업 영리 - 편 의 점","category":"other"},{"name":"작품피아노음악학원","tel":"031-691-6988","addr":"경기도 평택시 비전동 828-1번지 태산신그린아파트 2층","indutype":"서비스업 - 교육","category":"other"},{"name":"태산세탁소","tel":"031-657-5563","addr":"경기도 평택시 비전동 828-1번지 태산신그린상가 108호","indutype":"서비스업 - 세탁","category":"other"}]},{"lat":"36.996823426","long":"127.09141603","imageIndex":17,"items":[{"name":"미래샷시유리","tel":"031-656-3229","addr":"경기도 평택시 비전동 624-2","indutype":"건축자재 - 유리","category":"other"},{"name":"에스마트은성점","tel":"031-651-2984","addr":"경기도 평택시 비전동 624-2번지","indutype":"유통업 영리 - 연 쇄 점","category":"other"}]},{"lat":"36.99666357","long":"127.08822544","imageIndex":17,"items":[{"name":"미래장식","tel":"031-657-2470","addr":"경기도 평택시 비전동 629-5번지","indutype":"건축자재 - 인테리어전문","category":"other"},{"name":"조현우세무회계사무소","tel":"031-647-6464","addr":"경기도 평택시 비전동 629-5번지 3층","indutype":"용역 서비스 - 법률회계서비스(개인)","category":"other"},{"name":"코디나라","tel":"031-651-1988","addr":"경기도 평택시 비전동 629-5번지","indutype":"신변잡화 - 액세서리","category":"other"}]},{"lat":"36.992383307","long":"127.10017278","imageIndex":17,"items":[{"name":"미랜그린스토어","tel":"031-658-1031","addr":"경기도 평택시 비전동 760-8번지","indutype":"주방용구 - 주방용구","category":"other"}]},{"lat":"37.001995544","long":"127.0914445","imageIndex":17,"items":[{"name":"미소","tel":"031-691-3358","addr":"경기도 평택시 비전동 780-1번지","indutype":"소매업 - 농수산물","category":"other"},{"name":"한국T.S.i","tel":"031-653-0722","addr":"경기도 평택시 비전동 780-1번지","indutype":"기타 - 기타 전문점","category":"other"}]},{"lat":"36.991772916","long":"127.10800149","imageIndex":17,"items":[{"name":"미술나라 미술학원","tel":"031-653-9009","addr":"경기도 평택시 비전동 192-15번지","indutype":"서비스업 - 교육","category":"other"},{"name":"재건네","tel":"031-653-5599","addr":"경기도 평택시 비전동 192-15번지","indutype":"회원제형태 - 기타1","category":"other"}]},{"lat":"36.997164414","long":"127.11447963","imageIndex":17,"items":[{"name":"미스터떡","tel":"031-657-9960","addr":"경기도 평택시 비전동 870-4번지 1층","indutype":"제조업 - 떡","category":"other"}]},{"lat":"37.000019903","long":"127.09447547","imageIndex":17,"items":[{"name":"미주전자","tel":"031-652-8689","addr":"경기도 평택시 비전동 793-7번지","indutype":"수리서비스 - 가정용품수리","category":"other"}]},{"lat":"36.996606383","long":"127.11380479","imageIndex":17,"items":[{"name":"미주팜","tel":"","addr":"경기도 평택시 비전동 872-4번지","indutype":"소매업 - 정육","category":"other"},{"name":"통","tel":"031-654-3255","addr":"경기도 평택시 비전동 872-4번지","indutype":"의류 - 정장","category":"other"},{"name":"통","tel":"031-654-3255","addr":"경기도 평택시 비전동 872-4번지 1층","indutype":"의류 - 정장","category":"other"},{"name":"통","tel":"031-654-3255","addr":"경기도 평택시 비전동 872-4번지 1층 2호","indutype":"의류 - 정장","category":"other"}]},{"lat":"36.99177717","long":"127.10308139","imageIndex":17,"items":[{"name":"민들레","tel":"031-658-2298","addr":"경기도 평택시 비전동 762-18번지","indutype":"의류 - 정장","category":"other"},{"name":"코렉스자전거","tel":"031-656-8959","addr":"경기도 평택시 비전동 762-18번지","indutype":"레져용품 - 스포츠·레져용품","category":"other"}]},{"lat":"36.995661978","long":"127.11194986","imageIndex":17,"items":[{"name":"바니","tel":"031-652-9509","addr":"경기도 평택시 비전동 829-5번지","indutype":"소매업 - 귀금속","category":"other"},{"name":"시계귀금속바니","tel":"031-657-4206","addr":"경기도 평택시 비전동 829-5번지","indutype":"신변잡화 - 시계","category":"other"},{"name":"아이리스안경","tel":"031-654-6006","addr":"경기도 평택시 비전동 829-5번지","indutype":"소매업 - 안경","category":"other"}]},{"lat":"37.003077553","long":"127.11219638","imageIndex":17,"items":[{"name":"바루지금","tel":"","addr":"경기도 평택시 비전동 1053-12번지 101호","indutype":"문화.취미 - 애완동물","category":"other"}]},{"lat":"36.99310603","long":"127.10853129","imageIndex":17,"items":[{"name":"반도세탁소","tel":"","addr":"경기도 평택시 비전동 143-107번지","indutype":"서비스업 - 세탁소","category":"other"},{"name":"평택에스엘피(SLP)","tel":"031-653-8883","addr":"경기도 평택시 비전동 143-107번지","indutype":"회원제형태 - 서적","category":"other"}]},{"lat":"36.997020899","long":"127.10367243","imageIndex":17,"items":[{"name":"반성세탁소비전점","tel":"031-651-2040","addr":"경기도 평택시 비전동 816-7번지","indutype":"수리서비스 - 세탁소","category":"other"}]},{"lat":"37.000384041","long":"127.11145106","imageIndex":17,"items":[{"name":"백마통신","tel":"031-658-9067","addr":"경기도 평택시 비전동 1090-2번지 1층","indutype":"사무통신 - 통신기기","category":"other"}]},{"lat":"37.004824417","long":"127.10336815","imageIndex":17,"items":[{"name":"베어캣 스튜디오","tel":"031-647-6811","addr":"경기도 평택시 비전동 996-1번지 3층","indutype":"광학제품 - 사진관","category":"other"},{"name":"베어켓스튜디오","tel":"031-656-0959","addr":"경기도 평택시 비전동 996-1번지 3층 베어켓 스튜디오","indutype":"서비스업 - 사진관","category":"other"},{"name":"주식회사 프론티어홀딩스","tel":"031-668-6111","addr":"경기도 평택시 비전동 996-1번지 에스케이타워 105호","indutype":"사무통신 - 통신기기","category":"other"}]},{"lat":"37.000049602","long":"127.11258525","imageIndex":17,"items":[{"name":"베이비몬스터(평택점)","tel":"","addr":"경기도 평택시 비전동 1091-4번지 601호","indutype":"소매업 - 유아용품","category":"other"},{"name":"비전문고","tel":"031-654-4566","addr":"경기도 평택시 비전동 1091-4번지","indutype":"소매업 - 서점","category":"other"},{"name":"비전서적","tel":"031-630-2728","addr":"경기도 평택시 비전동 1091-4번지 103,203호","indutype":"도소매업 - 서점","category":"other"},{"name":"비전서적","tel":"031-653-5812","addr":"경기도 평택시 비전동 1091-4번지 103,203호","indutype":"서적문구 - 일반서적","category":"other"}]},{"lat":"36.993247443","long":"127.11158695","imageIndex":17,"items":[{"name":"베이비스킨","tel":"031-654-3174","addr":"경기도 평택시 비전동 835-7번지 2층","indutype":"회원제형태 - 기타4","category":"other"},{"name":"팜스스파휴앤미","tel":"031-618-0980","addr":"경기도 평택시 비전동 835-7번지","indutype":"회원제형태 - 기타4","category":"other"}]},{"lat":"36.991215429","long":"127.10666399","imageIndex":17,"items":[{"name":"베이스캠프","tel":"031-656-5201","addr":"경기도 평택시 비전동 764-22번지","indutype":"레져용품 - 스포츠·레져용품","category":"other"}]},{"lat":"36.993220664","long":"127.10094895","imageIndex":17,"items":[{"name":"벽지마을장식","tel":"031-652-8712","addr":"경기도 평택시 비전동 756-14번지 1층","indutype":"직물 - 카페트,커튼,천막,지물","category":"other"}]},{"lat":"36.994832664","long":"127.11230815","imageIndex":17,"items":[{"name":"보떼 비전점","tel":"031-618-8294","addr":"경기도 평택시 비전동 831-5번지","indutype":"소매업 - 화장품","category":"other"},{"name":"코리아","tel":"031-657-0388","addr":"경기도 평택시 비전동 831-5번지","indutype":"회원제형태 - 기타4","category":"other"},{"name":"펫필드동물병원","tel":"031-618-1152","addr":"경기도 평택시 비전동 831-5번지","indutype":"서비스업 - 수의","category":"other"}]},{"lat":"36.996189841","long":"127.10608659","imageIndex":17,"items":[{"name":"보민가구","tel":"031-655-1151","addr":"경기도 평택시 비전동 823-3번지","indutype":"가구 - 일반가구","category":"other"},{"name":"사운드밸리","tel":"031-618-0100","addr":"경기도 평택시 비전동 823-3번지","indutype":"레져용품 - 악기점","category":"other"}]},{"lat":"37.002853275","long":"127.11111752","imageIndex":17,"items":[{"name":"보보로디","tel":"031-654-0727","addr":"경기도 평택시 비전동 1046-9번지 102호","indutype":"의류 - 정장","category":"other"},{"name":"씨유평택비전9길점","tel":"031-898-6568","addr":"경기도 평택시 비전동 1046-9번지 101호","indutype":"유통업 영리 - 편 의 점","category":"other"}]},{"lat":"36.999325832","long":"127.11569609","imageIndex":17,"items":[{"name":"본 골프존 아카데미","tel":"031-658-1880","addr":"경기도 평택시 비전동 1102-1번지 704호","indutype":"레져용품 - 스포츠·레져용품","category":"other"},{"name":"본24골프","tel":"031-692-1872","addr":"경기도 평택시 비전동 1102-1번지 6층 전부(601~607호)","indutype":"레져용품 - 골프용품 전문점","category":"other"},{"name":"브러쉬","tel":"031-654-1268","addr":"경기도 평택시 비전동 1102-1번지 114호 좋은프라자5","indutype":"의류 - 정장","category":"other"}]},{"lat":"37.002853806","long":"127.11053332","imageIndex":17,"items":[{"name":"봄 dailybom","tel":"031-692-1026","addr":"경기도 평택시 비전동 1043-5번지 102호","indutype":"문화.취미 - 민예·공예품","category":"other"},{"name":"봄, 데일리 봄","tel":"031-655-4792","addr":"경기도 평택시 비전동 1043-5번지 102호","indutype":"제조업 - 공방","category":"other"},{"name":"주엘","tel":"031-0000-0000","addr":"경기도 평택시 비전동 1043-5번지 101호","indutype":"의류 - 정장","category":"other"}]},{"lat":"36.994274126","long":"127.11217255","imageIndex":17,"items":[{"name":"브이아이피 태국","tel":"031-651-1252","addr":"경기도 평택시 비전동 833-1번지 303,304호","indutype":"신변잡화 - 기타잡화","category":"other"}]},{"lat":"37.000463969","long":"127.11272066","imageIndex":17,"items":[{"name":"브이알플러스 평택비전점","tel":"031-655-6977","addr":"경기도 평택시 비전동 1091-2번지 301호 ,302,303호","indutype":"수리서비스 - 사무·통신기기수리","category":"other"},{"name":"스트라이크존 비전구장","tel":"031-651-5949","addr":"경기도 평택시 비전동 1091-2번지 3층 306호~309호","indutype":"서비스업 - 스크린야구","category":"other"},{"name":"쿨보이텔레콤","tel":"031-653-3708","addr":"경기도 평택시 비전동 1091-2번지 강일타운 108호","indutype":"사무통신 - 통신기기","category":"other"},{"name":"쿨보이텔레콤","tel":"","addr":"경기도 평택시 비전동 1091-2번지","indutype":"도소매업 - 전자기기","category":"other"}]},{"lat":"36.994352815","long":"127.11475636","imageIndex":17,"items":[{"name":"비전2동우체국","tel":"031-657-2005","addr":"경기도 평택시 비전동 878-4번지","indutype":"용역 서비스 - 공공요금대행서비스/소","category":"other"}]},{"lat":"36.995410593","long":"127.11094971","imageIndex":17,"items":[{"name":"비전누리독서실","tel":"031-658-4322","addr":"경기도 평택시 비전동 829-9번지 2층","indutype":"서비스업 - 교육","category":"other"}]},{"lat":"37.002572883","long":"127.1122743","imageIndex":17,"items":[{"name":"비전아쿠아","tel":"031-657-9015","addr":"경기도 평택시 비전동 1050-3번지 1층","indutype":"문화.취미 - 수족관","category":"other"}]},{"lat":"36.992908837","long":"127.1171357","imageIndex":17,"items":[{"name":"비전열쇠","tel":"031-657-2310","addr":"경기도 평택시 비전동 883-1번지","indutype":"기타 - 기계공구","category":"other"},{"name":"비전열쇠","tel":"031-692-2253","addr":"경기도 평택시 비전동 883-1번지","indutype":"소매업 - 열쇠,도장","category":"other"}]},{"lat":"36.994881233","long":"127.09774952","imageIndex":17,"items":[{"name":"비전유통","tel":"031-656-7441","addr":"경기도 평택시 비전동 743-3번지","indutype":"회원제형태 - 기타1","category":"other"}]},{"lat":"36.992412894","long":"127.10775524","imageIndex":17,"items":[{"name":"비전인테리어","tel":"031-691-8988","addr":"경기도 평택시 비전동 217-18번지","indutype":"서비스업 - 인테리어","category":"other"},{"name":"비전인테리어","tel":"031-618-0430","addr":"경기도 평택시 비전동 217-18번지","indutype":"건축자재 - 인테리어전문","category":"other"}]},{"lat":"37.002128272","long":"127.10564523","imageIndex":17,"items":[{"name":"비전제4잉글리쉬무무학원","tel":"031-647-0365","addr":"경기도 평택시 비전동 1070-4번지 골든프라자2차 207호","indutype":"서비스업 - 교육","category":"other"},{"name":"스누피 애견","tel":"031-611-8862","addr":"경기도 평택시 비전동 1070-4번지 골든프라자2차","indutype":"서비스업 - 애견샵","category":"other"},{"name":"오라방 텔레콤","tel":"031-618-5189","addr":"경기도 평택시 비전동 1070-4번지 골든플라자2 1층 109호","indutype":"사무통신 - 통신기기","category":"other"}]},{"lat":"37.000136117","long":"127.09566645","imageIndex":17,"items":[{"name":"비전철물","tel":"031-653-8462","addr":"경기도 평택시 비전동 485-5번지","indutype":"기타 - 기계공구","category":"other"}]},{"lat":"36.994770198","long":"127.11164528","imageIndex":17,"items":[{"name":"비전한빛철물","tel":"031-652-0943","addr":"경기도 평택시 비전동 832-6번지","indutype":"건축자재 - 목재·석재·철물","category":"other"},{"name":"파워통신","tel":"031-653-5678","addr":"경기도 평택시 비전동 832-6번지","indutype":"사무통신 - 통신기기","category":"other"}]},{"lat":"36.993133775","long":"127.09697225","imageIndex":17,"items":[{"name":"빨간여우","tel":"070-4062-3430","addr":"경기도 평택시 비전동 739-13번지","indutype":"의류 - 정장","category":"other"},{"name":"삼보컴퓨터","tel":"031-657-0360","addr":"경기도 평택시 비전동 739-13번지","indutype":"사무통신 - 컴퓨터","category":"other"}]},{"lat":"36.994193288","long":"127.1118916","imageIndex":17,"items":[{"name":"사거리텔레콤","tel":"031-616-4494","addr":"경기도 평택시 비전동 833-2번지 비전타워 102호","indutype":"사무통신 - 통신기기","category":"other"}]},{"lat":"36.991080288","long":"127.10664134","imageIndex":17,"items":[{"name":"사거리텔레콤 1호","tel":"031-658-0707","addr":"경기도 평택시 비전동 764-7번지","indutype":"사무통신 - 통신기기","category":"other"}]},{"lat":"36.996356988","long":"127.08852841","imageIndex":17,"items":[{"name":"사단법인 평택시발전협의회","tel":"031-657-1897","addr":"경기도 평택시 비전동 630-1번지","indutype":"기타 - 비영리/비대상","category":"other"}]},{"lat":"36.993832602","long":"127.11217192","imageIndex":17,"items":[{"name":"사랑보석","tel":"031-654-1440","addr":"경기도 평택시 비전동 842-1번지 상가 1층","indutype":"신변잡화 - 귀금속","category":"other"}]},{"lat":"37.000158166","long":"127.11211356","imageIndex":17,"items":[{"name":"사랑스포츠","tel":"031-668-0075","addr":"경기도 평택시 비전동 1091번지 골든프라자-VI 5동 503호","indutype":"서비스업 - 교육","category":"other"},{"name":"소사","tel":"","addr":"경기도 평택시 비전동 1091번지 골든프라자-VI 503호","indutype":"수리서비스 - 신변잡화수리","category":"other"}]},{"lat":"36.9917199","long":"127.1068107","imageIndex":17,"items":[{"name":"삼광정보산업","tel":"031-651-0411","addr":"경기도 평택시 비전동 766-1번지","indutype":"사무통신 - 통신기기","category":"other"}]},{"lat":"36.994247632","long":"127.10125357","imageIndex":17,"items":[{"name":"삼성가방구두수선","tel":"031-656-6335","addr":"경기도 평택시 비전동 751-4번지","indutype":"수리서비스 - 신변잡화수리","category":"other"},{"name":"영애공예샵","tel":"","addr":"경기도 평택시 비전동 751-4번지 1층","indutype":"문화.취미 - 민예·공예품","category":"other"}]},{"lat":"36.996270624","long":"127.10644618","imageIndex":17,"items":[{"name":"삼성장식","tel":"031-657-8668","addr":"경기도 평택시 비전동 823-6번지","indutype":"서비스업 - 인테리어","category":"other"},{"name":"삼성장식","tel":"031-653-7203","addr":"경기도 평택시 비전동 823-6번지","indutype":"직물 - 카페트,커튼,천막,지물","category":"other"}]},{"lat":"37.00021786","long":"127.09483521","imageIndex":17,"items":[{"name":"새로운방앗간","tel":"031-656-2135","addr":"경기도 평택시 비전동 793-4번지","indutype":"제조업 - 떡","category":"other"},{"name":"예솔","tel":"031-653-0804","addr":"경기도 평택시 비전동 793-4번지","indutype":"직물 - 카페트,커튼,천막,지물","category":"other"}]},{"lat":"37.001968344","long":"127.09166916","imageIndex":17,"items":[{"name":"생태촌","tel":"","addr":"경기도 평택시 비전동 781번지","indutype":"소매업 - 수산물","category":"other"}]},{"lat":"37.003600833","long":"127.1114781","imageIndex":17,"items":[{"name":"샤네리","tel":"","addr":"경기도 평택시 비전동 1055-1번지","indutype":"문화.취미 - 애완동물","category":"other"},{"name":"아더띵즈","tel":"","addr":"경기도 평택시 비전동 1055-1번지","indutype":"의류 - 정장","category":"other"}]},{"lat":"36.99146969","long":"127.10439525","imageIndex":17,"items":[{"name":"샤넬","tel":"031-692-4647","addr":"경기도 평택시 비전동 763-9번지","indutype":"의류 - 정장","category":"other"},{"name":"세계격투사협회","tel":"031-655-9669","addr":"경기도 평택시 비전동 763-9번지","indutype":"기타 - 비영리/대상","category":"other"},{"name":"신한문고","tel":"","addr":"경기도 평택시 비전동 763-9번지","indutype":"소매업 - 서적","category":"other"},{"name":"신한문고","tel":"031-652-2759","addr":"경기도 평택시 비전동 763-9번지","indutype":"서적문구 - 일반서적","category":"other"},