[{"lat":"37.87069405","long":"127.15600546","items":[{"name":"(주)대진상생교육센터","tel":"031-852-6201","addr":"경기도 포천시 선단동 산11-1번지 대진대학교 305호 산학협력실습관","category":"학원 - 기타 교육기관"},{"name":"(주)피와이언홀딩스대진커피숍","tel":"031-536-2466","addr":"경기도 포천시 선단동 산11-1","category":"일반휴게음식 - 서양음식"},{"name":"GongCha","tel":"031-533-8588","addr":"경기도 포천시 선단동 산11-1번지 대진대학교전산센터 2층 204호","category":"일반휴게음식 - 서양음식"},{"name":"공차대진대점","tel":"533-8588","addr":"경기도 포천시 선단동 산11-1번지 대진대정보전사원 2층","category":"음식 - 휴게음식점"},{"name":"대진당구장","tel":"","addr":"경기도 포천시 선단동 산11-1","category":"서비스 - 당구장"},{"name":"대진당구장","tel":"070-4686-9412","addr":"경기도 포천시 선단동 산11-1번지 대진대학교 3층 1호","category":"레저업소 - 당 구 장"},{"name":"대진대구내안경점","tel":"536-5302","addr":"경기도 포천시 선단동 산 11-1","category":"소매업 - 안경점"},{"name":"대진문화사","tel":"031-535-7011","addr":"경기도 포천시 선단동 산 11-1","category":"서적문구 - 출판 및 인쇄물"},{"name":"주식회사 에너지아이","tel":"","addr":"경기도 포천시 선단동 산11-1번지 대진대학교 3층 산학협력단 302호","category":"전기제품 - 가전제품"},{"name":"주식회사 에코썸","tel":"02-381-0513","addr":"경기도 포천시 선단동 산 11-1 대진대학교산학협력단 405","category":"전기제품 - 기타전기제품"},{"name":"주식회사 포스웨이브","tel":"031-8089-7000","addr":"경기도 포천시 선단동 산11-1번지 대진대학교 3층 314호","category":"광학제품 - 기타광학제품"},{"name":"주식회사 포천한진관광","tel":"031-543-6005","addr":"경기도 포천시 선단동 산11-1번지 대진대학교 학생회관 2층 214호","category":"여행 - 관광여행"},{"name":"주식회사로보피아","tel":"031-536-4086","addr":"경기도 포천시 선단동 산11-1번지 대진대창업보육센터 305","category":"기타 - 기타 전문점"},{"name":"주식회사에스에이치컨텐츠","tel":"02-6507-6087","addr":"경기도 포천시 선단동 산11-1번지 대진대학교 산학협력단 314호","category":"용역 서비스 - 종합용역"},{"name":"포천시건강가정지원센터/아이돌봄","tel":"031-532-2067","addr":"경기도 포천시 선단동 산11-1번지 대진대학교 대진교육관 지하1층","category":"기타 - 비영리/대상"},{"name":"한솥 대진대점","tel":"031-534-5358","addr":"경기도 포천시 선단동 산11-1번지 대진대학교 1층 학생회관","category":"일반휴게음식 - 스넥"}]},{"lat":"37.851061882","long":"127.16333892","items":[{"name":"(주)뱅뱅어패럴 포천프라자점","tel":"031-542-2551","addr":"경기도 포천시 선단동 498-1번지","category":"레져용품 - 스포츠·레져용품"},{"name":"레몬노래연습장","tel":"031-542-3311","addr":"경기도 포천시 선단동 498-1번지 엠카운티 A동 3층 나호","category":"레저업소 - 노 래 방"},{"name":"레몬스크린골프죤","tel":"031-543-0775","addr":"경기도 포천시 선단동 498-1번지 에이동나호 2층","category":"회원제형태 - 레져업소"},{"name":"레몬약국","tel":"031-543-9584","addr":"경기도 포천시 선단동 498-1번지","category":"약국 - 약국"},{"name":"레몬호프","tel":"031-543-0707","addr":"경기도 포천시 선단동 498-1번지","category":"일반휴게음식 - 주점"},{"name":"선단경희의원","tel":"031-541-3781","addr":"경기도 포천시 선단동 498-1번지","category":"의원 - 의원"},{"name":"선단본치과의원","tel":"031-541-3987","addr":"경기도 포천시 선단동 498-1번지 3층 나호","category":"의원 - 치과의원"},{"name":"숑아지 정육점","tel":"031-542-6516","addr":"경기도 포천시 선단동 498-1번지 엘카운티 에이동 1층 라호","category":"음료식품 - 정육점"},{"name":"주식회사 윈플러스마트 포천점","tel":"02-1811-9696","addr":"경기도 포천시 선단동 498-1번지","category":"유통업 영리 - 슈퍼마켓"},{"name":"천사꽃화원","tel":"031-544-0769","addr":"경기도 포천시 선단동 498-1번지 일부 1층 다호","category":"문화.취미 - 화원"},{"name":"천지태권도전문체육관","tel":"031-544-4552","addr":"경기도 포천시 선단동 498-1번지","category":"회원제형태 - 학원"},{"name":"청담","tel":"070-4280-0835","addr":"경기도 포천시 선단동 498-1번지 엘카운티A동1층가호","category":"의류 - 정장"},{"name":"커피베이 포천선단점","tel":"031-544-0959","addr":"경기도 포천시 선단동 498-1번지 A동 1층 가-2호","category":"일반휴게음식 - 서양음식"},{"name":"커피베이포천선단점","tel":"544-0959","addr":"경기도 포천시 선단동 498-1번지","category":"음식 - 커피 등"},{"name":"플러스마트","tel":"070-7512-5700","addr":"경기도 포천시 선단동 498-1번지 엠카운티상가2층가호","category":"유통업 영리 - 슈퍼마켓"},{"name":"한올보습음악학원","tel":"031-542-2083","addr":"경기도 포천시 선단동 498-1번지 3층","category":"학원 - 예·체능계학원"},{"name":"햇빛요양원","tel":"070-8161-8899","addr":"경기도 포천시 선단동 498-1번지","category":"기타의료기관 - 기타의료기관 및 기타"},{"name":"화(HUO)","tel":"031-541-8879","addr":"경기도 포천시 선단동 498-1번지","category":"일반휴게음식 - 중국식"}]},{"lat":"37.859473199","long":"127.15919811","items":[{"name":"(주)삼부자","tel":"070-7864-7742","addr":"경기도 포천시 선단동 730-2번지","category":"음료식품 - 기타음료식품"}]},{"lat":"37.856528103","long":"127.17155488","items":[{"name":"(주)이언테크/원격지","tel":"02-2277-0800","addr":"경기도 포천시 선단동 11-1,대진대학교창업보육센터307호","category":"기타 - 기타 전문점"}]},{"lat":"37.850915726","long":"127.16480432","items":[{"name":"(주)정현출장경리","tel":"031-544-2546","addr":"경기도 포천시 선단동 502-6번지 칠성원룸 203호","category":"회원제형태 - 기타4"},{"name":"벤츠노래연습장","tel":"031-544-1177","addr":"경기도 포천시 선단동 502-6번지","category":"레저업소 - 노 래 방"},{"name":"시우","tel":"070-4178-4187","addr":"경기도 포천시 선단동 502-6번지","category":"가구 - 기타가구"},{"name":"쥬단학(박인숙)","tel":"031-541-8807","addr":"경기도 포천시 선단동 502-6 2층","category":"보건위생 - 화장품"},{"name":"칠성매점","tel":"031-544-1177","addr":"경기도 포천시 선단동 502-6번지 칠성빌딩 지하1층","category":"음료식품 - 기타음료식품"},{"name":"컴바이컴포천점","tel":"031-541-4931","addr":"경기도 포천시 선단동 502-6","category":"사무통신 - 컴퓨터"},{"name":"한일공사","tel":"031-531-0114","addr":"경기도 포천시 선단동 502-6번지 칠성빌딩 101호","category":"전기제품 - 냉열기기"}]},{"lat":"37.858971063","long":"127.17056046","items":[{"name":"(주)홍진","tel":"031-532-8113","addr":"경기도 포천시 선단동 144-5번지","category":"자동차판매 - 이륜차판매"},{"name":"대영트레이드","tel":"031-532-7222","addr":"경기도 포천시 선단동 144-5번지 1층 A동","category":"가구 - 일반가구"},{"name":"성림ENG","tel":"031-532-7444","addr":"경기도 포천시 선단동 144-5번지","category":"기타 - 기계공구"}]},{"lat":"37.853562105","long":"127.16652586","items":[{"name":"21세기미용실","tel":"031-543-7521","addr":"경기도 포천시 선단동 49-4번지","category":"보건위생 - 미용원"},{"name":"21세기미용실","tel":"543-7521","addr":"경기도 포천시 선단동 49-4번지","category":"서비스 - 미용"},{"name":"CH 정보통신","tel":"031-543-9011","addr":"경기도 포천시 선단동 49-4번지","category":"사무통신 - 통신기기"},{"name":"바오밥나무와 술췐보아","tel":"543-5639","addr":"경기도 포천시 선단동 49-4번지","category":"음식 - 한식"},{"name":"바오밥나무와술첸보아","tel":"031-543-5639","addr":"경기도 포천시 선단동 49-4번지","category":"일반휴게음식 - 일반한식"},{"name":"불판위에곱창","tel":"031-541-9740","addr":"경기도 포천시 선단동 49-4번지","category":"일반휴게음식 - 일반한식"},{"name":"주식회사 셈틀정보통신","tel":"031-541-9782","addr":"경기도 포천시 선단동 49-4번지","category":"사무통신 - 통신기기"},{"name":"창고","tel":"070-4131-9011","addr":"경기도 포천시 선단동 49-4번지 1층","category":"의류 - 정장"}]},{"lat":"37.853950011","long":"127.16616311","items":[{"name":"ANY(애니)","tel":"031-541-4440","addr":"경기도 포천시 선단동 52-1번지 지하1층","category":"일반휴게음식 - 서양음식"},{"name":"달뜰이식당","tel":"543-3730","addr":"경기도 포천시 선단동 52-1번지","category":"음식 - 한식"},{"name":"달뜰이식당","tel":"031-543-3730","addr":"경기도 포천시 선단동 52-1번지","category":"일반휴게음식 - 일반한식"},{"name":"대진노래연습장","tel":"031-544-0169","addr":"경기도 포천시 선단동 52-1번지 지하","category":"레저업소 - 노 래 방"},{"name":"대진당구장","tel":"-","addr":"경기도 포천시 선단동 52-1번지","category":"서비스 - 당구장"},{"name":"대진당구장","tel":"031-542-1834","addr":"경기도 포천시 선단동 52-1번지 3층","category":"레저업소 - 당 구 장"},{"name":"도리돈 대진대점","tel":"031-543-2040","addr":"경기도 포천시 선단동 52-1번지","category":"일반휴게음식 - 일반한식"},{"name":"명랑시대쌀핫도그(대진대점)","tel":"","addr":"경기도 포천시 선단동 52-1번지","category":"일반휴게음식 - 스넥"},{"name":"수&가이헤어샵","tel":"031-542-9533","addr":"경기도 포천시 선단동 52-1번지","category":"보건위생 - 미용원"},{"name":"이엽한의원","tel":"031-544-2277","addr":"경기도 포천시 선단동 52-1번지 2층","category":"의원 - 한의원"},{"name":"쥬씨 대진대점","tel":"031-543-1028","addr":"경기도 포천시 선단동 52-1번지","category":"일반휴게음식 - 서양음식"},{"name":"쥬씨포천대진대점","tel":"543-1028","addr":"경기도 포천시 선단동 52-1번지","category":"음식 - 커피 등"},{"name":"팀스트라익","tel":"542-2043","addr":"경기도 포천시 선단동 52-1번지","category":"교육서비스 - 주짓수,복싱,합기도"},{"name":"팀스트라익 주짓수,킥복싱,합기도","tel":"031-535-0825","addr":"경기도 포천시 선단동 52-1번지 4층","category":"레저업소 - 헬스클럽"}]},{"lat":"37.852831651","long":"127.16702419","items":[{"name":"BB미용실","tel":"","addr":"경기도 포천시 선단동 34번지 허브캐슬2차 101동 102호","category":"서비스 - 미용"},{"name":"BB미용실","tel":"031-1577-9005","addr":"경기도 포천시 선단동 34번지 허브캐슬2차빌라 1층 101호","category":"보건위생 - 미용원"},{"name":"세븐일레븐포천선단마을점","tel":"031-1577-0711","addr":"경기도 포천시 선단동 34번지 허브캐슬 103동 101호 102호","category":"유통업 영리 - 편 의 점"},{"name":"세븐일레븐포천선단마을점","tel":"534-3784","addr":"경기도 포천시 선단동 34번지 103동 101호","category":"소매업 - 편의점"},{"name":"신짱돌 국물 떡볶이","tel":"031-542-3555","addr":"경기도 포천시 선단동 34번지 허브캐슬2차 101동 101호","category":"일반휴게음식 - 스넥"},{"name":"신짱돌국물떡볶기","tel":"","addr":"경기도 포천시 선단동 34번지 허브캐슬2차 101동","category":"음식 - 분식"},{"name":"지니앤퍼니","tel":"031-543-5123","addr":"경기도 포천시 선단동 34번지 102동 1층 102호","category":"여행 - 관광여행"}]},{"lat":"37.856977577","long":"127.16586299","items":[{"name":"CU포천대진대원룸제일점","tel":"","addr":"경기도 포천시 선단동 115-2번지","category":"소매업 - 편의점"},{"name":"씨유대진대원룸제일점","tel":"031-531-2221","addr":"경기도 포천시 선단동 115-2번지 1층","category":"유통업 영리 - 편 의 점"},{"name":"주식회사 토이앤바이크","tel":"031-534-3515","addr":"경기도 포천시 선단동 115-2번지","category":"서적문구 - 완구점"}]},{"lat":"37.854112872","long":"127.16566351","items":[{"name":"DJ 코인 노래 연습장","tel":"031-541-9740","addr":"경기도 포천시 선단동 53-1번지 1층","category":"레저업소 - 노 래 방"},{"name":"고기명가","tel":"031-543-2202","addr":"경기도 포천시 선단동 53-1번지 1층","category":"일반휴게음식 - 일반한식"},{"name":"고기명가","tel":"543-2202","addr":"경기도 포천시 선단동 53-1번지 1층","category":"음식 - 한식"}]},{"lat":"37.850726786","long":"127.15791845","items":[{"name":"FL furniture","tel":"031-542-4071","addr":"경기도 포천시 선단동 573-5번지","category":"가구 - 일반가구"}]},{"lat":"37.855948316","long":"127.16744017","items":[{"name":"GS25대진대사랑점","tel":"","addr":"경기도 포천시 선단동 96번지 외1필지 다동","category":"유통업 영리 - 편 의 점"},{"name":"GS25대진대사랑점","tel":"031-542-2562","addr":"경기도 포천시 선단동 96번지 외 1필지 다동","category":"편의점 - 편의점"}]},{"lat":"37.854724593","long":"127.15969941","items":[{"name":"GS25선단로드점","tel":"","addr":"경기도 포천시 선단동 634번지","category":"유통업 영리 - 편 의 점"},{"name":"다원","tel":"031-544-2455","addr":"경기도 포천시 선단동 634번지 1층","category":"일반휴게음식 - 일반한식"}]},{"lat":"37.852252567","long":"127.16227344","items":[{"name":"GS25선단유락점","tel":"","addr":"경기도 포천시 선단동 460-27번지 1층 101호","category":"유통업 영리 - 편 의 점"},{"name":"GS25선단유락점","tel":"031-544-7485","addr":"경기도 포천시 선단동 460-27번지 1층 101호","category":"편의점 - 편의점"},{"name":"GS선단유락점","tel":"544-7485","addr":"경기도 포천시 선단동 460-27번지 1층","category":"소매업 - 편의점"}]},{"lat":"37.854256282","long":"127.16619788","items":[{"name":"GS25포천대진대","tel":"-","addr":"경기도 포천시 선단동 55-1번지","category":"편의점 - 편의점"},{"name":"gs대진대점","tel":"544-1896","addr":"경기도 포천시 선단동 55-1번지","category":"편의점 - 잡화"},{"name":"달려라봉쥬비어(대진대점)","tel":"031-542-2978","addr":"경기도 포천시 선단동 55-1번지 2층 3호","category":"일반휴게음식 - 주점"},{"name":"대진사진관","tel":"031-542-6368","addr":"경기도 포천시 선단동 55-1번지","category":"광학제품 - 사진관"},{"name":"명인치과의원","tel":"031-542-2275","addr":"경기도 포천시 선단동 55-1 3층","category":"의원 - 치과의원"},{"name":"봉구스밥버거 대진대점","tel":"031-542-0905","addr":"경기도 포천시 선단동 55-1번지","category":"일반휴게음식 - 일반한식"},{"name":"봉쥬비어대진대점","tel":"542-2978","addr":"경기도 포천시 선단동 55-1번지","category":"음식 - 호프"},{"name":"서울최내과의원","tel":"031-542-8252","addr":"경기도 포천시 선단동 55-1번지 4층 3호","category":"의원 - 의원"},{"name":"수스킨케어","tel":"031-544-6277","addr":"경기도 포천시 선단동 55-1번지 현진빌딩 4층","category":"회원제형태 - 기타4"},{"name":"커피마마 대진대점","tel":"541-5090","addr":"경기도 포천시 선단동 55-1번지 1층","category":"음식 - 커피 등"},{"name":"커피마마(대진대점)","tel":"031-541-5090","addr":"경기도 포천시 선단동 55-1번지","category":"일반휴게음식 - 서양음식"},{"name":"해피로 PC","tel":"070-5705-2468","addr":"경기도 포천시 선단동 55-1번지 한진빌딩 3층 3호","category":"레저업소 - 기타레져업소"},{"name":"희망약국","tel":"544-8273","addr":"경기도 포천시 선단동 55-1번지 현진빌딩 1층","category":"보건업 - 약국"},{"name":"희망약국","tel":"031-544-8273","addr":"경기도 포천시 선단동 55-1번지 현진빌딩 1층","category":"약국 - 약국"}]},{"lat":"37.852752946","long":"127.16530829","items":[{"name":"GS25포천선단점","tel":"031-543-0728","addr":"경기도 포천시 선단동 491-1번지","category":"편의점 - 편의점"},{"name":"GS25포천선단점","tel":"","addr":"경기도 포천시 선단동 491-1번지","category":"유통업 영리 - 편 의 점"}]},{"lat":"37.851696663","long":"127.16688533","items":[{"name":"GS25포천세창점","tel":"","addr":"경기도 포천시 선단동 38-6번지","category":"유통업 영리 - 편 의 점"},{"name":"GS25포천세창점","tel":"031-542-6295","addr":"경기도 포천시 선단동 38-6번지","category":"편의점 - 편의점"}]},{"lat":"37.853671099","long":"127.16588979","items":[{"name":"J&J헤어","tel":"031-541-6804","addr":"경기도 포천시 선단동 52-3번지","category":"보건위생 - 미용원"},{"name":"J&J헤어","tel":"541-6804","addr":"경기도 포천시 선단동 52-3번지","category":"서비스 - 미용"},{"name":"뉴강남노래연습장","tel":"031-544-3447","addr":"경기도 포천시 선단동 52-3번지","category":"레저업소 - 노 래 방"},{"name":"또래오래","tel":"031-543-8978","addr":"경기도 포천시 선단동 52-3번지","category":"일반휴게음식 - 서양음식"},{"name":"번개맞은참새","tel":"541-1270","addr":"경기도 포천시 선단동 52-3번지","category":"음식 - 한식"},{"name":"선단떡방앗간","tel":"542-3525","addr":"경기도 포천시 선단동 52-3번지","category":"제조업 - 떡집"},{"name":"선단떡방앗간","tel":"031-542-3525","addr":"경기도 포천시 선단동 52-3번지","category":"음료식품 - 제과점"},{"name":"순대곱창전문점","tel":"031-541-1270","addr":"경기도 포천시 선단동 52-3번지","category":"일반휴게음식 - 일반한식"},{"name":"초이스","tel":"031-544-1025","addr":"경기도 포천시 선단동 52-3번지 3층","category":"보건위생 - 기타대인서비스"},{"name":"토토(TOTO)","tel":"070-4038-1729","addr":"경기도 포천시 선단동 52-3번지 2층","category":"일반휴게음식 - 주점"}]},{"lat":"37.856669634","long":"127.1670327","items":[{"name":"K크린 경기북부","tel":"031-1670-8839","addr":"경기도 포천시 선단동 110-2번지 1동 302호","category":"용역 서비스 - 종합용역"},{"name":"스타 인테리어","tel":"031-535-3991","addr":"경기도 포천시 선단동 110-2번지 103동 502호","category":"건축자재 - 인테리어전문"},{"name":"이쁜남자","tel":"031-1111-1111","addr":"경기도 포천시 선단동 110-2번지 1동 301호","category":"의류 - 정장"}]},{"lat":"37.848837019","long":"127.1630046","items":[{"name":"L.S.P(엘에스피)","tel":"031-536-9595","addr":"경기도 포천시 선단동 526-4번지","category":"자동차정비 유지 - 자동차부품"},{"name":"벼룩가전중고할인마트","tel":"031-544-0789","addr":"경기도 포천시 선단동 526-4","category":"전기제품 - 기타전기제품"},{"name":"주식회사오엠지(OMG.Kr)","tel":"031-544-1212","addr":"경기도 포천시 선단동 526-4번지 외1필지","category":"신변잡화 - 기타잡화"}]},{"lat":"37.856583232","long":"127.1643622","items":[{"name":"MS헤어","tel":"031-535-9004","addr":"경기도 포천시 선단동 401-7번지 1층","category":"보건위생 - 미용원"},{"name":"술을부르는시간","tel":"031-536-7064","addr":"경기도 포천시 선단동 401-7번지","category":"일반휴게음식 - 주점"},{"name":"진미 옛날 통닭","tel":"031-544-0799","addr":"경기도 포천시 선단동 401-7번지 1층","category":"일반휴게음식 - 스넥"}]},{"lat":"37.847838335","long":"127.16200262","items":[{"name":"OK스팀케어","tel":"070-8805-2955","addr":"경기도 포천시 선단동 529-4번지 2호","category":"자동차정비 유지 - 세차장"},{"name":"cu포천로드점","tel":"070-7722-3032","addr":"경기도 포천시 선단동 529-4번지","category":"소매업 - 편의점"},{"name":"강남태양열 포천점","tel":"031-544-0527","addr":"경기도 포천시 선단동 529-4번지 1층 8호","category":"건축자재 - 보일러·펌프·샷시"},{"name":"배건축사사무소","tel":"031-542-1055","addr":"경기도 포천시 선단동 529-4번지","category":"용역 서비스 - 사무서비스"},{"name":"씨유포천로드점","tel":"070-7722-3032","addr":"경기도 포천시 선단동 529-4번지 1층 4,5호","category":"유통업 영리 - 편 의 점"},{"name":"청룡Sports","tel":"031-544-0991","addr":"경기도 포천시 선단동 529-4번지 1층 1호","category":"레져용품 - 스포츠·레져용품"}]},{"lat":"37.862531429","long":"127.15611358","items":[{"name":"Q메이디","tel":"","addr":"경기도 포천시 선단동 289-1번지","category":"음식 - 커피 등"},{"name":"Q수랏간웰빙보리밥","tel":"031-542-7742","addr":"경기도 포천시 선단동 289-1번지 1층","category":"일반휴게음식 - 일반한식"},{"name":"김다네일","tel":"","addr":"경기도 포천시 선단동 289-1번지","category":"보건위생 - 피부미용실"},{"name":"블랙홀떡볶이전문점","tel":"031-543-1652","addr":"경기도 포천시 선단동 289-1번지 가동 1층","category":"일반휴게음식 - 일반한식"},{"name":"세간가구장식","tel":"031-541-6265","addr":"경기도 포천시 선단동 289-1번지","category":"가구 - 기타가구"},{"name":"퀸메이드(Queen made)","tel":"","addr":"경기도 포천시 선단동 289-1번지 4호,5호","category":"일반휴게음식 - 서양음식"},{"name":"큐 수랏간웰빙보리밥","tel":"542-7742","addr":"경기도 포천시 선단동 289-1번지","category":"음식 - 한식"},{"name":"태창조명","tel":"542-8777","addr":"경기도 포천시 선단동 289-1","category":"도소매 - 조명기구"}]},{"lat":"37.853221009","long":"127.1656161","items":[{"name":"S헤어","tel":"","addr":"경기도 포천시 선단동 52-14번지 1층","category":"보건위생 - 미용원"},{"name":"광어2마리15,000원","tel":"031-541-9392","addr":"경기도 포천시 선단동 52-14번지 1층","category":"일반휴게음식 - 일반한식"},{"name":"목우(두번째이야기)","tel":"031-542-0883","addr":"경기도 포천시 선단동 52-14번지","category":"일반휴게음식 - 주점"}]},{"lat":"37.859219739","long":"127.15319768","items":[{"name":"Y.B헤어","tel":"543-9671","addr":"경기도 포천시 선단동 790-2번지","category":"서비스 - 미용"},{"name":"Y.B헤어","tel":"031-543-0633","addr":"경기도 포천시 선단동 790-2번지 1층","category":"보건위생 - 미용원"},{"name":"석순이식당","tel":"031-544-6570","addr":"경기도 포천시 선단동 790-2번지","category":"일반휴게음식 - 일반한식"}]},{"lat":"37.852140889","long":"127.16488654","items":[{"name":"가구마트","tel":"031-542-7366","addr":"경기도 포천시 선단동 493-11","category":"가구 - 일반가구"}]},{"lat":"37.857442274","long":"127.16857981","items":[{"name":"가람매운탕","tel":"532-3022","addr":"경기도 포천시 선단동 104-3번지","category":"음식 - 한식"},{"name":"사천성","tel":"031-536-2641","addr":"경기도 포천시 선단동 104-3번지","category":"일반휴게음식 - 중국식"},{"name":"서울순대국","tel":"541-6442","addr":"경기도 포천시 선단동 104-3번지","category":"음식 - 한식"},{"name":"서울순대국","tel":"031-541-6442","addr":"경기도 포천시 선단동 104-3번지","category":"일반휴게음식 - 일반한식"},{"name":"최가네","tel":"031-532-3022","addr":"경기도 포천시 선단동 104-3번지","category":"일반휴게음식 - 일반한식"}]},{"lat":"37.858332614","long":"127.16321832","items":[{"name":"가전박사","tel":"031-541-4971","addr":"경기도 포천시 선단동 379번지 한양빌라5차 B층 303호","category":"수리서비스 - 가정용품수리"}]},{"lat":"37.850225416","long":"127.16230316","items":[{"name":"감초건강원","tel":"031-543-0982","addr":"경기도 포천시 선단동 539-2번지 나동","category":"건강식품 - 기타건강식품"},{"name":"두리치킨","tel":"542-7741","addr":"경기도 포천시 선단동 539-2번지","category":"음식 - 치킨"},{"name":"두리치킨","tel":"031-542-7741","addr":"경기도 포천시 선단동 539-2번지 가동","category":"일반휴게음식 - 스넥"},{"name":"서당골","tel":"","addr":"경기도 포천시 선단동 539-2번지","category":"음식 - 한식"},{"name":"선단회","tel":"02-1111-1111","addr":"경기도 포천시 선단동 539-2번지 나동 1층 4호,5호","category":"일반휴게음식 - 일반한식"},{"name":"숑아지정육점","tel":"031-665-7655","addr":"경기도 포천시 선단동 539-2번지","category":"음료식품 - 정육점"},{"name":"해룡약초능이해신탕","tel":"","addr":"경기도 포천시 선단동 539-2번지","category":"음식 - 한식"}]},{"lat":"37.85753062","long":"127.15658048","items":[{"name":"개그스토리마트 포천선단점","tel":"031-531-0656","addr":"경기도 포천시 선단동 669-6번지","category":"유통업 영리 - 편 의 점"}]},{"lat":"37.85642083","long":"127.16453229","items":[{"name":"거기!","tel":"","addr":"경기도 포천시 선단동 406-2번지 1층 103호","category":"의류 - 정장"}]},{"lat":"37.857502089","long":"127.1577281","items":[{"name":"건승금속","tel":"031-543-0211","addr":"경기도 포천시 선단동 681번지","category":"기타 - 기타 전문점"},{"name":"대영도금","tel":"031-541-4253","addr":"경기도 포천시 선단동 681번지","category":"기타 - 기계공구"}]},{"lat":"37.849999612","long":"127.16272307","items":[{"name":"건양축산","tel":"031-546-9202","addr":"경기도 포천시 선단동 536번지","category":"음료식품 - 정육점"},{"name":"에이마트 불날리할인마트","tel":"031-541-7570","addr":"경기도 포천시 선단동 536번지","category":"유통업 영리 - 슈퍼마켓"},{"name":"에이마트불날리할인마트","tel":"541-7570","addr":"경기도 포천시 선단동 536번지","category":"도소매 - 잡화"}]},{"lat":"37.865472513","long":"127.15989265","items":[{"name":"건호산업","tel":"031-536-4027","addr":"경기도 포천시 선단동 299-13번지","category":"음료식품 - 농·축·수산품"}]},{"lat":"37.857891454","long":"127.15622897","items":[{"name":"겆절이식당","tel":"031-542-0231","addr":"경기도 포천시 선단동 669-3번지 1층","category":"일반휴게음식 - 일반한식"}]},{"lat":"37.856478034","long":"127.16874809","items":[{"name":"경원비니루","tel":"031-543-5280","addr":"경기도 포천시 선단동 82-10번지","category":"기타 - 기타 전문점"},{"name":"동화포장","tel":"031-543-8148","addr":"경기도 포천시 선단동 82-10번지","category":"기타 - 기타 전문점"},{"name":"동화포장","tel":"543-8148","addr":"경기도 포천시 선단동 82-10번지","category":"도소매 - 포장재료"}]},{"lat":"37.853862191","long":"127.15781139","items":[{"name":"고고","tel":"031-827-9288","addr":"경기도 포천시 선단동 605-3번지 쌍용전원빌라 101호","category":"의류 - 정장"}]},{"lat":"37.856366402","long":"127.15811207","items":[{"name":"고담","tel":"031-543-9688","addr":"경기도 포천시 선단동 685-4번지 1층","category":"일반휴게음식 - 주점"},{"name":"이레설비","tel":"034-543-4344","addr":"경기도 포천시 선단동 685-4번지","category":"수리서비스 - 기타수리서비스"},{"name":"향토식당","tel":"031-542-2528","addr":"경기도 포천시 선단동 685-4","category":"일반휴게음식 - 일반한식"},{"name":"향토식당","tel":"542-2528","addr":"경기도 포천시 선단동 685-4","category":"음식 - 한식"}]},{"lat":"37.850556986","long":"127.16361052","items":[{"name":"고대산건강원","tel":"031-543-1747","addr":"경기도 포천시 선단동 499-1번지","category":"건강식품 - 기타건강식품"},{"name":"한도상사","tel":"031-541-0089","addr":"경기도 포천시 선단동 499-1번지","category":"자동차정비 유지 - 자동차부품"}]},{"lat":"37.860557722","long":"127.14955266","items":[{"name":"곤지암할매소머리국밥","tel":"543-3224","addr":"경기도 포천시 선단동 814-2번지","category":"음식 - 한식"},{"name":"곤지암할매소머리국밥","tel":"031-541-0224","addr":"경기도 포천시 선단동 814-2번지","category":"일반휴게음식 - 일반한식"}]},{"lat":"37.859886547","long":"127.15310812","items":[{"name":"골든슈퍼","tel":"542-1654","addr":"경기도 포천시 선단동 787","category":"소매업 - 잡"},{"name":"골든슈퍼","tel":"031-542-1654","addr":"경기도 포천시 선단동 787번지","category":"유통업 영리 - 슈퍼마켓"}]},{"lat":"37.856145199","long":"127.16838373","items":[{"name":"광림레저낚시","tel":"031-535-1466","addr":"경기도 포천시 선단동 82-6번지","category":"레져용품 - 스포츠·레져용품"},{"name":"송추부일 부대찌개","tel":"542-5298","addr":"경기도 포천시 선단동 82-6번지 1층","category":"음식 - 한식"},{"name":"송추부일 부대찌개","tel":"070-1234-5678","addr":"경기도 포천시 선단동 82-6번지 1층","category":"일반휴게음식 - 일반한식"},{"name":"쌍용공인중개사무소","tel":"543-8944","addr":"경기도 포천시 선단동 82-6번지","category":"부동산 - 부동산중개업"},{"name":"엘리트자동차공업사","tel":"543-4414","addr":"경기도 포천시 선단동 82-6번지","category":"서비스 - 자동차 수리"},{"name":"엘리트자동차공업사","tel":"031-543-4414","addr":"경기도 포천시 선단동 82-6번지","category":"자동차정비 유지 - 자동차정비"},{"name":"일등종합설비","tel":"031-541-3505","addr":"경기도 포천시 선단동 82-6번지","category":"용역 서비스 - 기타용역서비스"},{"name":"일출광고","tel":"031-542-1088","addr":"경기도 포천시 선단동 82-6번지","category":"용역 서비스 - 종합용역"},{"name":"해린광고기획","tel":"031-544-9239","addr":"경기도 포천시 선단동 82-6번지","category":"용역 서비스 - 종합용역"}]},{"lat":"37.852220971","long":"127.16561391","items":[{"name":"굿맨 남성 커트","tel":"02-1111-1111","addr":"경기도 포천시 선단동 41번지","category":"보건위생 - 미용원"},{"name":"굿맨남성커드","tel":"542-5072","addr":"경기도 포천시 선단동 41번지","category":"서비스 - 미용"},{"name":"깡돈선단점","tel":"542-7964","addr":"경기도 포천시 선단동 41번지","category":"음식 - 한식"},{"name":"미니스톱포천세창점","tel":"031-1577-9621","addr":"경기도 포천시 선단동 41번지","category":"유통업 영리 - 편 의 점"},{"name":"빨간토마토피자","tel":"031-543-6031","addr":"경기도 포천시 선단동 41번지","category":"일반휴게음식 - 서양음식"},{"name":"아싸노래연습장","tel":"031-535-0825","addr":"경기도 포천시 선단동 41번지","category":"레저업소 - 노 래 방"},{"name":"영순네 돼지국밥집","tel":"031-534-1234","addr":"경기도 포천시 선단동 41번지","category":"일반휴게음식 - 일반한식"}]},{"lat":"37.850840301","long":"127.16063424","items":[{"name":"귀뚜라미보일러","tel":"","addr":"경기도 포천시 선단동 543-2번지 청솔빌라 104동 202호","category":"용역 서비스 - 기타용역서비스"},{"name":"도시 하우징","tel":"02-1688-0914","addr":"경기도 포천시 선단동 543-2번지 삼보한솔빌라 103동 103호","category":"수리서비스 - 기타수리서비스"},{"name":"삼성올인원","tel":"070-8775-9645","addr":"경기도 포천시 선단동 543-2번지 삼보한솔빌라 102동 301호","category":"수리서비스 - 사무·통신기기수리"}]},{"lat":"37.848198295","long":"127.16231016","items":[{"name":"귀뚜라미용ENG","tel":"031-544-0707","addr":"경기도 포천시 선단동 529-1번지","category":"건축자재 - 보일러·펌프·샷시"},{"name":"대복만물사","tel":"031-542-0962","addr":"경기도 포천시 선단동 529-1번지","category":"신변잡화 - 기념품점"},{"name":"신세계광고기획","tel":"031-542-4276","addr":"경기도 포천시 선단동 529-1번지","category":"용역 서비스 - 종합용역"},{"name":"주연테크컴퓨터 대진대점","tel":"031-542-1767","addr":"경기도 포천시 선단동 529-1번지","category":"사무통신 - 컴퓨터"},{"name":"투명한 복자네만두","tel":"","addr":"경기도 포천시 선단동 529-1번지 1층","category":"음식 - 분식"},{"name":"투명한복자네만두","tel":"031-541-2252","addr":"경기도 포천시 선단동 529-1번지 1층","category":"일반휴게음식 - 일반한식"}]},{"lat":"37.860697957","long":"127.15958707","items":[{"name":"그라찌에 남자기숙사점","tel":"031-539-1444","addr":"경기도 포천시 선단동 734-1번지 2층 남자기숙사동","category":"일반휴게음식 - 서양음식"}]},{"lat":"37.856645306","long":"127.17149833","items":[{"name":"그라찌에-대진대학생회관","tel":"031-267-2964","addr":"경기도 포천시 선단동 11번지 학생회관 1층","category":"일반휴게음식 - 서양음식"},{"name":"대진대학교구내문구사","tel":"031-539-1417","addr":"경기도 포천시 선단동 11번지","category":"서적문구 - 문구용품"},{"name":"대진대학구내서점","tel":"031-539-1414","addr":"경기도 포천시 선단동 11번지","category":"서적문구 - 일반서적"}]},{"lat":"37.853419026","long":"127.16575289","items":[{"name":"그랜드고기고기","tel":"542-5242","addr":"경기도 포천시 선단동 52-7번지","category":"음식 - 한식"},{"name":"그랜드고기고기","tel":"031-542-5242","addr":"경기도 포천시 선단동 52-7번지","category":"일반휴게음식 - 일반한식"},{"name":"선희네","tel":"031-544-2700","addr":"경기도 포천시 선단동 52-7번지 1층","category":"일반휴게음식 - 주점"},{"name":"선희네","tel":"544-2700","addr":"경기도 포천시 선단동 52-7번지","category":"음식 - 한식"},{"name":"요기파이어매운갈비찜","tel":"543-4008","addr":"경기도 포천시 선단동 52-7번지 1층","category":"음식 - 한식"},{"name":"퍼줄래생고기","tel":"031-543-4008","addr":"경기도 포천시 선단동 52-7번지","category":"일반휴게음식 - 일반한식"}]},{"lat":"37.852977033","long":"127.16613824","items":[{"name":"그레이스컷팅클럽","tel":"031-542-9861","addr":"경기도 포천시 선단동 45번지","category":"보건위생 - 미용원"},{"name":"산채랑","tel":"541-3385","addr":"경기도 포천시 선단동 45번지","category":"음식 - 한식"},{"name":"산채랑","tel":"031-541-3385","addr":"경기도 포천시 선단동 45번지","category":"일반휴게음식 - 일반한식"},{"name":"인생술집","tel":"031-542-9667","addr":"경기도 포천시 선단동 45번지 1층","category":"일반휴게음식 - 주점"},{"name":"인생술집","tel":"542-9667","addr":"경기도 포천시 선단동 45번지 1층","category":"음식 - 호프"}]},{"lat":"37.851694586","long":"127.16182911","items":[{"name":"극동F/A","tel":"031-543-9414","addr":"경기도 포천시 선단동 454번지","category":"자동차정비 유지 - 자동차정비"}]},{"lat":"37.850972885","long":"127.16253201","items":[{"name":"금산약초이야기","tel":"031-543-2925","addr":"경기도 포천시 선단동 537-7번지 1층","category":"건강식품 - 기타건강식품"}]},{"lat":"37.859197797","long":"127.16950417","items":[{"name":"금정PVC종합상사","tel":"031-535-6848","addr":"경기도 포천시 선단동 135-5번지","category":"건축자재 - 기타건축자재"}]},{"lat":"37.850115869","long":"127.16335959","items":[{"name":"길목","tel":"031-542-7568","addr":"경기도 포천시 선단동 499-8번지","category":"일반휴게음식 - 일반한식"},{"name":"현대이불","tel":"541-3913","addr":"경기도 포천시 선단동 499-8번지","category":"소매업 - 침구류"},{"name":"현대이불","tel":"031-541-3913","addr":"경기도 포천시 선단동 499-8번지","category":"직물 - 침구·수예점"},{"name":"현대커텐","tel":"031-541-3913","addr":"경기도 포천시 선단동 499-8번지","category":"직물 - 카페트,커튼,천막,지물"}]},{"lat":"37.854030164","long":"127.16683368","items":[{"name":"김기원식당","tel":"031-543-4892","addr":"경기도 포천시 선단동 56-2번지","category":"일반휴게음식 - 일반한식"},{"name":"김기원식당","tel":"543-4892","addr":"경기도 포천시 선단동 56-2번지","category":"음식 - 한식"},{"name":"대진 정육점","tel":"031-859-6667","addr":"경기도 포천시 선단동 56-2번지","category":"음료식품 - 정육점"},{"name":"대진생고기식당","tel":"031-859-6667","addr":"경기도 포천시 선단동 56-2번지","category":"일반휴게음식 - 일반한식"},{"name":"대진정육점","tel":"543-5138","addr":"경기도 포천시 선단동 56-2번지","category":"소매업 - 축산물"},{"name":"세진공인중개사무소","tel":"543-3072","addr":"경기도 포천시 선단동 56-2번지","category":"부동산 - 부동산중개업"},{"name":"세진공인중개사사무소","tel":"031-543-3072","addr":"경기도 포천시 선단동 56-2번지","category":"용역 서비스 - 부동산 중개·임대"},{"name":"옛날통닭&닭강정","tel":"543-9949","addr":"경기도 포천시 선단동 56-2번지","category":"음식 - 치킨"},{"name":"옛날통닭닭강정","tel":"","addr":"경기도 포천시 선단동 56-2번지","category":"일반휴게음식 - 스넥"},{"name":"카페블롱쉬","tel":"541-7198","addr":"경기도 포천시 선단동 56-2번지","category":"음식 - 제과"},{"name":"카페블롱쉬","tel":"031-541-7198","addr":"경기도 포천시 선단동 56-2번지 1층","category":"음료식품 - 제과점"},{"name":"패션세탁소","tel":"031-543-5585","addr":"경기도 포천시 선단동 56-2번지","category":"수리서비스 - 세탁소"}]},{"lat":"37.854281999","long":"127.16714104","items":[{"name":"김애옥할매순대국밥&감자탕","tel":"031-543-5883","addr":"경기도 포천시 선단동 57번지","category":"일반휴게음식 - 일반한식"},{"name":"김애옥할매순대국밥.감자탕","tel":"543-5884","addr":"경기도 포천시 선단동 57번지","category":"음식 - 한식"},{"name":"대진종합자동차공업사","tel":"031-543-8204","addr":"경기도 포천시 선단동 57번지","category":"자동차정비 유지 - 자동차정비"},{"name":"호식이두마리치킨 선단점","tel":"544-9256","addr":"경기도 포천시 선단동 57번지","category":"음식 - 치킨등"},{"name":"호식이두마리치킨선단점","tel":"031-544-9256","addr":"경기도 포천시 선단동 57번지 가동 1층","category":"일반휴게음식 - 스넥"}]},{"lat":"37.852450881","long":"127.16219433","items":[{"name":"까끌레뽀끌레2호점","tel":"031-544-7919","addr":"경기도 포천시 선단동 460-2번지","category":"보건위생 - 미용원"}]},{"lat":"37.852364271","long":"127.16622779","items":[{"name":"깡돈 선단점","tel":"031-542-7964","addr":"경기도 포천시 선단동 41-2번지","category":"일반휴게음식 - 일반한식"}]},{"lat":"37.855059465","long":"127.16522245","items":[{"name":"꽃사랑","tel":"031-541-1933","addr":"경기도 포천시 선단동 426-2번지","category":"문화.취미 - 화원"}]},{"lat":"37.855032202","long":"127.16539283","items":[{"name":"꽃사랑","tel":"541-1933","addr":"경기도 포천시 선단동 426-11","category":"소매업 - 생화"}]},{"lat":"37.85316604","long":"127.16627501","items":[{"name":"꿈의대화","tel":"031-542-8510","addr":"경기도 포천시 선단동 45-2번지","category":"일반휴게음식 - 주점"},{"name":"등심가","tel":"543-3399","addr":"경기도 포천시 선단동 45-2번지","category":"음식 - 한식"},{"name":"등심가","tel":"031-543-3399","addr":"경기도 포천시 선단동 45-2번지","category":"일반휴게음식 - 일반한식"},{"name":"선단중앙통신","tel":"031-544-8949","addr":"경기도 포천시 선단동 45-2","category":"사무통신 - 통신기기"},{"name":"신성안경","tel":"031-542-6789","addr":"경기도 포천시 선단동 45-2번지","category":"보건위생 - 안경"},{"name":"신성안경","tel":"542-6789","addr":"경기도 포천시 선단동 45-2번지","category":"도소매 - 안경점"},{"name":"신성안경","tel":"542-6789","addr":"경기도 포천시 선단동 45-2번지","category":"도소매 - 안경점"},{"name":"영영노래연습장","tel":"031-544-5172","addr":"경기도 포천시 선단동 45-2번지 2층","category":"레저업소 - 노 래 방"},{"name":"해바라기호떡","tel":"543-5914","addr":"경기도 포천시 선단동 45-2번지","category":"음식 - 한식"},{"name":"해바라기호떡","tel":"031-543-5914","addr":"경기도 포천시 선단동 45-2번지","category":"일반휴게음식 - 일반한식"}]},{"lat":"37.858948543","long":"127.15391302","items":[{"name":"남부해장국","tel":"031-542-1743","addr":"경기도 포천시 선단동 790-8, 791-6","category":"일반휴게음식 - 일반한식"}]},{"lat":"37.858858624","long":"127.15377648","items":[{"name":"남부해장국","tel":"542-1743","addr":"경기도 포천시 선단동 791-6번지","category":"음식 - 한식"}]},{"lat":"37.851748259","long":"127.16211328","items":[{"name":"남성컷전문점","tel":"031-543-6440","addr":"경기도 포천시 선단동 458-2번지","category":"보건위생 - 미용원"},{"name":"더 감성헤어","tel":"542-2261","addr":"경기도 포천시 선단동 458-2번지","category":"서비스 - 미용"},{"name":"명품아구찜","tel":"031-531-6997","addr":"경기도 포천시 선단동 458-2번지 1층","category":"일반휴게음식 - 일반한식"},{"name":"열빈","tel":"534-5349","addr":"경기도 포천시 선단동 458-2번지","category":"음식 - 한식"}]},{"lat":"37.849423244","long":"127.16255139","items":[{"name":"노블하우스(NBH)","tel":"070-7886-9181","addr":"경기도 포천시 선단동 534번지 (1호)","category":"직물 - 침구·수예점"},{"name":"제이앤제이(J&J)","tel":"031-535-9431","addr":"경기도 포천시 선단동 534번지 1호","category":"전기제품 - 기타전기제품"}]},{"lat":"37.855166655","long":"127.15924584","items":[{"name":"노아설비","tel":"031-543-9090","addr":"경기도 포천시 선단동 635-2번지","category":"용역 서비스 - 기타용역서비스"},{"name":"셀레브헤어","tel":"031-715-4114","addr":"경기도 포천시 선단동 635-2번지","category":"보건위생 - 미용원"},{"name":"전주 가 생선모듬조림","tel":"031-543-1555","addr":"경기도 포천시 선단동 635-2번지 1층","category":"일반휴게음식 - 일반한식"},{"name":"진주가생선모듬조림","tel":"543-1555","addr":"경기도 포천시 선단동 635-2번지","category":"음식 - 한식"}]},{"lat":"37.858692203","long":"127.15706015","items":[{"name":"논두렁바베큐","tel":"031-541-1447","addr":"경기도 포천시 선단동 716번지","category":"일반휴게음식 - 일반한식"}]},{"lat":"37.857531107","long":"127.16297795","items":[{"name":"놀터","tel":"","addr":"경기도 포천시 선단동 376번지 2층","category":"일반휴게음식 - 서양음식"}]},{"lat":"37.856059935","long":"127.15822506","items":[{"name":"누네띠네","tel":"031-543-2871","addr":"경기도 포천시 선단동 643번지","category":"의류 - 정장"}]},{"lat":"37.849754921","long":"127.1637792","items":[{"name":"뉴선단공인중개사무소","tel":"544-8924","addr":"경기도 포천시 선단동 511-3번지","category":"부동산 - 부동산중개업"},{"name":"둥이닭갈비","tel":"070-3462-8386","addr":"경기도 포천시 선단동 511-3번지 상하빌딩 1층","category":"일반휴게음식 - 일반한식"},{"name":"엣지노래연습장","tel":"031-544-3991","addr":"경기도 포천시 선단동 511-3번지","category":"레저업소 - 노 래 방"}]},{"lat":"37.856571968","long":"127.16599845","items":[{"name":"뉴일출광고기획","tel":"031-542-1088","addr":"경기도 포천시 선단동 112-1번지 신진빌라2차 가동 203호","category":"용역 서비스 - 사무서비스"}]},{"lat":"37.856421309","long":"127.15044215","items":[{"name":"다비드비스트로$리차드","tel":"031-543-0229","addr":"경기도 포천시 선단동 834-16번지 1층","category":"일반휴게음식 - 서양음식"},{"name":"다비드비스트로$리차드","tel":"543-0229","addr":"경기도 포천시 선단동 834-16번지 1층","category":"음식 - 양식"},{"name":"선단전집","tel":"031-542-8292","addr":"경기도 포천시 선단동 834-16번지","category":"일반휴게음식 - 일반한식"},{"name":"윤'S옛날치킨&호프","tel":"541-2007","addr":"경기도 포천시 선단동 834-16번지 1층","category":"음식 - 치킨"},{"name":"윤's옛날치킨&호프","tel":"031-541-2007","addr":"경기도 포천시 선단동 834-16번지","category":"일반휴게음식 - 스넥"}]},{"lat":"37.854499188","long":"127.16644839","items":[{"name":"다비어","tel":"031-543-0953","addr":"경기도 포천시 선단동 55-10번지","category":"일반휴게음식 - 주점"},{"name":"먹거리천국","tel":"031-542-6405","addr":"경기도 포천시 선단동 55-10번지","category":"일반휴게음식 - 일반한식"},{"name":"먹거리천국","tel":"542-6405","addr":"경기도 포천시 선단동 55-10번지","category":"음식 - 한식"},{"name":"순정포차","tel":"031-541-9797","addr":"경기도 포천시 선단동 55-10번지 프리지빌딩","category":"일반휴게음식 - 일반한식"},{"name":"파리바게트","tel":"543-1021","addr":"경기도 포천시 선단동 55-10번지","category":"음식 - 제빵"},{"name":"파리바게트","tel":"031-543-1021","addr":"경기도 포천시 선단동 55-10번지 프리지빌딩","category":"음료식품 - 제과점"},{"name":"프리징노래연습장","tel":"031-541-0290","addr":"경기도 포천시 선단동 55-10번지","category":"레저업소 - 노 래 방"}]},{"lat":"37.85624782","long":"127.16586138","items":[{"name":"다원올","tel":"070-4120-0082","addr":"경기도 포천시 선단동 112-2번지 한양아트빌 103동 401호","category":"회원제형태 - 기타4"}]},{"lat":"37.851780937","long":"127.16457897","items":[{"name":"다육꽃화원","tel":"031-0000-0000","addr":"경기도 포천시 선단동 497-1","category":"문화.취미 - 화원"}]},{"lat":"37.852060756","long":"127.16419326","items":[{"name":"대륙식품","tel":"031-541-5550","addr":"경기도 포천시 선단동 493-4번지","category":"음료식품 - 농·축·수산품"}]},{"lat":"37.850528886","long":"127.16439444","items":[{"name":"대리가설재","tel":"031-535-1254","addr":"경기도 포천시 선단동 508-1번지","category":"건축자재 - 기타건축자재"},{"name":"대리가설재","tel":"535-1254","addr":"경기도 포천시 선단동 508-1번지","category":"도소매 - 건축자재"},{"name":"영진볼트공구","tel":"543-9585","addr":"경기도 포천시 선단동 508-1번지","category":"도소매 - 공구 등"},{"name":"영진볼트공구","tel":"031-543-9585","addr":"경기도 포천시 선단동 508-1번지","category":"기타 - 기계공구"},{"name":"영진종합수출포장","tel":"031-542-1663","addr":"경기도 포천시 선단동 508-1번지","category":"기타 - 기타 전문점"},{"name":"유성레이저","tel":"031-541-3204","addr":"경기도 포천시 선단동 508-1번지","category":"용역 서비스 - 기타용역서비스"}]},{"lat":"37.857782838","long":"127.15661509","items":[{"name":"대명컨테이너","tel":"031-531-0656","addr":"경기도 포천시 선단동 670-1","category":"건축자재 - 기타건축자재"}]},{"lat":"37.863360552","long":"127.1626951","items":[{"name":"대박가든","tel":"031-535-3334","addr":"경기도 포천시 선단동 305-12번지","category":"일반휴게음식 - 일반한식"}]},{"lat":"37.853777237","long":"127.16731035","items":[{"name":"대복떡방앗간","tel":"031-544-3822","addr":"경기도 포천시 선단동 56-7번지","category":"음료식품 - 제과점"},{"name":"회룡닭발","tel":"031-544-6690","addr":"경기도 포천시 선단동 56-7번지","category":"일반휴게음식 - 일반한식"}]},{"lat":"37.850221537","long":"127.16514367","items":[{"name":"대복복전문점","tel":"535-0303","addr":"경기도 포천시 선단동 505-9번지","category":"음식 - 한식"},{"name":"대복복전문점","tel":"031-535-0303","addr":"경기도 포천시 선단동 505-9번지","category":"일반휴게음식 - 일반한식"}]},{"lat":"37.858306976","long":"127.15538894","items":[{"name":"대상웰라이프녹즙","tel":"542-1560","addr":"경기도 포천시 선단동 668-2번지","category":"소매업 - 녹즙"},{"name":"델리헤어샵","tel":"542-5800","addr":"경기도 포천시 선단동 668-2번지","category":"서비스 - 미용"},{"name":"델리헤어샵","tel":"031-542-5800","addr":"경기도 포천시 선단동 668-2번지","category":"보건위생 - 미용원"},{"name":"델리헤어샵","tel":"542-5800","addr":"경기도 포천시 선단동 668-2번지","category":"서비스 - 미용"},{"name":"재훈상사","tel":"031-542-1560","addr":"경기도 포천시 선단동 668-2","category":"건강식품 - 기타건강식품"}]},{"lat":"37.851451057","long":"127.1620331","items":[{"name":"대선수산","tel":"","addr":"경기도 포천시 선단동 540-3번지 허브캐슬 101동 202호","category":"음료식품 - 기타음료식품"}]},{"lat":"37.866031349","long":"127.15970064","items":[{"name":"대성건축","tel":"031-544-3790","addr":"경기도 포천시 선단동 251-3번지 빌라","category":"용역 서비스 - 기타용역서비스"}]},{"lat":"37.851754361","long":"127.1642494","items":[{"name":"대성전자","tel":"031-544-9782","addr":"경기도 포천시 선단동 497-2번지","category":"자동차정비 유지 - 자동차부품"}]},{"lat":"37.857504201","long":"127.16938673","items":[{"name":"대성종합수도","tel":"031-536-2250","addr":"경기도 포천시 선단동 82-16번지","category":"건축자재 - 기타건축자재"},{"name":"대성종합수도","tel":"536-2250","addr":"경기도 포천시 선단동 82-16번지","category":"도소매 - 배관자재 등"},{"name":"코오롱천막","tel":"031-535-6630","addr":"경기도 포천시 선단동 82-16번지","category":"기타 - 기타 전문점"}]},{"lat":"37.853867521","long":"127.16058388","items":[{"name":"대원모터스","tel":"031-000-0000","addr":"경기도 포천시 선단동 439번지","category":"자동차정비 유지 - 자동차부품"}]},{"lat":"37.855444062","long":"127.16724588","items":[{"name":"대원카센타","tel":"031-542-2225","addr":"경기도 포천시 선단동 88-1번지","category":"자동차정비 유지 - 자동차정비"}]},{"lat":"37.859749076","long":"127.14777835","items":[{"name":"대유어패럴","tel":"031-541-6190","addr":"경기도 포천시 선단동 825-14번지","category":"의류 - 정장"}]},{"lat":"37.854806136","long":"127.16599456","items":[{"name":"대진대점 맘스터치","tel":"541-7772","addr":"경기도 포천시 선단동 89-15번지","category":"음식 - 치킨등"},{"name":"대진대점 맘스터치","tel":"031-541-7772","addr":"경기도 포천시 선단동 89-15번지 1,2층","category":"일반휴게음식 - 서양음식"},{"name":"초밥매니아","tel":"544-0977","addr":"경기도 포천시 선단동 89-15번지","category":"음식 - 한식"},{"name":"초밥매니아","tel":"031-1111-1111","addr":"경기도 포천시 선단동 89-15번지 102호","category":"일반휴게음식 - 일반한식"}]},{"lat":"37.853443621","long":"127.16750278","items":[{"name":"대진종합카서비스","tel":"543-1135","addr":"경기도 포천시 선단동 49-11번지","category":"서비스 - 자동차 수리"},{"name":"토속집","tel":"031-543-5836","addr":"경기도 포천시 선단동 49-11번지 1층","category":"일반휴게음식 - 일반한식"},{"name":"토속집","tel":"543-5836","addr":"경기도 포천시 선단동 49-11번지","category":"음식 - 한식"}]},{"lat":"37.852756997","long":"127.16886474","items":[{"name":"대한인버터","tel":"031-544-1775","addr":"경기도 포천시 선단동 32-19번지","category":"전기제품 - 기타전기제품"},{"name":"윈아트","tel":"031-542-0028","addr":"경기도 포천시 선단동 32-19번지","category":"용역 서비스 - 종합용역"}]},{"lat":"37.851249104","long":"127.16478233","items":[{"name":"덕진가설재","tel":"031-543-6988","addr":"경기도 포천시 선단동 502-8번지","category":"건축자재 - 기타건축자재"}]},{"lat":"37.858027449","long":"127.16888792","items":[{"name":"돈스훼미리 돈까스뷔페","tel":"031-533-0133","addr":"경기도 포천시 선단동 104번지","category":"일반휴게음식 - 일반한식"},{"name":"돈스훼미리돈가스뷔페","tel":"533-0133","addr":"경기도 포천시 선단동 104번지","category":"음식 - 한식"}]},{"lat":"37.858222723","long":"127.15080936","items":[{"name":"동네식당","tel":"031-542-8386","addr":"경기도 포천시 선단동 838-18번지 1층","category":"일반휴게음식 - 일반한식"},{"name":"몸사랑건강마을","tel":"031-544-3461","addr":"경기도 포천시 선단동 838-18번지 1층","category":"건강식품 - 기타건강식품"}]},{"lat":"37.855699125","long":"127.15855382","items":[{"name":"동민오에이","tel":"031-542-4497","addr":"경기도 포천시 선단동 642-1번지","category":"사무통신 - 사무용 OA기기"},{"name":"선단왕족발","tel":"031-542-0096","addr":"경기도 포천시 선단동 642-1번지 1층","category":"일반휴게음식 - 일반한식"},{"name":"선단왕족발","tel":"542-0096","addr":"경기도 포천시 선단동 642-1번지","category":"음식 - 한식"},{"name":"선단용치킨","tel":"031-542-8653","addr":"경기도 포천시 선단동 642-1번지","category":"일반휴게음식 - 스넥"},{"name":"선단용치킨","tel":"542-8653","addr":"경기도 포천시 선단동 642-1번지","category":"음식 - 치킨"}]},{"lat":"37.856032822","long":"127.15130496","items":[{"name":"동심어린이집","tel":"031-541-8887","addr":"경기도 포천시 선단동 857-1번지","category":"학원 - 유아원"},{"name":"동심어린이집[아이행복]","tel":"031-541-8887","addr":"경기도 포천시 선단동 857-1번지","category":"학원 - 유아원"},{"name":"동심유치원[아이행복]","tel":"031-541-8886","addr":"경기도 포천시 선단동 857-1번지","category":"학원 - 유치원"}]},{"lat":"37.857693204","long":"127.16952351","items":[{"name":"동양열기","tel":"031-542-0233","addr":"경기도 포천시 선단동 81-6번지 1층 2호","category":"전기제품 - 냉열기기"},{"name":"동양열기","tel":"542-0233","addr":"경기도 포천시 선단동 81-6번지","category":"도소매 - 가스기구"},{"name":"수공인중개사무소","tel":"541-3815","addr":"경기도 포천시 선단동 81-6번지","category":"부동산 - 부동산중개업"},{"name":"포천 아크릴 렉산","tel":"","addr":"경기도 포천시 선단동 81-6번지 4호","category":"건축자재 - 기타건축자재"}]},{"lat":"37.849090575","long":"127.16205075","items":[{"name":"동양종합정화조","tel":"031-543-3020","addr":"경기도 포천시 선단동 554번지","category":"건축자재 - 기타건축자재"}]},{"lat":"37.857837053","long":"127.16325133","items":[{"name":"동우랑","tel":"031-534-1317","addr":"경기도 포천시 선단동 379-4번지","category":"일반휴게음식 - 일반한식"}]},{"lat":"37.858612382","long":"127.1693665","items":[{"name":"동일에너지","tel":"031-534-2574","addr":"경기도 포천시 선단동 134-7번지","category":"건축자재 - 보일러·펌프·샷시"}]},{"lat":"37.859250126","long":"127.17072018","items":[{"name":"동해해물부페","tel":"541-8525","addr":"경기도 포천시 선단동 145번지","category":"음식 - 한식"}]},{"lat":"37.857061585","long":"127.15699994","items":[{"name":"돼지네감자탕집","tel":"543-7006","addr":"경기도 포천시 선단동 678-3번지","category":"음식 - 한식"}]},{"lat":"37.851973077","long":"127.16242054","items":[{"name":"돼지새끼","tel":"031-543-8354","addr":"경기도 포천시 선단동 460-19번지","category":"일반휴게음식 - 일반한식"},{"name":"돼지새끼정육점","tel":"031-543-8354","addr":"경기도 포천시 선단동 460-19번지","category":"음료식품 - 정육점"},{"name":"본점장충 왕족발","tel":"031-543-0120","addr":"경기도 포천시 선단동 460-19번지","category":"일반휴게음식 - 일반한식"},{"name":"본점장충왕족발","tel":"543-0120","addr":"경기도 포천시 선단동 460-19번지","category":"음식 - 한식"},{"name":"산나래","tel":"031-541-8107","addr":"경기도 포천시 선단동 460-19번지","category":"일반휴게음식 - 일반한식"},{"name":"세미가헤어라인","tel":"031-544-1250","addr":"경기도 포천시 선단동 460-19번지","category":"보건위생 - 미용원"}]},{"lat":"37.853194295","long":"127.16538879","items":[{"name":"둥이닭갈비","tel":"541-5222","addr":"경기도 포천시 선단동 487-10번지","category":"음식 - 한식"},{"name":"붕붕자동차용품","tel":"031-543-1665","addr":"경기도 포천시 선단동 487-10","category":"자동차정비 유지 - 자동차부품"},{"name":"이가 냉면,돈까스","tel":"","addr":"경기도 포천시 선단동 487-10번지 가동 1층 2호","category":"일반휴게음식 - 일반한식"},{"name":"크린토피아 코인워시 대진대점","tel":"031-543-5417","addr":"경기도 포천시 선단동 487-10번지 상가동 1층","category":"수리서비스 - 세탁소"}]},{"lat":"37.852643845","long":"127.16602388","items":[{"name":"디자인대진","tel":"031-541-1070","addr":"경기도 포천시 선단동 42번지","category":"서적문구 - 출판 및 인쇄물"},{"name":"미준당구장","tel":"031-542-1003","addr":"경기도 포천시 선단동 42번지 지하1층","category":"레저업소 - 당 구 장"},{"name":"안아픈세상한의원","tel":"031-544-8575","addr":"경기도 포천시 선단동 42번지","category":"의원 - 한의원"}]},{"lat":"37.850253976","long":"127.16116701","items":[{"name":"디지털존","tel":"031-543-5630","addr":"경기도 포천시 선단동 549-6번지","category":"사무통신 - 컴퓨터"}]},{"lat":"37.85133349","long":"127.16236236","items":[{"name":"땡큐맘치킨","tel":"543-8196","addr":"경기도 포천시 선단동 537-4번지","category":"음식 - 치킨"},{"name":"땡큐맘치킨(선단점)","tel":"031-543-8196","addr":"경기도 포천시 선단동 537-4번지","category":"일반휴게음식 - 스넥"}]},{"lat":"37.858060438","long":"127.16460405","items":[{"name":"럭키마트","tel":"031-544-6995","addr":"경기도 포천시 선단동 391번지 바이오럭키빌라 나동 102호","category":"유통업 영리 - 슈퍼마켓"}]},{"lat":"37.851422797","long":"127.16294202","items":[{"name":"레몬당구클럽","tel":"070-3526-0464","addr":"경기도 포천시 선단동 461-1 엘카운티에이동다호","category":"레저업소 - 당 구 장"},{"name":"레몬참고기","tel":"031-542-3311","addr":"경기도 포천시 선단동 461-1 외7필지엘카운티A동2층나호","category":"일반휴게음식 - 일반한식"}]},{"lat":"37.850278902","long":"127.16272367","items":[{"name":"레브커피(Reve coffee)","tel":"02-000-0000","addr":"경기도 포천시 선단동 539-4번지 1층","category":"일반휴게음식 - 서양음식"},{"name":"화니핀헤어","tel":"031-534-0549","addr":"경기도 포천시 선단동 539-4번지 1층","category":"보건위생 - 미용원"},{"name":"화니핀헤어","tel":"534-0549","addr":"경기도 포천시 선단동 539-4번지 1층","category":"서비스 - 미용"}]},{"lat":"37.853805199","long":"127.16664002","items":[{"name":"로얄당구회관","tel":"544-2115","addr":"경기도 포천시 선단동 49-2","category":"서비스 - 당구장"},{"name":"로얄당구회관","tel":"031-544-2115","addr":"경기도 포천시 선단동 49-2번지","category":"레저업소 - 당 구 장"},{"name":"문주슈퍼","tel":"542-1656","addr":"경기도 포천시 선단동 49-2번지","category":"소매업 - 잡화"},{"name":"이디야 대진대점","tel":"542-2077","addr":"경기도 포천시 선단동 49-2번지 1층","category":"음식 - 커피 등"},{"name":"이디야커피 대진대학교점","tel":"031-542-2077","addr":"경기도 포천시 선단동 49-2번지","category":"일반휴게음식 - 서양음식"},{"name":"이디야커피 대진대학교점","tel":"031-542-2077","addr":"경기도 포천시 선단동 49-2번지","category":"음식 - 커피"}]},{"lat":"37.854228259","long":"127.16691366","items":[{"name":"리즈헤어","tel":"070-4196-4689","addr":"경기도 포천시 선단동 56-19번지","category":"보건위생 - 미용원"},{"name":"착한고기집","tel":"031-543-3993","addr":"경기도 포천시 선단동 56-19번지","category":"일반휴게음식 - 일반한식"},{"name":"착한고기집","tel":"543-3993","addr":"경기도 포천시 선단동 56-19번지","category":"음식 - 한식"}]},{"lat":"37.861420631","long":"127.17124784","items":[{"name":"만남편의점","tel":"031-535-6323","addr":"경기도 포천시 선단동 2-3번지","category":"음료식품 - 기타음료식품"},{"name":"만남편의점","tel":"031-535-6323","addr":"경기도 포천시 선단동 2-3번지","category":"소매업 - 편의점"},{"name":"신바람난 찐빵집","tel":"031-532-5866","addr":"경기도 포천시 선단동 2-3번지","category":"일반휴게음식 - 스넥"},{"name":"신바람찐빵집","tel":"532-5866","addr":"경기도 포천시 선단동 2-3번지","category":"음식 - 한식"}]},{"lat":"37.855418567","long":"127.16614362","items":[{"name":"만산토방","tel":"541-3225","addr":"경기도 포천시 선단동 91-1번지","category":"음식 - 한식"}]},{"lat":"37.849810107","long":"127.1629499","items":[{"name":"매바도 불닭발","tel":"","addr":"경기도 포천시 선단동 534-4","category":"음식 - 한식"},{"name":"매바도불닭발","tel":"031-543-7079","addr":"경기도 포천시 선단동 534-4번지","category":"일반휴게음식 - 일반한식"},{"name":"연다방","tel":"031-542-0667","addr":"경기도 포천시 선단동 534-4번지 2층","category":"일반휴게음식 - 서양음식"}]},{"lat":"37.85383142","long":"127.16721957","items":[{"name":"맷돌빈대떡","tel":"541-2634","addr":"경기도 포천시 선단동 56-4","category":"음식 - 한식"}]},{"lat":"37.853894644","long":"127.16710609","items":[{"name":"맷돌빈대떡","tel":"070-7523-6492","addr":"경기도 포천시 선단동 56-6번지","category":"일반휴게음식 - 주점"},{"name":"샛별살롱","tel":"070-7420-7638","addr":"경기도 포천시 선단동 56-6번지 1층","category":"보건위생 - 피부미용실"},{"name":"선단리곱창","tel":"031-542-3669","addr":"경기도 포천시 선단동 56-6번지","category":"일반휴게음식 - 일반한식"},{"name":"털보","tel":"031-542-7363","addr":"경기도 포천시 선단동 56-6번지","category":"음료식품 - 기타음료식품"}]},{"lat":"37.856249026","long":"127.15830499","items":[{"name":"멕시카나치킨","tel":"031-541-4472","addr":"경기도 포천시 선단동 685-9번지 1","category":"일반휴게음식 - 주점"},{"name":"미용커플","tel":"031-543-9745","addr":"경기도 포천시 선단동 685-9번지","category":"보건위생 - 미용원"}]},{"lat":"37.856693206","long":"127.16299887","items":[{"name":"명산오리","tel":"031-541-5282","addr":"경기도 포천시 선단동 399-3번지","category":"일반휴게음식 - 일반한식"},{"name":"명산오리","tel":"","addr":"경기도 포천시 선단동 399-3번지","category":"음식 - 한식"}]},{"lat":"37.855392282","long":"127.15199681","items":[{"name":"명성가든","tel":"541-5266","addr":"경기도 포천시 선단동 858-1","category":"음식 - 한식"},{"name":"명성가든","tel":"031-541-5266","addr":"경기도 포천시 선단동 858-1번지","category":"일반휴게음식 - 일반한식"}]},{"lat":"37.856918626","long":"127.16936269","items":[{"name":"명성공구안전건철","tel":"031-534-1544","addr":"경기도 포천시 선단동 82-21번지","category":"건축자재 - 목재·석재·철물"}]},{"lat":"37.861916582","long":"127.17094214","items":[{"name":"명성우드","tel":"031-535-9210","addr":"경기도 포천시 선단동 153-7번지","category":"건축자재 - 기타건축자재"}]},{"lat":"37.849889906","long":"127.16389312","items":[{"name":"명품숯불갈비","tel":"536-6606","addr":"경기도 포천시 선단동 512-1번지","category":"음식 - 한식"},{"name":"소문난바베큐","tel":"031-536-6606","addr":"경기도 포천시 선단동 512-1번지 1층","category":"일반휴게음식 - 일반한식"}]},{"lat":"37.851946541","long":"127.16205689","items":[{"name":"명품한우 정육점","tel":"031-541-2712","addr":"경기도 포천시 선단동 458-4번지","category":"음료식품 - 정육점"},{"name":"명품한우암소전문점","tel":"031-541-2712","addr":"경기도 포천시 선단동 458-4번지","category":"일반휴게음식 - 일반한식"},{"name":"선단순대국","tel":"","addr":"경기도 포천시 선단동 458-4번지 1층","category":"일반휴게음식 - 일반한식"}]},{"lat":"37.852783207","long":"127.16944429","items":[{"name":"모연자원","tel":"031-111-1111","addr":"경기도 포천시 선단동 32-4번지 1층","category":"건축자재 - 목재·석재·철물"}]},{"lat":"37.854083253","long":"127.16752692","items":[{"name":"미니스톱 포천캐슬점","tel":"031-1577-9621","addr":"경기도 포천시 선단동 59번지 허브캐슬3차 103동 101호","category":"유통업 영리 - 편 의 점"}]},{"lat":"37.8599985","long":"127.17030143","items":[{"name":"미래통신","tel":"031-573-0861","addr":"경기도 포천시 선단동 139-1번지","category":"전기제품 - 기타전기제품"},{"name":"우리전기난방공장직영할인매장","tel":"031-531-9203","addr":"경기도 포천시 선단동 139-1번지 1층","category":"건축자재 - 기타건축자재"},{"name":"장수촌순대국","tel":"031-536-5080","addr":"경기도 포천시 선단동 139-1번지","category":"일반휴게음식 - 일반한식"}]},{"lat":"37.85772551","long":"127.165751","items":[{"name":"미애부","tel":"","addr":"경기도 포천시 선단동 121번지 그린빌라 202호","category":"건강식품 - 기타건강식품"}]},{"lat":"37.850783581","long":"127.16261114","items":[{"name":"미의공간미용실","tel":"031-542-5652","addr":"경기도 포천시 선단동 537-3","category":"보건위생 - 미용원"}]},{"lat":"37.857195486","long":"127.15094367","items":[{"name":"민제식당","tel":"031-543-7573","addr":"경기도 포천시 선단동 836번지 나동 1층","category":"일반휴게음식 - 일반한식"}]},{"lat":"37.853061168","long":"127.16392274","items":[{"name":"반짝반짝 스팀세차 송우점","tel":"031-543-0707","addr":"경기도 포천시 선단동 468-2번지 삼익빌라트 7동 403호","category":"자동차정비 유지 - 세차장"},{"name":"체인지","tel":"","addr":"경기도 포천시 선단동 468-2번지 삼익빌라트 7동 201호","category":"의류 - 내의판매"}]},{"lat":"37.850726873","long":"127.16455394","items":[{"name":"방일해장국","tel":"031-541-4781","addr":"경기도 포천시 선단동 505-4번지","category":"일반휴게음식 - 일반한식"},{"name":"방일해장국","tel":"541-4781","addr":"경기도 포천시 선단동 505-4번지","category":"음식 - 한식"}]},{"lat":"37.858195209","long":"127.15119566","items":[{"name":"백두산마트","tel":"031-543-2035","addr":"경기도 포천시 선단동 838-24 백두산마을","category":"유통업 영리 - 슈퍼마켓"},{"name":"이마트24포천백두점","tel":"543-2035","addr":"경기도 포천시 선단동 838-24번지","category":"편의점 - 잡화"}]},{"lat":"37.850972468","long":"127.16283879","items":[{"name":"백은자피부샵","tel":"031-542-2331","addr":"경기도 포천시 선단동 460-15번지","category":"보건위생 - 피부미용실"},{"name":"삼보약국","tel":"031-543-5325","addr":"경기도 포천시 선단동 460-15번지","category":"약국 - 약국"},{"name":"오가며","tel":"031-542-1875","addr":"경기도 포천시 선단동 460-15번지","category":"일반휴게음식 - 일반한식"}]},{"lat":"37.854695539","long":"127.16777827","items":[{"name":"백천상사","tel":"031-541-8582","addr":"경기도 포천시 선단동 58-8번지","category":"자동차정비 유지 - 자동차부품"}]},{"lat":"37.850692993","long":"127.16297453","items":[{"name":"베로니카미용실","tel":"542-9882","addr":"경기도 포천시 선단동 460-20","category":"서비스 - 미용"},{"name":"베로니카미용실","tel":"031-542-9882","addr":"경기도 포천시 선단동 460-20번지","category":"보건위생 - 미용원"},{"name":"선단축산물도매센타","tel":"","addr":"경기도 포천시 선단동 460-20번지 102호","category":"도매 - 축산물"},{"name":"선단축산물도매센터","tel":"","addr":"경기도 포천시 선단동 460-20번지 102호","category":"음료식품 - 정육점"}]},{"lat":"37.855942115","long":"127.16541755","items":[{"name":"베스트올대진대점","tel":"","addr":"경기도 포천시 선단동 112-2번지 한양아트빌 101동 101호","category":"유통업 영리 - 슈퍼마켓"}]},{"lat":"37.855977497","long":"127.15924755","items":[{"name":"별미식당","tel":"031-541-1643","addr":"경기도 포천시 선단동 687-8번지","category":"일반휴게음식 - 일반한식"}]},{"lat":"37.855887509","long":"127.15916782","items":[{"name":"별미식당","tel":"541-1643","addr":"경기도 포천시 선단동 687-4","category":"음식 - 한식"}]},{"lat":"37.848557991","long":"127.16281085","items":[{"name":"보메문구센터","tel":"031-544-3484","addr":"경기도 포천시 선단동 526-5번지","category":"서적문구 - 문구용품"}]},{"lat":"37.849998902","long":"127.16324572","items":[{"name":"북경반점","tel":"544-7300","addr":"경기도 포천시 선단동 510번지","category":"음식 - 중식"},{"name":"북경반점","tel":"031-544-7300","addr":"경기도 포천시 선단동 510번지","category":"일반휴게음식 - 중국식"}]},{"lat":"37.857556488","long":"127.15044441","items":[{"name":"붕붕카","tel":"543-8872","addr":"경기도 포천시 선단동 833-5번지","category":"서비스 - 자동차 수리"}]},{"lat":"37.850638303","long":"127.16344026","items":[{"name":"붕붕카","tel":"031-543-8872","addr":"경기도 포천시 선단동 499-9번지","category":"자동차정비 유지 - 자동차정비"}]},{"lat":"37.853696549","long":"127.16702611","items":[{"name":"비몽사몽","tel":"031-543-7401","addr":"경기도 포천시 선단동 49-6번지","category":"일반휴게음식 - 일반한식"},{"name":"비몽사몽","tel":"543-7401","addr":"경기도 포천시 선단동 49-6번지","category":"음식 - 한식"},{"name":"오구쌀피자(대진대점)","tel":"542-5933","addr":"경기도 포천시 선단동 49-6번지","category":"음식 - 피자 등"},{"name":"오구쌀피자(대진대점)","tel":"031-000-0000","addr":"경기도 포천시 선단동 49-6번지 1층","category":"일반휴게음식 - 서양음식"}]},{"lat":"37.849665926","long":"127.16297231","items":[{"name":"뼈다귀박사","tel":"031-543-1891","addr":"경기도 포천시 선단동 534-7번지","category":"일반휴게음식 - 일반한식"},{"name":"뼈다귀박사","tel":"543-1891","addr":"경기도 포천시 선단동 534-7번지","category":"음식 - 한식"}]},{"lat":"37.858447256","long":"127.15136661","items":[{"name":"뽀로로어린이집[아이행복]","tel":"031-543-2027","addr":"경기도 포천시 선단동 838-2번지 백두산빌라 101동 103호","category":"학원 - 유아원"}]},{"lat":"37.859777476","long":"127.1538579","items":[{"name":"사랑나무어린이집[아이행복]","tel":"070-4107-8780","addr":"경기도 포천시 선단동 785-3번지","category":"학원 - 유아원"}]},{"lat":"37.858360362","long":"127.16919548","items":[{"name":"사랑만들기","tel":"070-8973-5349","addr":"경기도 포천시 선단동 134-2번지","category":"신변잡화 - 기타잡화"},{"name":"서울도배방","tel":"031-535-5451","addr":"경기도 포천시 선단동 134-2번지","category":"직물 - 카페트,커튼,천막,지물"},{"name":"포천정밀래핑","tel":"031-536-1468","addr":"경기도 포천시 선단동 134-2번지 1층","category":"기타 - 기계공구"}]},{"lat":"37.851951082","long":"127.16532925","items":[{"name":"삼성프로카독크","tel":"031-536-5109","addr":"경기도 포천시 선단동 495-1","category":"자동차정비 유지 - 자동차정비"},{"name":"삼성프로카독크","tel":"536-5109","addr":"경기도 포천시 선단동 495-1번지","category":"서비스 - 자동차 수리"},{"name":"우리노래연습장","tel":"031-544-7172","addr":"경기도 포천시 선단동 495-1","category":"레저업소 - 노 래 방"},{"name":"조선통닭","tel":"031-542-9688","addr":"경기도 포천시 선단동 495-1번지","category":"일반휴게음식 - 일반한식"},{"name":"조선통닭","tel":"542-9688","addr":"경기도 포천시 선단동 495-1번지","category":"음식 - 한식"},{"name":"포천제일공인중개사무소","tel":"544-9004","addr":"경기도 포천시 선단동 495-1번지","category":"부동산 - 부동산중개업"}]},{"lat":"37.855888021","long":"127.15878148","items":[{"name":"상록마트","tel":"031-543-6647","addr":"경기도 포천시 선단동 685-2번지","category":"유통업 영리 - 슈퍼마켓"}]},{"lat":"37.859310325","long":"127.1528115","items":[{"name":"상록전기","tel":"070-8616-3131","addr":"경기도 포천시 선단동 790-1번지 다가구주택상가가동2호","category":"기타 - 기계공구"}]},{"lat":"37.854971461","long":"127.16369964","items":[{"name":"샤론화원","tel":"031-543-1063","addr":"경기도 포천시 선단동 428번지","category":"문화.취미 - 화원"}]},{"lat":"37.850333143","long":"127.16258744","items":[{"name":"서당골","tel":"031-542-1467","addr":"경기도 포천시 선단동 539-2번지 가동 1층","category":"일반휴게음식 - 일반한식"},{"name":"송아지정육식당","tel":"541-2219","addr":"경기도 포천시 선단동 539-2번지 가동1층","category":"음식 - 한식"},{"name":"숑아지정육식당","tel":"031-541-2219","addr":"경기도 포천시 선단동 539-2번지 가동 1층","category":"일반휴게음식 - 일반한식"}]},{"lat":"37.851504775","long":"127.16228319","items":[{"name":"서울식당","tel":"541-3373","addr":"경기도 포천시 선단동 537번지","category":"음식 - 한식"},{"name":"서울식당","tel":"031-541-3373","addr":"경기도 포천시 선단동 537번지","category":"일반휴게음식 - 일반한식"},{"name":"철원생고기집","tel":"031-543-0371","addr":"경기도 포천시 선단동 537번지","category":"일반휴게음식 - 일반한식"},{"name":"철원생고기집","tel":"543-0371","addr":"경기도 포천시 선단동 537번지","category":"음식 - 한식"},{"name":"철원정육점","tel":"031-543-0371","addr":"경기도 포천시 선단동 537번지","category":"음료식품 - 정육점"}]},{"lat":"37.858974601","long":"127.16150383","items":[{"name":"서일유치원[아이행복]","tel":"031-533-0670","addr":"경기도 포천시 선단동 356-6","category":"학원 - 유치원"}]},{"lat":"37.853671314","long":"127.1590836","items":[{"name":"선단꿈나무어린이집[아이행복]","tel":"031-544-2552","addr":"경기도 포천시 선단동 629번지","category":"학원 - 유아원"}]},{"lat":"37.858447857","long":"127.15088936","items":[{"name":"선단동 소래포구","tel":"541-7434","addr":"경기도 포천시 선단동 838-15번지","category":"음식 - 한식"}]},{"lat":"37.861530378","long":"127.14983869","items":[{"name":"선단동산돌노인요양공동생활가정","tel":"031-543-7332","addr":"경기도 포천시 선단동 817번지","category":"기타의료기관 - 기타의료기관 및 기타"}]},{"lat":"37.850783534","long":"127.16264522","items":[{"name":"선단바지락손칼국수","tel":"541-9050","addr":"경기도 포천시 선단동 537-10번지","category":"음식 - 한식"},{"name":"옛날통닭","tel":"543-1192","addr":"경기도 포천시 선단동 537-10번지","category":"음식 - 치킨등"},{"name":"옛날통닭","tel":"031-543-1192","addr":"경기도 포천시 선단동 537-10번지","category":"일반휴게음식 - 스넥"}]},{"lat":"37.851225347","long":"127.16238485","items":[{"name":"선단바지락손칼국수","tel":"031-541-9050","addr":"경기도 포천시 선단동 537-5번지","category":"일반휴게음식 - 일반한식"},{"name":"종로떡집","tel":"543-3808","addr":"경기도 포천시 선단동 537-5번지","category":"제조업 - 떡집"},{"name":"종로떡집","tel":"031-543-3808","addr":"경기도 포천시 선단동 537-5번지","category":"음료식품 - 기타음료식품"}]},{"lat":"37.860449185","long":"127.14989336","items":[{"name":"선단숲","tel":"","addr":"경기도 포천시 선단동 803-4번지 탑빌딩 1층","category":"일반휴게음식 - 서양음식"}]},{"lat":"37.859532937","long":"127.15485739","items":[{"name":"선단왕수학학원","tel":"031-543-1016","addr":"경기도 포천시 선단동 760-7번지","category":"학원 - 보습학원"},{"name":"선단왕수학학원","tel":"031-543-1016","addr":"경기도 포천시 선단동 760-7번지 2층","category":"학원 - 보습학원"},{"name":"선단한국태권도장","tel":"031-542-6861","addr":"경기도 포천시 선단동 760-7번지","category":"학원 - 예·체능계학원"},{"name":"선단한국태권도장","tel":"031-542-6861","addr":"경기도 포천시 선단동 760-7번지","category":"학원 - 예·체능계학원"}]},{"lat":"37.857972878","long":"127.15596778","items":[{"name":"선단철물","tel":"031-543-5688","addr":"경기도 포천시 선단동 668-3번지","category":"건축자재 - 목재·석재·철물"},{"name":"성훈슈퍼","tel":"031-543-2599","addr":"경기도 포천시 선단동 668-3번지","category":"유통업 영리 - 슈퍼마켓"}]},{"lat":"37.861586319","long":"127.15544116","items":[{"name":"선단초등학교","tel":"031-542-0439","addr":"경기도 포천시 선단동 765-1번지 선단초등학교","category":"학원 - 초중고교육기관"},{"name":"선단초등학교병설유치원[아이행복]","tel":"031-542-0438","addr":"경기도 포천시 선단동 765-1번지 선단초등학교","category":"학원 - 유치원"}]},{"lat":"37.851306046","long":"127.16266908","items":[{"name":"선단통신","tel":"031-8080-0716","addr":"경기도 포천시 선단동 460-22번지","category":"사무통신 - 통신기기"}]},{"lat":"37.850270432","long":"127.16232598","items":[{"name":"선단회","tel":"","addr":"경기도 포천시 선단동 539-2번지 나동 4호","category":"음식 - 일반횟집"},{"name":"해룡약초능이해신탕","tel":"070-8849-5779","addr":"경기도 포천시 선단동 539-2번지 나동 1층","category":"일반휴게음식 - 일반한식"}]},{"lat":"37.85658805","long":"127.1539423","items":[{"name":"선진물산","tel":"031-000-0000","addr":"경기도 포천시 선단동 856-5번지","category":"기타 - 기계공구"}]},{"lat":"37.862474562","long":"127.16494325","items":[{"name":"성신자동차공업사","tel":"031-531-7579","addr":"경기도 포천시 선단동 339번지","category":"자동차정비 유지 - 자동차정비"}]},{"lat":"37.853696787","long":"127.16685567","items":[{"name":"성신철물","tel":"031-542-1647","addr":"경기도 포천시 선단동 49-5번지","category":"기타 - 기타 전문점"},{"name":"성신철물,건재","tel":"","addr":"경기도 포천시 선단동 49-5번지","category":"소매업 - 건축자재"}]},{"lat":"37.860720159","long":"127.14933707","items":[{"name":"세븐일레븐포천선단점","tel":"031-1577-0711","addr":"경기도 포천시 선단동 815-8번지","category":"유통업 영리 - 편 의 점"}]},{"lat":"37.858116209","long":"127.16983128","items":[{"name":"소담숯불오리","tel":"031-541-2797","addr":"경기도 포천시 선단동 81-8번지","category":"일반휴게음식 - 일반한식"},{"name":"소담숯불오리","tel":"541-2797","addr":"경기도 포천시 선단동 81-8번지","category":"음식 - 한식"},{"name":"한국 모타","tel":"031-541-2880","addr":"경기도 포천시 선단동 81-8번지","category":"수리서비스 - 기타수리서비스"}]},{"lat":"37.857783164","long":"127.1563651","items":[{"name":"소풍","tel":"543-6235","addr":"경기도 포천시 선단동 669-4번지","category":"숙박업 - 여관"},{"name":"소풍","tel":"031-543-6235","addr":"경기도 포천시 선단동 669-4번지 3층 4층","category":"숙박업 - 여관/기타숙박업"}]},{"lat":"37.854529585","long":"127.15727874","items":[{"name":"소피아유치원","tel":"031-542-6700","addr":"경기도 포천시 선단동 607번지","category":"학원 - 유치원"},{"name":"소피아유치원[아이행복]","tel":"031-542-6700","addr":"경기도 포천시 선단동 607번지","category":"학원 - 유치원"}]},{"lat":"37.856471777","long":"127.16678228","items":[{"name":"소희헤어컬렉션","tel":"031-543-7210","addr":"경기도 포천시 선단동 111-6번지 신진빌라 비-102","category":"보건위생 - 미용원"}]},{"lat":"37.856335511","long":"127.16758875","items":[{"name":"속풀청","tel":"542-1323","addr":"경기도 포천시 선단동 101-11번지","category":"음식 - 한식"},{"name":"속풀청","tel":"031-542-1323","addr":"경기도 포천시 선단동 101-11번지 1층","category":"일반휴게음식 - 일반한식"}]},{"lat":"37.858113994","long":"127.16496779","items":[{"name":"솔모루설비","tel":"","addr":"경기도 포천시 선단동 390번지 럭키빌라 401호","category":"용역 서비스 - 기타용역서비스"}]},{"lat":"37.848082186","long":"127.16156003","items":[{"name":"송우리손칼국수3,500","tel":"031-541-3412","addr":"경기도 포천시 선단동 556-4번지","category":"일반휴게음식 - 일반한식"},{"name":"송우리칼국수","tel":"541-3412","addr":"경기도 포천시 선단동 556-4번지","category":"음식 - 한식"}]},{"lat":"37.857748399","long":"127.16871685","items":[{"name":"송우벽지장판인테리어","tel":"031-533-4333","addr":"경기도 포천시 선단동 104-5번지","category":"건축자재 - 인테리어전문"},{"name":"타이어스쿨","tel":"031-534-4282","addr":"경기도 포천시 선단동 104-5번지","category":"자동차정비 유지 - 자동차시트·타이어"},{"name":"티매니져","tel":"031-534-4282","addr":"경기도 포천시 선단동 104-5번지","category":"자동차정비 유지 - 자동차시트·타이어"}]},{"lat":"37.85888623","long":"127.16021958","items":[{"name":"송우자동차","tel":"070-8830-5079","addr":"경기도 포천시 선단동 358번지 105호","category":"자동차정비 유지 - 자동차부품"}]},{"lat":"37.856835875","long":"127.15736309","items":[{"name":"송한숙홈패션","tel":"031-542-6804","addr":"경기도 포천시 선단동 678-4번지","category":"직물 - 침구·수예점"}]},{"lat":"37.857004998","long":"127.16557897","items":[{"name":"수치킨호프","tel":"031-535-0466","addr":"경기도 포천시 선단동 403-11번지 1층","category":"일반휴게음식 - 일반한식"}]},{"lat":"37.853588596","long":"127.16031059","items":[{"name":"순자아줌마반찬","tel":"","addr":"경기도 포천시 선단동 438번지","category":"소매업 - 반찬"}]},{"lat":"37.852117873","long":"127.16194364","items":[{"name":"술한잔","tel":"070-4755-9547","addr":"경기도 포천시 선단동 458번지","category":"일반휴게음식 - 주점"},{"name":"조은식당","tel":"031-541-6202","addr":"경기도 포천시 선단동 458번지","category":"일반휴게음식 - 일반한식"}]},{"lat":"37.857194994","long":"127.16499987","items":[{"name":"스마트편의슈퍼","tel":"031-536-1878","addr":"경기도 포천시 선단동 394-6번지","category":"유통업 영리 - 슈퍼마켓"}]},{"lat":"37.857054167","long":"127.16907892","items":[{"name":"승진수중모터펌프","tel":"031-535-6688","addr":"경기도 포천시 선단동 82-18번지 1층","category":"기타 - 기계공구"},{"name":"자연주의","tel":"02-536-7977","addr":"경기도 포천시 선단동 82-18번지","category":"자동차정비 유지 - 자동차부품"}]},{"lat":"37.858585646","long":"127.15586678","items":[{"name":"신겨례석유","tel":"","addr":"경기도 포천시 선단동 755-2번지","category":"연료판매점 - 유류판매"}]},{"lat":"37.857780851","long":"127.15113801","items":[{"name":"신발창고","tel":"","addr":"경기도 포천시 선단동 838-49번지 101호","category":"신변잡화 - 신발"}]},{"lat":"37.856810947","long":"127.16905564","items":[{"name":"신북낚시","tel":"535-9189","addr":"경기도 포천시 선단동 82-14번지","category":"소매업 - 스포츠"}]},{"lat":"37.851450319","long":"127.16257849","items":[{"name":"신우전기재료","tel":"031-542-5270","addr":"경기도 포천시 선단동 460-14번지","category":"전기제품 - 기타전기제품"}]},{"lat":"37.857366692","long":"127.15092128","items":[{"name":"씨유포천선단점","tel":"031-543-6766","addr":"경기도 포천시 선단동 834-11번지","category":"유통업 영리 - 편 의 점"}]},{"lat":"37.848640368","long":"127.16185664","items":[{"name":"씨유포천이마트점","tel":"031-544-8145","addr":"경기도 포천시 선단동 555-2번지","category":"유통업 영리 - 편 의 점"},{"name":"여시라인","tel":"","addr":"경기도 포천시 선단동 555-2번지 101호","category":"의류 - 정장"}]},{"lat":"37.851612549","long":"127.16253339","items":[{"name":"씨유포천진주점","tel":"031-541-7992","addr":"경기도 포천시 선단동 460-13번지","category":"유통업 영리 - 편 의 점"}]},{"lat":"37.858085113","long":"127.16630859","items":[{"name":"아리","tel":"","addr":"경기도 포천시 선단동 119-4번지","category":"가구 - 기타가구"}]},{"lat":"37.860252995","long":"127.15539295","items":[{"name":"아빠 치킨","tel":"031-541-4120","addr":"경기도 포천시 선단동 761-1번지","category":"일반휴게음식 - 스넥"}]},{"lat":"37.859364988","long":"127.15233435","items":[{"name":"아우네치킨","tel":"031-542-3846","addr":"경기도 포천시 선단동 792-8번지","category":"일반휴게음식 - 스넥"},{"name":"진아슈퍼","tel":"543-6386","addr":"경기도 포천시 선단동 792-8","category":"소매업 - 잡화"},{"name":"진아슈퍼","tel":"031-543-6386","addr":"경기도 포천시 선단동 792-8","category":"음료식품 - 기타음료식품"},{"name":"진아슈퍼","tel":"543-6386","addr":"경기도 포천시 선단동 792-8번지","category":"소매업 - 슈퍼"}]},{"lat":"37.850868024","long":"127.16672442","items":[{"name":"아이뜰어린이집[아이행복]","tel":"031-544-5402","addr":"경기도 포천시 선단동 37-1번지","category":"학원 - 유아원"}]},{"lat":"37.853588279","long":"127.1671395","items":[{"name":"안전자동차공업사","tel":"031-543-3533","addr":"경기도 포천시 선단동 49-8번지","category":"자동차정비 유지 - 자동차정비"}]},{"lat":"37.859503535","long":"127.16991395","items":[{"name":"알라딘","tel":"031-827-9288","addr":"경기도 포천시 선단동 141-3번지 1층","category":"일반휴게음식 - 일반한식"},{"name":"알라딘","tel":"533-5575","addr":"경기도 포천시 선단동 141-3번지","category":"음식 - 한식"},{"name":"쭈꾸미클럽","tel":"544-5949","addr":"경기도 포천시 선단동 141-3번지","category":"음식 - 한식"},{"name":"한우만","tel":"","addr":"경기도 포천시 선단동 141-3번지 2층","category":"음식 - 한식"},{"name":"한우만","tel":"031-544-5949","addr":"경기도 포천시 선단동 141-3번지 2층","category":"일반휴게음식 - 일반한식"}]},{"lat":"37.855364484","long":"127.15953032","items":[{"name":"엄마국밥","tel":"","addr":"경기도 포천시 선단동 689-4번지","category":"일반휴게음식 - 일반한식"},{"name":"엄마국밥","tel":"544-5639","addr":"경기도 포천시 선단동 689-4번지","category":"음식 - 한식"},{"name":"중부종합상사","tel":"031-542-8908","addr":"경기도 포천시 선단동 689-4번지","category":"건축자재 - 목재·석재·철물"}]},{"lat":"37.858332191","long":"127.17000221","items":[{"name":"에코 코리아","tel":"031-532-8725","addr":"경기도 포천시 선단동 81-10번지","category":"자동차정비 유지 - 자동차부품"},{"name":"지호한방삼계탕","tel":"031-534-3580","addr":"경기도 포천시 선단동 81-10번지","category":"일반휴게음식 - 일반한식"}]},{"lat":"37.851757114","long":"127.16222692","items":[{"name":"열빈","tel":"031-543-9982","addr":"경기도 포천시 선단동 459-2 외1필지 (458-2)","category":"일반휴게음식 - 일반한식"}]},{"lat":"37.854110979","long":"127.16702703","items":[{"name":"영자호프","tel":"031-542-7718","addr":"경기도 포천시 선단동 56-1번지","category":"일반휴게음식 - 주점"}]},{"lat":"37.849332008","long":"127.16339198","items":[{"name":"영준상사","tel":"031-541-8278","addr":"경기도 포천시 선단동 526-8번지","category":"건축자재 - 페인트"}]},{"lat":"37.859560493","long":"127.15444836","items":[{"name":"예일음악학원","tel":"031-542-7602","addr":"경기도 포천시 선단동 762-11번지","category":"학원 - 예·체능계학원"},{"name":"예일음악학원","tel":"541-0202","addr":"경기도 포천시 선단동 762-11번지","category":"교육서비스 - 학원"},{"name":"예일학원","tel":"031-542-7602","addr":"경기도 포천시 선단동 762-11번지","category":"학원 - 보습학원"},{"name":"예일학원","tel":"542-7602","addr":"경기도 포천시 선단동 762-11번지","category":"교육서비스 - 학원"}]},{"lat":"37.851054046","long":"127.16247538","items":[{"name":"옛날마포불고기","tel":"543-7120","addr":"경기도 포천시 선단동 537-6번지 1층","category":"음식 - 한식"},{"name":"옛날마포불고기","tel":"031-543-7120","addr":"경기도 포천시 선단동 537-6번지 1층","category":"일반휴게음식 - 일반한식"}]},{"lat":"37.858800162","long":"127.15014008","items":[{"name":"올래체육사","tel":"031-7117-4040","addr":"경기도 포천시 선단동 809-1번지 행복마을 104동 104호","category":"회원제형태 - 기타4"}]},{"lat":"37.854560987","long":"127.16735755","items":[{"name":"와우 피씨(대진대점)","tel":"070-4058-0845","addr":"경기도 포천시 선단동 58-12번지 외 1필지, 2층,3층","category":"레저업소 - 기타레져업소"},{"name":"컴플리트커피","tel":"070-8865-0913","addr":"경기도 포천시 선단동 58-12번지","category":"음식 - 커피 등"},{"name":"컴플리트커피","tel":"","addr":"경기도 포천시 선단동 58-12번지","category":"일반휴게음식 - 서양음식"},{"name":"훙훙훠훠마라탕","tel":"","addr":"경기도 포천시 선단동 58-12번지 1층","category":"일반휴게음식 - 중국식"}]},{"lat":"37.856336098","long":"127.16716832","items":[{"name":"우등생","tel":"031-541-2228","addr":"경기도 포천시 선단동 109-2번지 1층","category":"일반휴게음식 - 일반한식"}]},{"lat":"37.8540322","long":"127.15869803","items":[{"name":"우리슈퍼","tel":"031-542-5889","addr":"경기도 포천시 선단동 611-2번지 은성빌라 B동 101호","category":"유통업 영리 - 슈퍼마켓"},{"name":"포천수산","tel":"031-535-0825","addr":"경기도 포천시 선단동 611-2번지 은성빌라 B동 203호","category":"음료식품 - 농·축·수산품"}]},{"lat":"37.85247077","long":"127.16738699","items":[{"name":"웃음 천국","tel":"070-8877-0469","addr":"경기도 포천시 선단동 36번지 그린캐슬 2동 401호","category":"의류 - 내의판매"}]},{"lat":"37.856807138","long":"127.16532855","items":[{"name":"원두코리아","tel":"031-536-6103","addr":"경기도 포천시 선단동 113번지 럭키빌라5차 3동 101호","category":"음료식품 - 기타음료식품"}]},{"lat":"37.863143235","long":"127.15675123","items":[{"name":"웰스첸경기북부영업소","tel":"031-541-7439","addr":"경기도 포천시 선단동 286번지","category":"신변잡화 - 기타잡화"}]},{"lat":"37.861612579","long":"127.14894111","items":[{"name":"유진","tel":"031-543-7210","addr":"경기도 포천시 선단동 818-3번지","category":"직물 - 침구·수예점"}]},{"lat":"37.864307507","long":"127.15516266","items":[{"name":"으뜸에너지","tel":"02-0000-0000","addr":"경기도 포천시 선단동 276-4번지 1층","category":"연료판매점 - 유류판매"},{"name":"주식회사 프라임에너지","tel":"031-985-9789","addr":"경기도 포천시 선단동 276-4번지","category":"연료판매점 - 유류판매"}]},{"lat":"37.860445893","long":"127.15250699","items":[{"name":"은행나무집","tel":"031-543-2231","addr":"경기도 포천시 선단동 797번지","category":"일반휴게음식 - 일반한식"}]},{"lat":"37.851280549","long":"127.1680888","items":[{"name":"은혜미용실","tel":"031-541-0884","addr":"경기도 포천시 선단동 28번지 세창선단마을아파트 1층","category":"보건위생 - 미용원"}]},{"lat":"37.857306156","long":"127.16927265","items":[{"name":"이공비빔국수 왕돈까스","tel":"532-2095","addr":"경기도 포천시 선단동 82-5번지","category":"음식 - 한식"},{"name":"이공비빔국수왕돈까스","tel":"031-532-2095","addr":"경기도 포천시 선단동 82-5번지","category":"일반휴게음식 - 일반한식"}]},{"lat":"37.863058041","long":"127.1598648","items":[{"name":"이도령양념통닭","tel":"031-542-5370","addr":"경기도 포천시 선단동 307-4번지 1층","category":"일반휴게음식 - 스넥"}]},{"lat":"37.862170552","long":"127.1564992","items":[{"name":"이룸데코","tel":"031-541-3534","addr":"경기도 포천시 선단동 289-5번지","category":"직물 - 침구·수예점"}]},{"lat":"37.854527113","long":"127.16580078","items":[{"name":"이모네빈대떡","tel":"031-542-3933","addr":"경기도 포천시 선단동 54번지 1층","category":"일반휴게음식 - 일반한식"},{"name":"이모네빈대떡","tel":"","addr":"경기도 포천시 선단동 54번지 1층","category":"음식 - 한식"}]},{"lat":"37.857027176","long":"127.15574993","items":[{"name":"인(JJ)산업","tel":"031-000-0000","addr":"경기도 포천시 선단동 663-4번지","category":"주방용구 - 주방용구"},{"name":"트윈트리(twin tree)","tel":"","addr":"경기도 포천시 선단동 663-4번지","category":"서적문구 - 문구용품"}]},{"lat":"37.854338563","long":"127.15866459","items":[{"name":"인연종합상사","tel":"031-542-5889","addr":"경기도 포천시 선단동 611-2번지 은성빌라 1층 103호","category":"건축자재 - 조명기구"}]},{"lat":"37.854285521","long":"127.1645958","items":[{"name":"인파워 병원전문교육 컨설팅","tel":"031-000-0000","addr":"경기도 포천시 선단동 485-1번지 한국하이츠빌라 나동 304호","category":"용역 서비스 - 사무서비스"}]},{"lat":"37.854474393","long":"127.15814219","items":[{"name":"임병장군장점","tel":"031-696-5047","addr":"경기도 포천시 선단동 609-1번지 우리마을빌라 101동 105호","category":"신변잡화 - 기념품점"}]},{"lat":"37.856949327","long":"127.16013592","items":[{"name":"자룡B&C","tel":"031-541-4779","addr":"경기도 포천시 선단동 364-5번지","category":"기타 - 기타 전문점"}]},{"lat":"37.856032396","long":"127.15861134","items":[{"name":"장수떡방앗간","tel":"031-543-7738","addr":"경기도 포천시 선단동 685-5번지","category":"음료식품 - 제과점"},{"name":"장수떡방앗간","tel":"543-7738","addr":"경기도 포천시 선단동 685-5번지 101호","category":"제조업 - 방앗간"}]},{"lat":"37.856310193","long":"127.16636149","items":[{"name":"정민상사","tel":"031-536-7136","addr":"경기도 포천시 선단동 112-1번지 신진빌라2차 다동 401호","category":"회원제형태 - 기타3"}]},{"lat":"37.859332712","long":"127.16966357","items":[{"name":"정원가구","tel":"01-534-6399","addr":"경기도 포천시 선단동 135-1번지","category":"가구 - 일반가구"}]},{"lat":"37.855004837","long":"127.15203012","items":[{"name":"정원의료기","tel":"031-532-2228","addr":"경기도 포천시 선단동 859-1번지","category":"보건위생 - 의료용품"}]},{"lat":"37.862583891","long":"127.1640571","items":[{"name":"주식회사 나린에코","tel":"031-544-0730","addr":"경기도 포천시 선단동 334-1번지","category":"건축자재 - 목재·석재·철물"}]},{"lat":"37.851338368","long":"127.16538472","items":[{"name":"주식회사동양식자재마트","tel":"031-543-3700","addr":"경기도 포천시 선단동 503번지","category":"유통업 영리 - 슈퍼마켓"}]},{"lat":"37.862029532","long":"127.16094219","items":[{"name":"주식회사성림에너지","tel":"031-541-8839","addr":"경기도 포천시 선단동 308-27번지","category":"기타 - 기계공구"}]},{"lat":"37.852667213","long":"127.16211525","items":[{"name":"진미24","tel":"031-543-1546","addr":"경기도 포천시 선단동 460-11번지","category":"일반휴게음식 - 일반한식"},{"name":"진미24시","tel":"031-543-1546","addr":"경기도 포천시 선단동 460-11번지","category":"일반휴게음식 - 일반한식"},{"name":"진미24시","tel":"543-1546","addr":"경기도 포천시 선단동 460-11번지","category":"음식 - 한식"}]},{"lat":"37.856889995","long":"127.150284","items":[{"name":"진성자동차공업사","tel":"535-0578","addr":"경기도 포천시 선단동 834-20번지","category":"서비스 - 자동차 수리"},{"name":"진성자동차공업사","tel":"031-535-0578","addr":"경기도 포천시 선단동 834-20번지 외2필지","category":"자동차정비 유지 - 자동차정비"}]},{"lat":"37.856140689","long":"127.15847521","items":[{"name":"짱구노래연습장","tel":"031-542-8682","addr":"경기도 포천시 선단동 685-10번지","category":"레저업소 - 노 래 방"}]},{"lat":"37.857671108","long":"127.16600087","items":[{"name":"챔프솔루션","tel":"531-7713","addr":"경기도 포천시 선단동 119-3번지 청옥빌라","category":"소매업 - CCTV판매"}]},{"lat":"37.863917319","long":"127.16402591","items":[{"name":"청강","tel":"070-4616-0880","addr":"경기도 포천시 선단동 327-16","category":"주방용구 - 주방용식기"}]},{"lat":"37.859308873","long":"127.15394785","items":[{"name":"청송식당","tel":"542-7175","addr":"경기도 포천시 선단동 786-10번지","category":"음식 - 한식"},{"name":"청송식당","tel":"031-542-7175","addr":"경기도 포천시 선단동 786-10번지","category":"일반휴게음식 - 일반한식"}]},{"lat":"37.857665894","long":"127.15647849","items":[{"name":"청하반점","tel":"031-542-4190","addr":"경기도 포천시 선단동 669-5","category":"일반휴게음식 - 중국식"},{"name":"청하반점","tel":"542-4190","addr":"경기도 포천시 선단동 669-5번지","category":"음식 - 중식"}]},{"lat":"37.84917109","long":"127.16247132","items":[{"name":"추오정남원추어탕","tel":"031-541-2988","addr":"경기도 포천시 선단동 534번지","category":"일반휴게음식 - 일반한식"}]},{"lat":"37.858388165","long":"127.1621162","items":[{"name":"카믹스(car-mix)","tel":"","addr":"경기도 포천시 선단동 377-10번지 빌리지솔 C동 305호","category":"자동차정비 유지 - 자동차부품"}]},{"lat":"37.863111657","long":"127.16019447","items":[{"name":"카페 밀","tel":"031-535-0825","addr":"경기도 포천시 선단동 308-5번지","category":"일반휴게음식 - 일반한식"},{"name":"카페밀빈앤티","tel":"-","addr":"경기도 포천시 선단동 308-5번지","category":"음식 - 한식"},{"name":"카페휴","tel":"","addr":"경기도 포천시 선단동 308-5번지","category":"일반휴게음식 - 서양음식"}]},{"lat":"37.851834915","long":"127.1646359","items":[{"name":"카페 하이케","tel":"070-1478-1236","addr":"경기도 포천시 선단동 493-9번지","category":"일반휴게음식 - 서양음식"}]},{"lat":"37.857338602","long":"127.15872772","items":[{"name":"케이에스푸드 (KS FOOD)","tel":"031-542-6070","addr":"경기도 포천시 선단동 696-2번지 성신그린빌라 101호","category":"음료식품 - 기타음료식품"}]},{"lat":"37.850947667","long":"127.16119122","items":[{"name":"쿠킹아트","tel":"031-882-1700","addr":"경기도 포천시 선단동 541번지 월드S클래스 207동 201호","category":"학원 - 기타 교육기관"}]},{"lat":"37.852418831","long":"127.16586431","items":[{"name":"큐","tel":"031-542-5579","addr":"경기도 포천시 선단동 41-6번지 지하1층","category":"일반휴게음식 - 주점"},{"name":"포천금돼지","tel":"541-7300","addr":"경기도 포천시 선단동 41-6번지","category":"음식 - 커피 등"},{"name":"포천금돼지","tel":"031-541-7300","addr":"경기도 포천시 선단동 41-6번지","category":"일반휴게음식 - 일반한식"}]},{"lat":"37.851198257","long":"127.15563563","items":[{"name":"타운일일사싸우라비공방","tel":"031-543-2744","addr":"경기도 포천시 선단동 580-4번지","category":"레져용품 - 스포츠·레져용품"}]},{"lat":"37.852474267","long":"127.16486454","items":[{"name":"타이어 투데이","tel":"031-544-9580","addr":"경기도 포천시 선단동 493-1번지","category":"자동차정비 유지 - 자동차시트·타이어"}]},{"lat":"37.862476899","long":"127.15647711","items":[{"name":"토방","tel":"031-543-9865","addr":"경기도 포천시 선단동 289-2번지","category":"일반휴게음식 - 일반한식"},{"name":"토방정육식당","tel":"543-9865","addr":"경기도 포천시 선단동 289-2번지","category":"음식 - 한식"}]},{"lat":"37.853867061","long":"127.16750372","items":[{"name":"토속집","tel":"031-543-5836","addr":"경기도 포천시 선단동 56-11번지","category":"일반휴게음식 - 일반한식"}]},{"lat":"37.850256496","long":"127.15928091","items":[{"name":"팜파스","tel":"031-853-2858","addr":"경기도 포천시 선단동 568-4번지","category":"가구 - 일반가구"}]},{"lat":"37.860192865","long":"127.15310875","items":[{"name":"평안어린이집[아이행복]","tel":"031-536-0079","addr":"경기도 포천시 선단동 784번지","category":"학원 - 유아원"}]},{"lat":"37.860754605","long":"127.17078041","items":[{"name":"포천점현대자동차","tel":"031-534-3989","addr":"경기도 포천시 선단동 151-7번지","category":"자동차정비 유지 - 자동차정비"}]},{"lat":"37.85664001","long":"127.16888481","items":[{"name":"포천중고재활용","tel":"031-542-7282","addr":"경기도 포천시 선단동 82-8번지","category":"전기제품 - 가전제품"},{"name":"포천중고재활용","tel":"542-7282","addr":"경기도 포천시 선단동 82-8번지","category":"소매업 - 가전제품"}]},{"lat":"37.851671667","long":"127.16541954","items":[{"name":"포천한우마을","tel":"031-544-1500","addr":"경기도 포천시 선단동 495-9번지 1층 ,2층","category":"일반휴게음식 - 일반한식"},{"name":"포천한우마을","tel":"031-544-1500","addr":"경기도 포천시 선단동 495-9번지","category":"음료식품 - 정육점"}]},{"lat":"37.854668893","long":"127.1675055","items":[{"name":"풍천민물장어 드람하우스","tel":"031-536-7834","addr":"경기도 포천시 선단동 58-11번지","category":"일반휴게음식 - 일반한식"},{"name":"풍천민물장어 드림하우스","tel":"031-536-7834","addr":"경기도 포천시 선단동 58-11번지","category":"음료식품 - 농·축·수산품"},{"name":"풍천민물장어드림하우스","tel":"536-7834","addr":"경기도 포천시 선단동 58-11번지","category":"음식 - 한식"},{"name":"한탄강메기매운탕","tel":"543-5535","addr":"경기도 포천시 선단동 58-11번지 2층","category":"음식 - 한식"}]},{"lat":"37.859942004","long":"127.15200597","items":[{"name":"플러스 광고","tel":"031-544-7572","addr":"경기도 포천시 선단동 796-6번지 101호","category":"건축자재 - 인테리어전문"}]},{"lat":"37.857756278","long":"127.16302389","items":[{"name":"피자에꿈","tel":"031-536-6616","addr":"경기도 포천시 선단동 378번지","category":"일반휴게음식 - 서양음식"},{"name":"피자에꿈","tel":"536-6616","addr":"경기도 포천시 선단동 378번지","category":"음식 - 피자 등"}]},{"lat":"37.858311485","long":"127.15186633","items":[{"name":"하엘어린이집[아이행복]","tel":"031-8080-0111","addr":"경기도 포천시 선단동 838-2번지 백두산빌라 103동 102호","category":"학원 - 유아원"}]},{"lat":"37.865914046","long":"127.15983676","items":[{"name":"학사편의점","tel":"070-4068-6618","addr":"경기도 포천시 선단동 251-19번지","category":"유통업 영리 - 편 의 점"}]},{"lat":"37.848359986","long":"127.16266272","items":[{"name":"한국종합주방","tel":"031-541-2225","addr":"경기도 포천시 선단동 526-6번지","category":"전기제품 - 가전제품"}]},{"lat":"37.862723626","long":"127.16725068","items":[{"name":"한라출장부페","tel":"031-531-9957","addr":"경기도 포천시 선단동 217-9번지","category":"일반휴게음식 - 일반한식"}]},{"lat":"37.852610171","long":"127.16430808","items":[{"name":"한마음유통","tel":"031-541-5773","addr":"경기도 포천시 선단동 468-2번지 삼익빌라트 1동 103호","category":"회원제형태 - 기타4"}]},{"lat":"37.853641668","long":"127.16761684","items":[{"name":"한상궁 왕족발","tel":"031-535-1338","addr":"경기도 포천시 선단동 56-8번지 1층","category":"일반휴게음식 - 일반한식"},{"name":"한상궁왕족발","tel":"541-0510","addr":"경기도 포천시 선단동 56-8번지","category":"음식 - 한식"}]},{"lat":"37.85706001","long":"127.16488594","items":[{"name":"헤어짱","tel":"031-544-5858","addr":"경기도 포천시 선단동 402번지 w하우스 나동 1층","category":"보건위생 - 미용원"}]},{"lat":"37.850999726","long":"127.15588519","items":[{"name":"현재섬유","tel":"070-7792-1990","addr":"경기도 포천시 선단동 580-13번지","category":"의류 - 기타의류"}]},{"lat":"37.848919658","long":"127.16185723","items":[{"name":"형제식당","tel":"031-541-4291","addr":"경기도 포천시 선단동 555번지 1층","category":"일반휴게음식 - 일반한식"}]},{"lat":"37.851978908","long":"127.16474984","items":[{"name":"호국로식당","tel":"544-1413","addr":"경기도 포천시 선단동 493-15번지","category":"음식 - 한식"},{"name":"호국로영양탕","tel":"031-544-1413","addr":"경기도 포천시 선단동 493-15번지","category":"일반휴게음식 - 일반한식"}]},{"lat":"37.863053571","long":"127.15642149","items":[{"name":"홍짜장&유성냉면","tel":"544-4442","addr":"경기도 포천시 선단동 277-5번지","category":"음식 - 중식"},{"name":"홍짜장&유성냉면","tel":"031-542-0355","addr":"경기도 포천시 선단동 277-5번지","category":"일반휴게음식 - 일반한식"}]},{"lat":"37.857918229","long":"127.16967174","items":[{"name":"황금낚시","tel":"536-5788","addr":"경기도 포천시 선단동 81-5번지","category":"소매업 - 낚시용품"},{"name":"황금낚시","tel":"031-536-5788","addr":"경기도 포천시 선단동 81-5번지","category":"유통업 영리 - 슈퍼마켓"}]},{"lat":"37.855755303","long":"127.15694041","items":[{"name":"효정원","tel":"031-532-2228","addr":"경기도 포천시 선단동 856-11번지","category":"기타의료기관 - 기타의료기관 및 기타"}]}]