[{"lat":"37.027413854","long":"127.34195406","imageIndex":7,"items":[{"name":"(주)금수원 식품","tel":"031-671-3701","addr":"경기도 안성시 보개면 상삼리 1번지","indutype":"음료식품 - 농·축·수산품","category":"food"}]},{"lat":"37.027216078","long":"127.33542374","imageIndex":7,"items":[{"name":"(주)안성축산맛있는고기","tel":"031-674-7383","addr":"경기도 안성시 보개면 상삼리 127-2","indutype":"음료식품 - 정육점","category":"food"}]},{"lat":"37.019078471","long":"127.32600531","imageIndex":7,"items":[{"name":"거리실농원","tel":"031-673-8672","addr":"경기도 안성시 보개면 상삼리 735-6번지","indutype":"음료식품 - 농·축·수산품","category":"food"},{"name":"흙구술","tel":"031-677-5230","addr":"경기도 안성시 보개면 상삼리 735-6번지","indutype":"음료식품 - 농·축·수산품","category":"food"}]},{"lat":"37.021943423","long":"127.32283723","imageIndex":7,"items":[{"name":"산울농원","tel":"031-1111-1111","addr":"경기도 안성시 보개면 상삼리 641-1번지","indutype":"음료식품 - 농·축·수산품","category":"food"}]},{"lat":"37.02699357","long":"127.33764794","imageIndex":7,"items":[{"name":"삼해어촌영어조합법인","tel":"031-674-9652","addr":"경기도 안성시 보개면 상삼리 17-2번지","indutype":"음료식품 - 농·축·수산품","category":"food"}]},{"lat":"37.025881008","long":"127.33273202","imageIndex":7,"items":[{"name":"영광포도원","tel":"031-672-6003","addr":"경기도 안성시 보개면 상삼리 98-1번지","indutype":"음료식품 - 농·축·수산품","category":"food"}]}]