[{"lat":"37.274901168","long":"127.01811456","items":[{"name":"(주)극동항공여행사","tel":"031-241-0955","addr":"경기도 수원시 팔달구 구천동 10-50번지","category":"여행 - 관광여행"}]},{"lat":"37.274738961","long":"127.01828365","items":[{"name":"(주)투앤투","tel":"031-241-5011","addr":"경기도 수원시 팔달구 구천동 10-35번지","category":"용역 서비스 - 기타용역서비스"}]},{"lat":"37.274955197","long":"127.01836262","items":[{"name":"(주)현대정보통신_PS","tel":"0331-247-6011","addr":"경기도 수원시 팔달구 구천동 10-44번지","category":"사무통신 - 통신기기"},{"name":"동서슈퍼","tel":"031-254-9330","addr":"경기도 수원시 팔달구 구천동 10-44번지","category":"유통업 영리 - 슈퍼마켓"},{"name":"에쎄수원점","tel":"031-244-0740","addr":"경기도 수원시 팔달구 구천동 10-44번지","category":"레져용품 - 스포츠·레져용품"}]},{"lat":"37.273819858","long":"127.01870063","items":[{"name":"강남스타일","tel":"","addr":"경기도 수원시 팔달구 구천동 1-36번지 영동시장 라동 255호 내","category":"의류 - 정장"}]},{"lat":"37.272261209","long":"127.01769686","items":[{"name":"강남아크릴빼크합성수지","tel":"031-243-7111","addr":"경기도 수원시 팔달구 구천동 78","category":"기타 - 기타 전문점"},{"name":"국제상사","tel":"031-255-1682","addr":"경기도 수원시 팔달구 구천동 78","category":"전기제품 - 기타전기제품"}]},{"lat":"37.273018059","long":"127.01780976","items":[{"name":"강원공조닥트","tel":"031-243-6646","addr":"경기도 수원시 팔달구 구천동 46-31번지","category":"건축자재 - 기타건축자재"},{"name":"성일기계공업사","tel":"031-247-6602","addr":"경기도 수원시 팔달구 구천동 46-31번지","category":"기타 - 기계공구"},{"name":"협동공업사","tel":"031-252-3704","addr":"경기도 수원시 팔달구 구천동 46-31번지","category":"건축자재 - 목재·석재·철물"}]},{"lat":"37.272711706","long":"127.01783225","items":[{"name":"경기고무","tel":"031-256-9181","addr":"경기도 수원시 팔달구 구천동 46-27","category":"기타 - 기계공구"}]},{"lat":"37.273540619","long":"127.01809173","items":[{"name":"경기베크라이트","tel":"031-224-2788","addr":"경기도 수원시 팔달구 구천동 46-59번지","category":"건축자재 - 기타건축자재"},{"name":"동명알곤","tel":"031-242-6309","addr":"경기도 수원시 팔달구 구천동 46-59번지","category":"기타 - 기타 전문점"},{"name":"신흥톱공구","tel":"031-224-6495","addr":"경기도 수원시 팔달구 구천동 46-59번지","category":"기타 - 기계공구"},{"name":"제일무뉘목","tel":"031-258-8212","addr":"경기도 수원시 팔달구 구천동 46-59번지","category":"건축자재 - 기타건축자재"}]},{"lat":"37.273153167","long":"127.01817058","items":[{"name":"경기철망공사","tel":"031-286-6655","addr":"경기도 수원시 팔달구 구천동 46-29번지","category":"건축자재 - 기타건축자재"},{"name":"동명기계공구","tel":"031-252-3809","addr":"경기도 수원시 팔달구 구천동 46-29번지","category":"기타 - 기계공구"},{"name":"링종합공구","tel":"031-241-2853","addr":"경기도 수원시 팔달구 구천동 46-29번지","category":"기타 - 기계공구"},{"name":"이화목재","tel":"031-245-7735","addr":"경기도 수원시 팔달구 구천동 46-29번지","category":"건축자재 - 건축용 요업제품"}]},{"lat":"37.273621672","long":"127.01839617","items":[{"name":"경일금속","tel":"031-245-1848","addr":"경기도 수원시 팔달구 구천동 45-1번지","category":"건축자재 - 기타건축자재"}]},{"lat":"37.27204501","long":"127.01731348","items":[{"name":"광명고무","tel":"031-258-6666","addr":"경기도 수원시 팔달구 구천동 86-1번지","category":"기타 - 기타 전문점"}]},{"lat":"37.274261402","long":"127.0183963","items":[{"name":"궁웨딩컨벤션","tel":"031-252-1998","addr":"경기도 수원시 팔달구 구천동 10-24번지 수원디자이너클럽8층100호,9,10,11,12,13층","category":"용역 서비스 - 혼례서비스"},{"name":"때깔","tel":"031-229-3272","addr":"경기도 수원시 팔달구 구천동 10-24번지 수원디자이너클럽 1층 55호","category":"의류 - 정장"},{"name":"블랙&화이트","tel":"063-224-1087","addr":"경기도 수원시 팔달구 구천동 10-24번지 수원디자이너클럽","category":"의류 - 정장"},{"name":"타21","tel":"031-229-3355","addr":"경기도 수원시 팔달구 구천동 10-24번지 수원디자이너클럽 3층 80호","category":"의류 - 정장"},{"name":"할리스커피숍","tel":"031-229-3950","addr":"경기도 수원시 팔달구 구천동 10-24번지 수원디자이너크럽 8층 S003호","category":"일반휴게음식 - 칵테일바"}]},{"lat":"37.272044979","long":"127.01756153","items":[{"name":"금성종합공구","tel":"031-244-9393","addr":"경기도 수원시 팔달구 구천동 82-1번지","category":"기타 - 기계공구"},{"name":"동신상사","tel":"031-252-3062","addr":"경기도 수원시 팔달구 구천동 82-1번지","category":"기타 - 기타 전문점"}]},{"lat":"37.274819991","long":"127.01875722","items":[{"name":"녹산굿모닝치과의원","tel":"031-243-5900","addr":"경기도 수원시 팔달구 구천동 13-2번지 7층","category":"의원 - 치과의원"},{"name":"녹산문고","tel":"031-247-3307","addr":"경기도 수원시 팔달구 구천동 13-2번지 지하1층","category":"서적문구 - 일반서적"},{"name":"주식회사녹산이엔씨","tel":"031-259-3181","addr":"경기도 수원시 팔달구 구천동 13-2번지 녹산빌딩","category":"서적문구 - 일반서적"}]},{"lat":"37.271657588","long":"127.01714429","items":[{"name":"대광상사","tel":"031-252-4853","addr":"경기도 수원시 팔달구 구천동 98-1번지","category":"기타 - 기계공구"}]},{"lat":"37.272513483","long":"127.01780966","items":[{"name":"대진스틸","tel":"031-252-3053","addr":"경기도 수원시 팔달구 구천동 46-21번지 8호","category":"건축자재 - 목재·석재·철물"},{"name":"제일철공소","tel":"031-243-3114","addr":"경기도 수원시 팔달구 구천동 46-21번지","category":"건축자재 - 목재·석재·철물"}]},{"lat":"37.273765811","long":"127.01858787","items":[{"name":"덕원상사","tel":"031-252-3231","addr":"경기도 수원시 팔달구 구천동 1-25번지","category":"문화.취미 - 민예·공예품"}]},{"lat":"37.272990996","long":"127.0180578","items":[{"name":"동신종합공구","tel":"031-252-3767","addr":"경기도 수원시 팔달구 구천동 46-35번지","category":"기타 - 기계공구"}]},{"lat":"37.272621679","long":"127.0172234","items":[{"name":"떳구나고기부페","tel":"031-255-6887","addr":"경기도 수원시 팔달구 구천동 66-2번지","category":"일반휴게음식 - 일반한식"},{"name":"마이파크","tel":"031-245-0170","addr":"경기도 수원시 팔달구 구천동 66-2번지","category":"숙박업 - 여관/기타숙박업"},{"name":"마이파크","tel":"031-245-0177","addr":"경기도 수원시 팔달구 구천동 66-2번지","category":"숙박업 - 여관/기타숙박업"}]},{"lat":"37.274261532","long":"127.01737028","items":[{"name":"리더스싱글","tel":"070-9744-6603","addr":"경기도 수원시 팔달구 구천동 32-7번지","category":"숙박업 - 여관/기타숙박업"}]},{"lat":"37.272738826","long":"127.01711067","items":[{"name":"매일종합공구상사","tel":"031-252-3585","addr":"경기도 수원시 팔달구 구천동 67번지","category":"기타 - 기계공구"},{"name":"수리종합공구","tel":"031-254-0989","addr":"경기도 수원시 팔달구 구천동 67번지","category":"기타 - 기계공구"},{"name":"지훈스포츠","tel":"","addr":"경기도 수원시 팔달구 구천동 67번지 2층","category":"레져용품 - 스포츠·레져용품"}]},{"lat":"37.274207446","long":"127.01756195","items":[{"name":"먹을래감자탕","tel":"031-242-8207","addr":"경기도 수원시 팔달구 구천동 32-5번지","category":"일반휴게음식 - 일반한식"}]},{"lat":"37.274513613","long":"127.01897138","items":[{"name":"명보칼국수","tel":"031-245-0990","addr":"경기도 수원시 팔달구 구천동 5-9번지 1층","category":"일반휴게음식 - 일반한식"}]},{"lat":"37.272378333","long":"127.01777581","items":[{"name":"명일공구","tel":"031-242-0020","addr":"경기도 수원시 팔달구 구천동 46-23번지","category":"기타 - 기계공구"}]},{"lat":"37.27279278","long":"127.01797884","items":[{"name":"목계정밀","tel":"070-4144-1272","addr":"경기도 수원시 팔달구 구천동 46-30","category":"기타 - 기계공구"},{"name":"성원알곤","tel":"031-241-0567","addr":"경기도 수원시 팔달구 구천동 46-30","category":"건축자재 - 기타건축자재"},{"name":"주식회사 케이더블유공조시스템","tel":"031-243-6646","addr":"경기도 수원시 팔달구 구천동 46-30번지 1층","category":"건축자재 - 기타건축자재"}]},{"lat":"37.27392797","long":"127.01877958","items":[{"name":"문성금속","tel":"031-252-3920","addr":"경기도 수원시 팔달구 구천동 1-34번지","category":"기타 - 기계공구"},{"name":"주식회사 월드전기","tel":"031-257-7900","addr":"경기도 수원시 팔달구 구천동 1-34번지 1호 2호","category":"전기제품 - 기타전기제품"}]},{"lat":"37.27440561","long":"127.01805808","items":[{"name":"변신하는날","tel":"031-251-4210","addr":"경기도 수원시 팔달구 구천동 10-34번지","category":"보건위생 - 이용원"}]},{"lat":"37.274955278","long":"127.01773122","items":[{"name":"부르스","tel":"031-245-5989","addr":"경기도 수원시 팔달구 구천동 21-3번지","category":"의류 - 정장"},{"name":"주식회사 엠","tel":"031-247-2242","addr":"경기도 수원시 팔달구 구천동 21-3번지","category":"사무통신 - 통신기기"},{"name":"주식회사세잎누리","tel":"070-4667-6695","addr":"경기도 수원시 팔달구 구천동 21-3번지 1층","category":"사무통신 - 통신기기"}]},{"lat":"37.275045332","long":"127.01811459","items":[{"name":"삼성당","tel":"031-252-3740","addr":"경기도 수원시 팔달구 구천동 20번지","category":"신변잡화 - 시계"}]},{"lat":"37.274594701","long":"127.01900522","items":[{"name":"성진종합상사","tel":"031-256-0166","addr":"경기도 수원시 팔달구 구천동 5-8번지 2동","category":"농업 - 기타농업관련"},{"name":"신광상사","tel":"031-256-0166","addr":"경기도 수원시 팔달구 구천동 5-8번지","category":"기타 - 기계공구"}]},{"lat":"37.272153096","long":"127.01761792","items":[{"name":"세림종합공구","tel":"031-255-0989","addr":"경기도 수원시 팔달구 구천동 76번지","category":"기타 - 기계공구"}]},{"lat":"37.273180302","long":"127.01733625","items":[{"name":"세븐일레븐구천타운점","tel":"031-1577-0711","addr":"경기도 수원시 팔달구 구천동 47-10번지 1층","category":"유통업 영리 - 편 의 점"}]},{"lat":"37.274874173","long":"127.01783268","items":[{"name":"수원춘이갈비","tel":"031-247-3544","addr":"경기도 수원시 팔달구 구천동 22번지","category":"일반휴게음식 - 일반한식"},{"name":"신원모터스","tel":"","addr":"경기도 수원시 팔달구 구천동 22번지","category":"자동차정비 유지 - 자동차부품"}]},{"lat":"37.27192788","long":"127.01727964","items":[{"name":"신일상사","tel":"031-252-0456","addr":"경기도 수원시 팔달구 구천동 86번지","category":"자동차정비 유지 - 자동차부품"}]},{"lat":"37.274018279","long":"127.01716729","items":[{"name":"썬파크모텔","tel":"031-207-7318","addr":"경기도 수원시 팔달구 구천동 39-1번지 외1필지","category":"숙박업 - 여관/기타숙박업"}]},{"lat":"37.274955265","long":"127.01783269","items":[{"name":"알즈너 힘찬대리점","tel":"031-251-8875","addr":"경기도 수원시 팔달구 구천동 21-4번지","category":"레져용품 - 스포츠·레져용품"}]},{"lat":"37.273486572","long":"127.01797897","items":[{"name":"율이김밥","tel":"031-245-5333","addr":"경기도 수원시 팔달구 구천동 46-58번지 1층 101호 PARK VILL II","category":"일반휴게음식 - 스넥"}]},{"lat":"37.274955075","long":"127.0192759","items":[{"name":"일동주차장","tel":"031-252-4003","addr":"경기도 수원시 팔달구 구천동 1-32번지 외","category":"자동차정비 유지 - 주차장"},{"name":"자연통신","tel":"031-256-4011","addr":"경기도 수원시 팔달구 구천동 1-32번지 1층","category":"사무통신 - 통신기기"}]},{"lat":"37.274513736","long":"127.01803555","items":[{"name":"일억슈퍼","tel":"031-257-1979","addr":"경기도 수원시 팔달구 구천동 10-4번지","category":"유통업 영리 - 슈퍼마켓"}]},{"lat":"37.272792867","long":"127.0172798","items":[{"name":"장성공구","tel":"031-241-0946","addr":"경기도 수원시 팔달구 구천동 66-1번지","category":"기타 - 기계공구"},{"name":"제일종합공구","tel":"031-242-2909","addr":"경기도 수원시 팔달구 구천동 66-1번지","category":"기타 - 기계공구"}]},{"lat":"37.274540613","long":"127.01919688","items":[{"name":"조선관","tel":"031-244-1092","addr":"경기도 수원시 팔달구 구천동 5-6번지 2층","category":"일반휴게음식 - 일반한식"}]},{"lat":"37.274567869","long":"127.01747182","items":[{"name":"퀸","tel":"031-111-1111","addr":"경기도 수원시 팔달구 구천동 24번지","category":"유통업 영리 - 슈퍼마켓"},{"name":"호텔퀸","tel":"031-242-8948","addr":"경기도 수원시 팔달구 구천동 24번지","category":"숙박업 - 여관/기타숙박업"}]},{"lat":"37.273874077","long":"127.01747168","items":[{"name":"큐브 크린","tel":"070-3659-2470","addr":"경기도 수원시 팔달구 구천동 41-1번지 804호","category":"용역 서비스 - 종합용역"}]},{"lat":"37.273991105","long":"127.01830605","items":[{"name":"하나인테리어","tel":"031-258-2444","addr":"경기도 수원시 팔달구 구천동 10-67번지 605호","category":"건축자재 - 인테리어전문"}]},{"lat":"37.271846788","long":"127.01727962","items":[{"name":"함양철물","tel":"031-252-3054","addr":"경기도 수원시 팔달구 구천동 96-1번지","category":"건축자재 - 목재·석재·철물"}]},{"lat":"37.272324335","long":"127.01725716","items":[{"name":"혜인상사","tel":"","addr":"경기도 수원시 팔달구 구천동 69-2번지 201호","category":"의류 - 정장"}]}]