[{"lat":"37.688233723","long":"126.75878963","imageIndex":7,"items":[{"name":"공단마트","tel":"031-918-0877","addr":"경기도 고양시 일산서구 덕이동 206-6번지","indutype":"유통업 영리 - 슈퍼마켓","category":"mart"}]},{"lat":"37.701042586","long":"126.73271274","imageIndex":7,"items":[{"name":"굿모닝마트","tel":"031-919-5447","addr":"경기도 고양시 일산서구 덕이동 1204-4번지","indutype":"유통업 영리 - 슈퍼마켓","category":"mart"}]},{"lat":"37.701236982","long":"126.7430421","imageIndex":7,"items":[{"name":"동문할인마트","tel":"031-924-4027","addr":"경기도 고양시 일산서구 덕이동 725-3번지","indutype":"유통업 영리 - 슈퍼마켓","category":"mart"}]},{"lat":"37.689295017","long":"126.75790183","imageIndex":7,"items":[{"name":"썬마트","tel":"070-7789-8529","addr":"경기도 고양시 일산서구 덕이동 219-65번지","indutype":"유통업 영리 - 슈퍼마켓","category":"mart"}]},{"lat":"37.695958304","long":"126.73940954","imageIndex":7,"items":[{"name":"오마트","tel":"031-912-3326","addr":"경기도 고양시 일산서구 덕이동 997-1번지","indutype":"유통업 영리 - 슈퍼마켓","category":"mart"}]}]