[{"lat":"37.206409827","long":"127.0366202","imageIndex":17,"items":[{"name":"(주)시드플러스","tel":"031-234-2238","addr":"경기도 화성시 병점동 379-10번지 병점프라자 4층 404호","indutype":"용역 서비스 - 종합용역","category":"other"},{"name":"경기에너지","tel":"031-278-3309","addr":"경기도 화성시 병점동 379-10번지 병점프라자 7층 27호","indutype":"건축자재 - 보일러·펌프·샷시","category":"other"},{"name":"동성에너지","tel":"031-225-4407","addr":"경기도 화성시 병점동 379-10번지 병점프라자 742호","indutype":"건축자재 - 보일러·펌프·샷시","category":"other"},{"name":"빈티지","tel":"031-238-0328","addr":"경기도 화성시 병점동 379-10번지 병점프라자 1층 112호","indutype":"의류 - 기타의류","category":"other"},{"name":"송월타월(병점,동탄,팔탄,남양)","tel":"031-221-8228","addr":"경기도 화성시 병점동 379-10병점프라자10","indutype":"직물 - 옷감·직물","category":"other"},{"name":"아이빅(IVIC)","tel":"031-233-1337","addr":"경기도 화성시 병점동 379-10번지 병점프라자 748호","indutype":"기타 - 기계공구","category":"other"}]},{"lat":"37.205716657","long":"127.03433315","imageIndex":17,"items":[{"name":"(주)제니스타","tel":"070-4603-6467","addr":"경기도 화성시 병점동 386-12번지 201호","indutype":"주방용구 - 정수기","category":"other"}]},{"lat":"37.200912661","long":"127.03942249","imageIndex":17,"items":[{"name":"(주)제이비디자인","tel":"031-693-8412","addr":"경기도 화성시 병점동 476-9번지 2층 202호","indutype":"건축자재 - 인테리어전문","category":"other"},{"name":"아이비코리아","tel":"070-7795-0930","addr":"경기도 화성시 병점동 476-9번지 2층","indutype":"용역 서비스 - 기타용역서비스","category":"other"}]},{"lat":"37.211129776","long":"127.04150028","imageIndex":17,"items":[{"name":"ADDRESS 808(어드레스 808)","tel":"031-8058-3478","addr":"경기도 화성시 병점동 829-1번지 유진클라우스 109호","indutype":"의류 - 정장","category":"other"},{"name":"거상광고","tel":"031-231-1942","addr":"경기도 화성시 병점동 829-1번지 유진클라우스 204호","indutype":"용역 서비스 - 종합용역","category":"other"},{"name":"대형에프아이티(FIT)","tel":"031-236-6570","addr":"경기도 화성시 병점동 829-1번지 유진클라우스 상가 403호","indutype":"기타 - 기계공구","category":"other"},{"name":"크로스핏범","tel":"031-222-7001","addr":"경기도 화성시 병점동 829-1번지 (110,111,112,113호)","indutype":"회원제형태 - 레져업소","category":"other"},{"name":"하얀크리닝","tel":"031-898-5624","addr":"경기도 화성시 병점동 829-1번지 유진클라우스 1층 106호","indutype":"수리서비스 - 세탁소","category":"other"}]},{"lat":"37.207130823","long":"127.03603474","imageIndex":17,"items":[{"name":"BELFIORI","tel":"031-222-0665","addr":"경기도 화성시 병점동 354-18번지","indutype":"문화.취미 - 화원","category":"other"},{"name":"이지퍼니처","tel":"031-234-9233","addr":"경기도 화성시 병점동 354-18번지 103호","indutype":"가구 - 일반가구","category":"other"},{"name":"한복대여아름방","tel":"031-224-5474","addr":"경기도 화성시 병점동 354-18번지 202호","indutype":"의류 - 맞춤복점","category":"other"}]},{"lat":"37.206381493","long":"127.04092335","imageIndex":17,"items":[{"name":"BYC병점점","tel":"031-221-7128","addr":"경기도 화성시 병점동 316번지","indutype":"의류 - 내의판매","category":"other"}]},{"lat":"37.214579713","long":"127.04455514","imageIndex":17,"items":[{"name":"FITNESS 2.0","tel":"031-226-9344","addr":"경기도 화성시 병점동 845-2번지 한마음프라자 405호","indutype":"회원제형태 - 레져업소","category":"other"},{"name":"더블유 네트웍스","tel":"070-4159-4449","addr":"경기도 화성시 병점동 845-2번지 한마음프라자동 602호","indutype":"신변잡화 - 신발","category":"other"},{"name":"루싼스튜디오","tel":"","addr":"경기도 화성시 병점동 845-2번지 한마음프라자 302호","indutype":"문화.취미 - 티켓","category":"other"},{"name":"슬라임연구소","tel":"031-202-1454","addr":"경기도 화성시 병점동 845-2번지 한마음프라자 804호","indutype":"신변잡화 - 기타잡화","category":"other"},{"name":"씨유화성한마음점","tel":"031-233-0359","addr":"경기도 화성시 병점동 845-2번지 한마음프라자 102호","indutype":"유통업 영리 - 편 의 점","category":"other"},{"name":"크린토피아병점중앙점","tel":"031-898-9160","addr":"경기도 화성시 병점동 845-2 한마음프라자 101-1호","indutype":"수리서비스 - 세탁소","category":"other"},{"name":"투투","tel":"031-221-4413","addr":"경기도 화성시 병점동 845-2번지 한마음프라자 106호","indutype":"의류 - 정장","category":"other"},{"name":"포토나인","tel":"031-232-7009","addr":"경기도 화성시 병점동 845-2번지 한마음프라자 2층 205호","indutype":"광학제품 - 사진관","category":"other"},{"name":"홀릭스터디카페 병점점","tel":"070-3516-7413","addr":"경기도 화성시 병점동 845-2번지 한마음프라자 202,206호","indutype":"용역 서비스 - 사무서비스","category":"other"}]},{"lat":"37.20640962","long":"127.03734115","imageIndex":17,"items":[{"name":"GS25병점1동점","tel":"02-2006-2485","addr":"경기도 화성시 병점동 366-5번지 1층","indutype":"유통업 영리 - 편 의 점","category":"other"}]},{"lat":"37.206915059","long":"127.03425479","imageIndex":17,"items":[{"name":"GS25병점역점","tel":"02-2006-2118","addr":"경기도 화성시 병점동 382-2번지 미라클프라자 103호","indutype":"유통업 영리 - 편 의 점","category":"other"},{"name":"볼맨무도(댄스)학원","tel":"031-222-3668","addr":"경기도 화성시 병점동 382-2번지 미라클프라자 508호","indutype":"회원제형태 - 레져업소","category":"other"},{"name":"아라한타투","tel":"031-000-0000","addr":"경기도 화성시 병점동 382-2번지 미라클프라자 107호","indutype":"의류 - 정장","category":"other"},{"name":"어울림","tel":"031-278-7161","addr":"경기도 화성시 병점동 382-2번지 미라클프라자 212호","indutype":"서적문구 - 문구용품","category":"other"},{"name":"창림법원경매 주식회사","tel":"070-7738-9357","addr":"경기도 화성시 병점동 382-2번지 오피스밸리 230호","indutype":"용역 서비스 - 사무서비스","category":"other"},{"name":"창림법원경매 주식회사","tel":"070-7738-9357","addr":"경기도 화성시 병점동 382-2번지 미라클프라자 오피스밸리 230호","indutype":"용역 서비스 - 사무서비스","category":"other"},{"name":"창림법원경매 주식회사","tel":"070-7738-9357","addr":"경기도 화성시 병점동 382-2번지 오피스밸리 230호","indutype":"용역 서비스 - 사무서비스","category":"other"},{"name":"클린 스토리","tel":"","addr":"경기도 화성시 병점동 382-2번지 오피스밸리 221호","indutype":"전기제품 - 기타전기제품","category":"other"}]},{"lat":"37.206104007","long":"127.03469378","imageIndex":17,"items":[{"name":"GS25병점타운점","tel":"","addr":"경기도 화성시 병점동 381-23번지 1층","indutype":"유통업 영리 - 편 의 점","category":"other"}]},{"lat":"37.199047798","long":"127.03847544","imageIndex":17,"items":[{"name":"GS25병점한일점","tel":"","addr":"경기도 화성시 병점동 520번지 한일타운 상가동 101호","indutype":"유통업 영리 - 편 의 점","category":"other"},{"name":"커텐전문점허니","tel":"031-221-5441","addr":"경기도 화성시 병점동 520번지 한일타운 상가동 102호","indutype":"직물 - 침구·수예점","category":"other"},{"name":"한일세탁소","tel":"031-225-0012","addr":"경기도 화성시 병점동 520번지 한일타운 상가 206호","indutype":"수리서비스 - 세탁소","category":"other"}]},{"lat":"37.214859129","long":"127.04428491","imageIndex":17,"items":[{"name":"GS25화성상록점","tel":"","addr":"경기도 화성시 병점동 844-7번지 상록프라자 106호","indutype":"유통업 영리 - 편 의 점","category":"other"},{"name":"베베캠퍼스","tel":"031-234-2212","addr":"경기도 화성시 병점동 844-7번지 상록프라자 206-나E호","indutype":"용역 서비스 - 종합용역","category":"other"},{"name":"스토리몰","tel":"070-8621-6027","addr":"경기도 화성시 병점동 844-7번지 상록프라자 2층 206마I(아이)호","indutype":"의류 - 정장","category":"other"},{"name":"아셀","tel":"070-8252-6597","addr":"경기도 화성시 병점동 844-7번지 상록프라자 206동 2층 라L호","indutype":"전기제품 - 기타전기제품","category":"other"},{"name":"약손이야기","tel":"031-224-9666","addr":"경기도 화성시 병점동 844-7번지 상록프라자 401호","indutype":"회원제형태 - 기타4","category":"other"},{"name":"어택라인","tel":"","addr":"경기도 화성시 병점동 844-7번지 상록프라자 206-5호","indutype":"레져용품 - 스포츠·레져용품","category":"other"},{"name":"월드에셋 주식회사","tel":"031-487-9070","addr":"경기도 화성시 병점동 844-7번지 206-가 1호","indutype":"용역 서비스 - 사무서비스","category":"other"},{"name":"월드에셋주식회사","tel":"031-487-9070","addr":"경기도 화성시 병점동 844-7번지 상록프라자 206-가1호","indutype":"용역 서비스 - 사무서비스","category":"other"},{"name":"정's","tel":"031-237-1981","addr":"경기도 화성시 병점동 844-7번지 상록프라자 111호","indutype":"신변잡화 - 신발","category":"other"},{"name":"제이에셋 주식회사","tel":"02-1566-8860","addr":"경기도 화성시 병점동 844-7번지 상록프라자 2층 206-2 마호","indutype":"용역 서비스 - 사무서비스","category":"other"},{"name":"제이에셋 주식회사","tel":"02-1566-8860","addr":"경기도 화성시 병점동 844-7번지 상록프라자 2층 206-2 마호","indutype":"용역 서비스 - 사무서비스","category":"other"},{"name":"제이에셋 주식회사","tel":"02-1566-8860","addr":"경기도 화성시 병점동 844-7번지 상록프라자 2층 206-2 마호","indutype":"용역 서비스 - 사무서비스","category":"other"},{"name":"제이에셋 주식회사","tel":"02-1566-8860","addr":"경기도 화성시 병점동 844-7번지 상록프라자 2층 206-2마호","indutype":"용역 서비스 - 사무서비스","category":"other"},{"name":"주식회사 합니다","tel":"031-8027-4778","addr":"경기도 화성시 병점동 844-7번지 상록프라자 206호","indutype":"의류 - 아동의류","category":"other"},{"name":"착한인테리어주식회사","tel":"031-235-8222","addr":"경기도 화성시 병점동 844-7번지 상록프라자 602호","indutype":"건축자재 - 인테리어전문","category":"other"},{"name":"코쿤트레이드","tel":"","addr":"경기도 화성시 병점동 844-7번지 상록프라자 2층 206-나7호","indutype":"레져용품 - 스포츠·레져용품","category":"other"},{"name":"티하우스","tel":"031-221-3669","addr":"경기도 화성시 병점동 844-7번지 상록프라자 111호","indutype":"의류 - 정장","category":"other"},{"name":"푸른가설시스템(주)","tel":"031-8059-4415","addr":"경기도 화성시 병점동 844-7번지 상록프라자 206 가8호","indutype":"건축자재 - 기타건축자재","category":"other"},{"name":"푸른도서","tel":"031-248-9356","addr":"경기도 화성시 병점동 844-7번지 상록프라자 라6호동 2층 206호","indutype":"서적문구 - 일반서적","category":"other"}]},{"lat":"37.205381711","long":"127.03975132","imageIndex":17,"items":[{"name":"GS25화성태안점","tel":"080-555-2525","addr":"경기도 화성시 병점동 431-3번지 두산탑프라자 109호","indutype":"유통업 영리 - 편 의 점","category":"other"}]},{"lat":"37.205220981","long":"127.0347272","imageIndex":17,"items":[{"name":"JY쇼핑샵","tel":"031-233-9921","addr":"경기도 화성시 병점동 400-6번지 301,302호","indutype":"의류 - 내의판매","category":"other"},{"name":"씨유화성리치프라자점","tel":"031-231-9959","addr":"경기도 화성시 병점동 400-6번지 105호","indutype":"유통업 영리 - 편 의 점","category":"other"},{"name":"주사랑 스튜디오","tel":"031-269-7978","addr":"경기도 화성시 병점동 400-6번지 405호","indutype":"광학제품 - 사진관","category":"other"}]},{"lat":"37.20821885","long":"127.04322236","imageIndex":17,"items":[{"name":"LG토탈인테리어","tel":"031-238-2251","addr":"경기도 화성시 병점동 259-13번지 103호","indutype":"직물 - 카페트,커튼,천막,지물","category":"other"}]},{"lat":"37.214273859","long":"127.04311292","imageIndex":17,"items":[{"name":"가산기업","tel":"031-226-8477","addr":"경기도 화성시 병점동 844-3번지 브이타운원 1층 111호","indutype":"유통업 영리 - 기타유통업","category":"other"},{"name":"그린필피부관리실","tel":"031-267-2621","addr":"경기도 화성시 병점동 844-3번지 이-타운4 903호","indutype":"회원제형태 - 기타4","category":"other"},{"name":"마이스타일(My Style)","tel":"070-4082-7480","addr":"경기도 화성시 병점동 844-3번지 이타운4 1층 107호","indutype":"의류 - 정장","category":"other"},{"name":"비에스(B.S.)","tel":"031-000-0000","addr":"경기도 화성시 병점동 844-3번지 이타운4 1동 802-1호","indutype":"전기제품 - 기타전기제품","category":"other"},{"name":"씨유화성병점타운점","tel":"031-225-7446","addr":"경기도 화성시 병점동 844-3번지 e-TOWN4 E동 106호","indutype":"유통업 영리 - 편 의 점","category":"other"},{"name":"오키즈","tel":"031-237-5906","addr":"경기도 화성시 병점동 844-3번지 이-타운4 105호","indutype":"의류 - 정장","category":"other"},{"name":"주식회사 공오콜라병점","tel":"031-236-0107","addr":"경기도 화성시 병점동 844-3번지 이타운4 104호","indutype":"의류 - 정장","category":"other"},{"name":"키즈비","tel":"031-234-5906","addr":"경기도 화성시 병점동 844-3번지 E타운 4동 105호","indutype":"의류 - 아동의류","category":"other"},{"name":"파시안","tel":"031-237-4488","addr":"경기도 화성시 병점동 844-3번지 406동 E-TOWN","indutype":"수리서비스 - 사무·통신기기수리","category":"other"}]},{"lat":"37.214129796","long":"127.04280866","imageIndex":17,"items":[{"name":"가율회계사무소","tel":"031-237-3079","addr":"경기도 화성시 병점동 844-2번지 탑프라자 804호","indutype":"용역 서비스 - 법률회계서비스(개인)","category":"other"},{"name":"못된고양이","tel":"070-4296-5933","addr":"경기도 화성시 병점동 844-2번지 탑프라자 104호","indutype":"신변잡화 - 액세서리","category":"other"},{"name":"사단법인 행복플러스","tel":"031-357-7369","addr":"경기도 화성시 병점동 844-2번지 탑프라자 801호","indutype":"의류 - 기타의류","category":"other"},{"name":"스포츠요가","tel":"031-222-8881","addr":"경기도 화성시 병점동 844-2번지 탑프라자 301호","indutype":"회원제형태 - 레져업소","category":"other"},{"name":"왈가닥제인","tel":"070-4221-3117","addr":"경기도 화성시 병점동 844-2번지 탑프라자 6층 601호","indutype":"의류 - 정장","category":"other"},{"name":"쿨(COOL)","tel":"031-224-2258","addr":"경기도 화성시 병점동 844-2번지 탑프라자 303호","indutype":"회원제형태 - 기타4","category":"other"}]},{"lat":"37.204607628","long":"127.03704745","imageIndex":17,"items":[{"name":"게이트원 위더스","tel":"031-217-7721","addr":"경기도 화성시 병점동 871번지 병점역효성해링턴플레이스 107동 110호","indutype":"의류 - 정장","category":"other"},{"name":"씨유병점인텔리안점","tel":"031-223-7737","addr":"경기도 화성시 병점동 871번지 병점역해링턴플레이스 107동 107호, 108호","indutype":"유통업 영리 - 편 의 점","category":"other"}]},{"lat":"37.207856909","long":"127.04748036","imageIndex":17,"items":[{"name":"경기금거래소","tel":"031-892-4431","addr":"경기도 화성시 병점동 858 정든마을신창2차비바패밀리상가112","indutype":"신변잡화 - 귀금속","category":"other"},{"name":"신창세탁소","tel":"031-223-6020","addr":"경기도 화성시 병점동 858번지 정든마을신창2차비바패밀리 주상가 213호","indutype":"수리서비스 - 세탁소","category":"other"},{"name":"잉크가이미래점","tel":"031-236-2982","addr":"경기도 화성시 병점동 858번지 정든마을신창2차비바패밀리 상가 116호","indutype":"사무통신 - 기타 사무용품","category":"other"},{"name":"크린매니아","tel":"031-221-2205","addr":"경기도 화성시 병점동 858번지 정든마을신창2차비바패밀리 주상가 116호","indutype":"수리서비스 - 세탁소","category":"other"}]},{"lat":"37.206770601","long":"127.03533616","imageIndex":17,"items":[{"name":"고시나라","tel":"","addr":"경기도 화성시 병점동 381-17번지 병점제일타운 102호","indutype":"서적문구 - 출판 및 인쇄물","category":"other"},{"name":"비전목조건축","tel":"031-376-8112","addr":"경기도 화성시 병점동 381-17번지 제일타운 207호","indutype":"용역 서비스 - 기타용역서비스","category":"other"},{"name":"서연테크","tel":"031-000-0000","addr":"경기도 화성시 병점동 381-17번지 오피스밸리 217호","indutype":"신변잡화 - 기타잡화","category":"other"},{"name":"주식회사 셈프레","tel":"02-878-2723","addr":"경기도 화성시 병점동 381-17번지 병점제일타운 308호","indutype":"용역 서비스 - 종합용역","category":"other"}]},{"lat":"37.204472152","long":"127.03814005","imageIndex":17,"items":[{"name":"고운빛조명","tel":"031-222-1865","addr":"경기도 화성시 병점동 870번지 화성병점에스케이뷰 104동 2층 205호","indutype":"건축자재 - 조명기구","category":"other"},{"name":"메리골드","tel":"031-285-7544","addr":"경기도 화성시 병점동 870번지 병점에스케이뷰 104동 117호","indutype":"의류 - 정장","category":"other"},{"name":"신한금거래소&보마플라워","tel":"031-231-8976","addr":"경기도 화성시 병점동 870번지 에스케이뷰 상가 104동 111호","indutype":"신변잡화 - 귀금속","category":"other"},{"name":"신한금거래소&보마플라워","tel":"031-231-8976","addr":"경기도 화성시 병점동 870번지 SK뷰상가 104동 111호","indutype":"문화.취미 - 화원","category":"other"},{"name":"폭풍간지왕","tel":"031-231-0015","addr":"경기도 화성시 병점동 870번지 병점SK뷰상가 104동 113호","indutype":"의류 - 정장","category":"other"}]},{"lat":"37.205553341","long":"127.03833205","imageIndex":17,"items":[{"name":"고향꽃식물원","tel":"031-222-3638","addr":"경기도 화성시 병점동 361-10번지 대창 상가 101호","indutype":"문화.취미 - 화원","category":"other"}]},{"lat":"37.214048438","long":"127.04358597","imageIndex":17,"items":[{"name":"골프나인틴 스크린골프","tel":"031-237-0219","addr":"경기도 화성시 병점동 846번지 태안프라자314호~315호 314호","indutype":"회원제형태 - 레져업소","category":"other"},{"name":"스카이뮤직","tel":"031-225-0157","addr":"경기도 화성시 병점동 846번지 태안프라자 210호","indutype":"용역 서비스 - 종합용역","category":"other"},{"name":"한마음스크린","tel":"031-236-0070","addr":"경기도 화성시 병점동 846번지 태안프라자 304,305호","indutype":"회원제형태 - 레져업소","category":"other"},{"name":"해피유통","tel":"031-222-2946","addr":"경기도 화성시 병점동 846번지 태안프라자 306,307","indutype":"의류 - 아동의류","category":"other"}]},{"lat":"37.214858044","long":"127.04728169","imageIndex":17,"items":[{"name":"공간디자인","tel":"031-305-8651","addr":"경기도 화성시 병점동 848 안화동마을주공상가 104","indutype":"건축자재 - 인테리어전문","category":"other"}]},{"lat":"37.206245966","long":"127.04206103","imageIndex":17,"items":[{"name":"공간샘스터디카페 병점점","tel":"","addr":"경기도 화성시 병점동 292번지 2층 201,205호","indutype":"용역 서비스 - 사무서비스","category":"other"}]},{"lat":"37.209388609","long":"127.04765024","imageIndex":17,"items":[{"name":"광일정보컴퓨터","tel":"02-1111-1111","addr":"경기도 화성시 병점동 858번지 신창비바훼밀리2차 202동 602호","indutype":"사무통신 - 컴퓨터","category":"other"}]},{"lat":"37.205246988","long":"127.03833191","imageIndex":17,"items":[{"name":"굿디자인","tel":"031-235-5600","addr":"경기도 화성시 병점동 407-4번지 창명빌딩 104호","indutype":"건축자재 - 인테리어전문","category":"other"},{"name":"스터디센터(카페)","tel":"031-239-0979","addr":"경기도 화성시 병점동 407-4번지 창명빌딩","indutype":"용역 서비스 - 사무서비스","category":"other"},{"name":"크린토피아 화성병점점","tel":"031-233-2050","addr":"경기도 화성시 병점동 407-4번지 창명빌딩 101호","indutype":"수리서비스 - 세탁소","category":"other"}]},{"lat":"37.213661291","long":"127.04270702","imageIndex":17,"items":[{"name":"글그림","tel":"","addr":"경기도 화성시 병점동 844-1번지 씨네샤르망 B동 301호","indutype":"서적문구 - 일반서적","category":"other"},{"name":"대동철물","tel":"031-225-1162","addr":"경기도 화성시 병점동 844-1번지 씨네샤르망 B동 1층 111호","indutype":"건축자재 - 목재·석재·철물","category":"other"},{"name":"도서출판 별똥별","tel":"031-221-7887","addr":"경기도 화성시 병점동 844-1번지 씨네샤르망 B동 301호","indutype":"서적문구 - 출판 및 인쇄물","category":"other"},{"name":"라비앙로즈","tel":"","addr":"경기도 화성시 병점동 844-1번지 씨네샤르망 B동 1층 101호","indutype":"의류 - 정장","category":"other"},{"name":"백설공조","tel":"02-1577-3913","addr":"경기도 화성시 병점동 844-1번지 씨네샤르망 B동 802호","indutype":"용역 서비스 - 기타용역서비스","category":"other"},{"name":"어반블랙","tel":"031-237-1428","addr":"경기도 화성시 병점동 844-1번지 씨네샤르망 B동 103호","indutype":"의류 - 정장","category":"other"},{"name":"요천묘","tel":"","addr":"경기도 화성시 병점동 844-1번지 씨네샤르망 B동 1층 102호","indutype":"의류 - 정장","category":"other"},{"name":"준스튜디오","tel":"031-267-1205","addr":"경기도 화성시 병점동 844-1번지 씨네샤르망 B동 2층 204호","indutype":"용역 서비스 - 사무서비스","category":"other"}]},{"lat":"37.206408437","long":"127.04119372","imageIndex":17,"items":[{"name":"꼬꼬마","tel":"031-281-2870","addr":"경기도 화성시 병점동 314번지 진영빌딩 104호","indutype":"의류 - 아동의류","category":"other"},{"name":"멋쟁이패션","tel":"031-239-3283","addr":"경기도 화성시 병점동 314번지 진영빌딩 104호","indutype":"의류 - 캐주얼의류","category":"other"}]},{"lat":"37.204715267","long":"127.03869213","imageIndex":17,"items":[{"name":"꼬마때때(뽕샴)","tel":"070-4696-8619","addr":"경기도 화성시 병점동 870번지 화성병점 SK뷰 상가동 105동 126호","indutype":"의류 - 정장","category":"other"},{"name":"인형마루","tel":"031-223-2237","addr":"경기도 화성시 병점동 870번지 화성병점에스케이뷰 105동 1층 123호","indutype":"직물 - 침구·수예점","category":"other"}]},{"lat":"37.208218727","long":"127.04358284","imageIndex":17,"items":[{"name":"꽃밭에서","tel":"031-232-9223","addr":"경기도 화성시 병점동 259-14번지 1층","indutype":"문화.취미 - 화원","category":"other"},{"name":"더키월드","tel":"031-225-1383","addr":"경기도 화성시 병점동 259-14번지","indutype":"건축자재 - 목재·석재·철물","category":"other"},{"name":"코디샵","tel":"070-4159-3347","addr":"경기도 화성시 병점동 259-14번지 104호","indutype":"유통업 영리 - 기타유통업","category":"other"},{"name":"한올디자인,인테리어","tel":"031-233-2005","addr":"경기도 화성시 병점동 259-14번지 106호","indutype":"직물 - 카페트,커튼,천막,지물","category":"other"}]},{"lat":"37.214245801","long":"127.0460308","imageIndex":17,"items":[{"name":"꿈음악연습실","tel":"031-222-6333","addr":"경기도 화성시 병점동 847번지 안화마을우남퍼스트빌 상가 에이동 2층 206호","indutype":"용역 서비스 - 사무서비스","category":"other"}]},{"lat":"37.207662598","long":"127.03544919","imageIndex":17,"items":[{"name":"나의사진실","tel":"031-234-2968","addr":"경기도 화성시 병점동 349-22번지","indutype":"광학제품 - 사진관","category":"other"},{"name":"저스코전자담배","tel":"031-8806-7400","addr":"경기도 화성시 병점동 349-22번지","indutype":"기타 - 기타 전문점","category":"other"}]},{"lat":"37.214580023","long":"127.04366512","imageIndex":17,"items":[{"name":"네모교육","tel":"02-921-3008","addr":"경기도 화성시 병점동 844-5번지 리더스프라자 305호","indutype":"서적문구 - 일반서적","category":"other"},{"name":"도서출판 제이와이(JY)","tel":"031-222-2869","addr":"경기도 화성시 병점동 844-5번지 리더스프라자 804호","indutype":"서적문구 - 출판 및 인쇄물","category":"other"},{"name":"씨엔에이","tel":"031-898-5225","addr":"경기도 화성시 병점동 844-5번지 리더스프라자 105호","indutype":"서적문구 - 문구용품","category":"other"},{"name":"아이러브제이 병점점","tel":"031-221-5118","addr":"경기도 화성시 병점동 844-5번지 리더스프라자 1층 110호","indutype":"의류 - 정장","category":"other"},{"name":"엄마가 만든 옷","tel":"031-1111-1111","addr":"경기도 화성시 병점동 844-5번지 리더스프라자 113호","indutype":"의류 - 아동의류","category":"other"},{"name":"전자담배","tel":"","addr":"경기도 화성시 병점동 844-5번지 리더스프라자 1층 121호","indutype":"기타 - 기타 전문점","category":"other"}]},{"lat":"37.208857847","long":"127.04534056","imageIndex":17,"items":[{"name":"다모아토바코","tel":"070-7452-4957","addr":"경기도 화성시 병점동 842-11번지 102호","indutype":"신변잡화 - 기타잡화","category":"other"},{"name":"더봄","tel":"031-222-0034","addr":"경기도 화성시 병점동 842-11번지","indutype":"가구 - 기타가구","category":"other"},{"name":"비손인테리어","tel":"031-233-0507","addr":"경기도 화성시 병점동 842-11번지 104호","indutype":"직물 - 카페트,커튼,천막,지물","category":"other"}]},{"lat":"37.212478688","long":"127.04890256","imageIndex":17,"items":[{"name":"다빈유통","tel":"031-231-9066","addr":"경기도 화성시 병점동 850번지 안화동마을주공6단지 605동 303호","indutype":"유통업 영리 - 기타유통업","category":"other"},{"name":"주식회사엠에스종합물류","tel":"031-232-2352","addr":"경기도 화성시 병점동 850번지 안화동마을주공6단지 605동 1004호","indutype":"용역 서비스 - 기타용역서비스","category":"other"}]},{"lat":"37.206635151","long":"127.036395","imageIndex":17,"items":[{"name":"다인","tel":"031-223-7085","addr":"경기도 화성시 병점동 380-1번지","indutype":"의류 - 정장","category":"other"}]},{"lat":"37.199830527","long":"127.04219288","imageIndex":17,"items":[{"name":"다정펫","tel":"031-232-3885","addr":"경기도 화성시 병점동 501-1번지 병점성호아파트 201호","indutype":"문화.취미 - 애완동물","category":"other"},{"name":"마루광고디자인","tel":"031-232-0345","addr":"경기도 화성시 병점동 501-1번지","indutype":"건축자재 - 인테리어전문","category":"other"}]},{"lat":"37.214018319","long":"127.05175379","imageIndex":17,"items":[{"name":"대성전기철물","tel":"031-223-4450","addr":"경기도 화성시 병점동 204번지 1층","indutype":"건축자재 - 목재·석재·철물","category":"other"}]},{"lat":"37.200659628","long":"127.04175402","imageIndex":17,"items":[{"name":"대양수족관.냉동","tel":"031-374-8306","addr":"경기도 화성시 병점동 499-1번지","indutype":"문화.취미 - 수족관","category":"other"}]},{"lat":"37.207966502","long":"127.0433912","imageIndex":17,"items":[{"name":"도배잘하는집","tel":"031-234-5323","addr":"경기도 화성시 병점동 259-15번지 우남프라자 112호","indutype":"직물 - 카페트,커튼,천막,지물","category":"other"},{"name":"마리렌","tel":"070-8800-2121","addr":"경기도 화성시 병점동 259-15번지 우남프라자 1층 108호","indutype":"서적문구 - 완구점","category":"other"},{"name":"빈 프라임","tel":"070-8113-4299","addr":"경기도 화성시 병점동 259-15번지 우남프라자 B1층","indutype":"의류 - 정장","category":"other"},{"name":"세탁맘","tel":"031-238-5222","addr":"경기도 화성시 병점동 259-15번지 우남프라자 1층 104호","indutype":"수리서비스 - 세탁소","category":"other"},{"name":"인(IN)","tel":"031-375-1706","addr":"경기도 화성시 병점동 259-15번지 우남프라자 1층 106호","indutype":"의류 - 정장","category":"other"},{"name":"코렉스자전거","tel":"031-233-4425","addr":"경기도 화성시 병점동 259-15번지 우남프라자 1층 102호","indutype":"레져용품 - 스포츠·레져용품","category":"other"},{"name":"크린토피아","tel":"031-221-7737","addr":"경기도 화성시 병점동 259-15 우남프라자지하 B03-4호","indutype":"수리서비스 - 세탁소","category":"other"},{"name":"프라하","tel":"070-7583-8284","addr":"경기도 화성시 병점동 259-15번지 우남프라자 115호","indutype":"의류 - 정장","category":"other"},{"name":"핸드메이드핑쿠베베","tel":"031-221-6420","addr":"경기도 화성시 병점동 259-15번지 우남프라자","indutype":"문화.취미 - 문화취미기타","category":"other"}]},{"lat":"37.213939834","long":"127.04496036","imageIndex":17,"items":[{"name":"돌핀세척기","tel":"031-252-8901","addr":"경기도 화성시 병점동 819번지 안화동마을주공9단지 905동 1504호","indutype":"주방용구 - 주방용구","category":"other"}]},{"lat":"37.199245918","long":"127.03883597","imageIndex":17,"items":[{"name":"돌핀세척기 화성영업소","tel":"031-252-8901","addr":"경기도 화성시 병점동 510-22번지 1동 301호","indutype":"주방용구 - 주방용구","category":"other"}]},{"lat":"37.214435942","long":"127.04341719","imageIndex":17,"items":[{"name":"동대문보다 싸고 이쁜옷집","tel":"031-8003-7219","addr":"경기도 화성시 병점동 844-4번지 센터프라자 1층 104호","indutype":"의류 - 정장","category":"other"},{"name":"비씨엠","tel":"031-898-8948","addr":"경기도 화성시 병점동 844-4번지 센타프라자 103호","indutype":"신변잡화 - 신발","category":"other"},{"name":"지아앤우니","tel":"031-222-5089","addr":"경기도 화성시 병점동 844-4번지 센타프라자 105호 센터프라자제1층","indutype":"신변잡화 - 액세서리","category":"other"}]},{"lat":"37.217354336","long":"127.04614524","imageIndex":17,"items":[{"name":"들꽃향기","tel":"031-231-1495","addr":"경기도 화성시 병점동 2-4번지","indutype":"문화.취미 - 화원","category":"other"},{"name":"진다육","tel":"031-233-4191","addr":"경기도 화성시 병점동 2-4번지","indutype":"문화.취미 - 화원","category":"other"}]},{"lat":"37.210832267","long":"127.04200708","imageIndex":17,"items":[{"name":"디자인바라기","tel":"","addr":"경기도 화성시 병점동 831-6번지 병점동로얄빌 304호","indutype":"건축자재 - 인테리어전문","category":"other"}]},{"lat":"37.204887431","long":"127.03533535","imageIndex":17,"items":[{"name":"디자인율","tel":"","addr":"경기도 화성시 병점동 374-5번지 인텔리스테이 629호","indutype":"용역 서비스 - 사무서비스","category":"other"},{"name":"미니스톱 병점스테이점","tel":"031-1577-9621","addr":"경기도 화성시 병점동 374-5번지 101호","indutype":"유통업 영리 - 편 의 점","category":"other"},{"name":"에벤에셀","tel":"031-212-6222","addr":"경기도 화성시 병점동 374-5번지 1층 106호","indutype":"수리서비스 - 세탁소","category":"other"}]},{"lat":"37.213931677","long":"127.04248185","imageIndex":17,"items":[{"name":"또래도서할인매장/문화교육센터","tel":"031-224-0055","addr":"경기도 화성시 병점동 844-1번지 씨네샤르망 A동 304호","indutype":"서적문구 - 일반서적","category":"other"},{"name":"또래도서할인매장/문화교육센터","tel":"031-224-0055","addr":"경기도 화성시 병점동 844-1번지 씨네샤르망 A동 304호","indutype":"서적문구 - 일반서적","category":"other"},{"name":"또래서적","tel":"031-224-0805","addr":"경기도 화성시 병점동 844-1번지 씨네샤르망 A동 301호","indutype":"서적문구 - 일반서적","category":"other"}]},{"lat":"37.21331587","long":"127.0508746","imageIndex":17,"items":[{"name":"똘요미루키하우스","tel":"070-7783-9919","addr":"경기도 화성시 병점동 850번지 안화동마을주공6단지 609동 14층 1호","indutype":"문화.취미 - 애완동물","category":"other"}]},{"lat":"37.206383467","long":"127.03417571","imageIndex":17,"items":[{"name":"란제리","tel":"031-251-9406","addr":"경기도 화성시 병점동 381-9번지 병점하나로빌딩 111호","indutype":"의류 - 내의판매","category":"other"},{"name":"세븐일레븐병점역점","tel":"","addr":"경기도 화성시 병점동 381-9번지 병점하나로빌딩 108호","indutype":"유통업 영리 - 편 의 점","category":"other"},{"name":"예피아","tel":"031-239-4489","addr":"경기도 화성시 병점동 381-9번지 외3필지 병점하나로빌딩 3층 303호","indutype":"회원제형태 - 기타1","category":"other"}]},{"lat":"37.20822065","long":"127.03753348","imageIndex":17,"items":[{"name":"로즈","tel":"","addr":"경기도 화성시 병점동 345-77번지 로타리빌딩 103호","indutype":"문화.취미 - 문화취미기타","category":"other"},{"name":"뷰티렉스","tel":"031-239-4823","addr":"경기도 화성시 병점동 345-77번지","indutype":"회원제형태 - 기타4","category":"other"},{"name":"크린토피아화성병점신한점","tel":"070-8262-3527","addr":"경기도 화성시 병점동 345-77번지 105호","indutype":"수리서비스 - 세탁소","category":"other"}]},{"lat":"37.21511955","long":"127.0467298","imageIndex":17,"items":[{"name":"루시아","tel":"070-2547-8097","addr":"경기도 화성시 병점동 848번지 안화동마을주공8단지 804동 1004호","indutype":"의류 - 내의판매","category":"other"}]},{"lat":"37.208716092","long":"127.03797305","imageIndex":17,"items":[{"name":"리치","tel":"070-4130-5187","addr":"경기도 화성시 병점동 345-59번지 정안태영빌 상가 1층","indutype":"의류 - 내의판매","category":"other"},{"name":"일토","tel":"070-7897-8018","addr":"경기도 화성시 병점동 345-59번지 정안태영빌 1층 상가","indutype":"수리서비스 - 기타수리서비스","category":"other"}]},{"lat":"37.207075994","long":"127.03867071","imageIndex":17,"items":[{"name":"리폼하우스","tel":"031-235-0721","addr":"경기도 화성시 병점동 358-1번지 상호빌딩 리폼하우스 1층 1호","indutype":"수리서비스 - 세탁소","category":"other"}]},{"lat":"37.206218861","long":"127.04228632","imageIndex":17,"items":[{"name":"린토퍼니처","tel":"031-235-1880","addr":"경기도 화성시 병점동 292-1외1필지V-Town2103호,201호,204호","indutype":"가구 - 일반가구","category":"other"}]},{"lat":"37.199939752","long":"127.03872366","imageIndex":17,"items":[{"name":"림디","tel":"031-214-5746","addr":"경기도 화성시 병점동 522-3번지","indutype":"가구 - 일반가구","category":"other"},{"name":"화성가전가구재활용센타","tel":"031-221-3313","addr":"경기도 화성시 병점동 522-3번지","indutype":"전기제품 - 가전제품","category":"other"},{"name":"화성가전재활용센타","tel":"031-221-3313","addr":"경기도 화성시 병점동 522-3번지","indutype":"전기제품 - 가전제품","category":"other"}]},{"lat":"37.208770534","long":"127.03666631","imageIndex":17,"items":[{"name":"마마운동화이불빨래방","tel":"031-221-8482","addr":"경기도 화성시 병점동 347-14번지 103호","indutype":"수리서비스 - 세탁소","category":"other"}]},{"lat":"37.215011046","long":"127.04774369","imageIndex":17,"items":[{"name":"먹는샘풀(동원생수,참물)","tel":"031-233-3814","addr":"경기도 화성시 병점동 안화동마을주공8단지 808/101","indutype":"유통업 영리 - 기타유통업","category":"other"}]},{"lat":"37.205382281","long":"127.03787012","imageIndex":17,"items":[{"name":"명문서점","tel":"031-234-8488","addr":"경기도 화성시 병점동 364-4번지","indutype":"서적문구 - 일반서적","category":"other"},{"name":"큰손종합장식","tel":"031-224-8225","addr":"경기도 화성시 병점동 364-4번지 금강빌딩","indutype":"직물 - 카페트,커튼,천막,지물","category":"other"}]},{"lat":"37.210769331","long":"127.04159022","imageIndex":17,"items":[{"name":"명품옷수선","tel":"031-224-0852","addr":"경기도 화성시 병점동 830-1번지 1층","indutype":"수리서비스 - 세탁소","category":"other"}]},{"lat":"37.21083236","long":"127.04172544","imageIndex":17,"items":[{"name":"목운실내조경","tel":"031-8003-4063","addr":"경기도 화성시 병점동 830-2번지 1층 102호","indutype":"건축자재 - 인테리어전문","category":"other"}]},{"lat":"37.20332861","long":"127.0354248","imageIndex":17,"items":[{"name":"물오름달 스물하루","tel":"","addr":"경기도 화성시 병점동 396-1번지 동원주택 401호","indutype":"신변잡화 - 액세서리","category":"other"}]},{"lat":"37.214822814","long":"127.04506225","imageIndex":17,"items":[{"name":"미가인테리어","tel":"031-223-4139","addr":"경기도 화성시 병점동 847번지 안화동마을우남퍼스트빌상가 A동 102호","indutype":"건축자재 - 인테리어전문","category":"other"}]},{"lat":"37.208686938","long":"127.04452937","imageIndex":17,"items":[{"name":"미니스톱 병점타운점","tel":"031-1577-9621","addr":"경기도 화성시 병점동 842-5번지 1층","indutype":"유통업 영리 - 편 의 점","category":"other"}]},{"lat":"37.207662382","long":"127.03622648","imageIndex":17,"items":[{"name":"미니스톱병점역점","tel":"031-1577-9621","addr":"경기도 화성시 병점동 348-4번지 그린씨티 1층 101호","indutype":"유통업 영리 - 편 의 점","category":"other"},{"name":"사단법인 풀잎문화연합회 병점지부","tel":"031-892-6204","addr":"경기도 화성시 병점동 348-4번지 그린씨티 207-2호","indutype":"문화.취미 - 문화취미기타","category":"other"}]},{"lat":"37.204787589","long":"127.03789238","imageIndex":17,"items":[{"name":"미소수제화","tel":"031-221-9208","addr":"경기도 화성시 병점동 870번지 화성병점에스케이뷰 101동 103호","indutype":"신변잡화 - 제화","category":"other"},{"name":"초록마당","tel":"031-233-2866","addr":"경기도 화성시 병점동 870번지 화성병점에스케이뷰 101동 1003호","indutype":"문화.취미 - 화원","category":"other"}]},{"lat":"37.204805446","long":"127.03844435","imageIndex":17,"items":[{"name":"미싱노리터&그린나래","tel":"031-255-4302","addr":"경기도 화성시 병점동 870번지 화성 병점 에스케이 뷰 105동 1층 126호","indutype":"신변잡화 - 기타잡화","category":"other"},{"name":"병점기독교백화점","tel":"031-223-0292","addr":"경기도 화성시 병점동 870번지 화성병점에스케이뷰제상가 101동 202호","indutype":"서적문구 - 전문서적","category":"other"},{"name":"성진인테리어","tel":"031-222-3562","addr":"경기도 화성시 병점동 870번지 화성병점에스케이뷰 상가동 2층 204호","indutype":"건축자재 - 인테리어전문","category":"other"},{"name":"아이리스","tel":"031-378-4590","addr":"경기도 화성시 병점동 870번지 104동상가119호화성병점에스케이뷰","indutype":"의류 - 정장","category":"other"},{"name":"에스케이(SK)세탁소","tel":"031-238-8211","addr":"경기도 화성시 병점동 870번지 화성병점에스케이뷰 S동 129호","indutype":"수리서비스 - 세탁소","category":"other"},{"name":"오렌지컴퓨터","tel":"031-235-1171","addr":"경기도 화성시 병점동 870번지 화성병점SKVIEW 104동 s102호","indutype":"사무통신 - 컴퓨터","category":"other"},{"name":"제니스광고","tel":"031-238-0723","addr":"경기도 화성시 병점동 870번지 화성병점에스케이뷰 101동 상가 203호","indutype":"용역 서비스 - 사무서비스","category":"other"},{"name":"제이에스정보통신","tel":"031-111-1111","addr":"경기도 화성시 병점동 870번지 화성병점에스케이뷰 104동 1층 상가115호","indutype":"전기제품 - 가전제품","category":"other"}]},{"lat":"37.210805079","long":"127.04248021","imageIndex":17,"items":[{"name":"바른손문구","tel":"031-225-1911","addr":"경기도 화성시 병점동 833-5번지 101호","indutype":"서적문구 - 문구용품","category":"other"}]},{"lat":"37.201885052","long":"127.04172085","imageIndex":17,"items":[{"name":"바른요가수련원","tel":"031-224-0396","addr":"경기도 화성시 병점동 491-1번지 임광프라자 5층","indutype":"회원제형태 - 레져업소","category":"other"}]},{"lat":"37.208245555","long":"127.04416864","imageIndex":17,"items":[{"name":"바자","tel":"070-6877-1019","addr":"경기도 화성시 병점동 842-19번지 101호","indutype":"의류 - 정장","category":"other"}]},{"lat":"37.214135501","long":"127.05164121","imageIndex":17,"items":[{"name":"반도(TG2)","tel":"070-8825-9115","addr":"경기도 화성시 병점동 203-24번지","indutype":"의류 - 정장","category":"other"}]},{"lat":"37.210173776","long":"127.04416969","imageIndex":17,"items":[{"name":"반하다(BANHADA)","tel":"","addr":"경기도 화성시 병점동 821번지 느치미마을주공뜨란채 303동 304호","indutype":"의류 - 정장","category":"other"}]},{"lat":"37.199326884","long":"127.03925277","imageIndex":17,"items":[{"name":"발밤발밤","tel":"","addr":"경기도 화성시 병점동 510-4번지 병점타운 204호","indutype":"광학제품 - 사진관","category":"other"}]},{"lat":"37.207832991","long":"127.03825426","imageIndex":17,"items":[{"name":"벽지플러스장판","tel":"031-222-7704","addr":"경기도 화성시 병점동 356-7번지","indutype":"직물 - 카페트,커튼,천막,지물","category":"other"},{"name":"제니 스타일(포에버대리점)","tel":"031-226-9824","addr":"경기도 화성시 병점동 356-7번지","indutype":"의류 - 정장","category":"other"},{"name":"황실","tel":"070-8752-7042","addr":"경기도 화성시 병점동 356-7번지","indutype":"수리서비스 - 세탁소","category":"other"},{"name":"황실옷수선","tel":"031-224-8756","addr":"경기도 화성시 병점동 356-7번지 101호","indutype":"수리서비스 - 세탁소","category":"other"}]},{"lat":"37.202470896","long":"127.041203","imageIndex":17,"items":[{"name":"병점골프연습장","tel":"031-222-2522","addr":"경기도 화성시 병점동 479-9번지 송곡빌딩 5층","indutype":"회원제형태 - 레져업소","category":"other"},{"name":"씨앤아이디자인","tel":"031-222-7940","addr":"경기도 화성시 병점동 479-9번지 송곡빌딩 4층","indutype":"건축자재 - 인테리어전문","category":"other"}]},{"lat":"37.21329691","long":"127.05313903","imageIndex":17,"items":[{"name":"보니따 다육","tel":"031-239-0955","addr":"경기도 화성시 병점동 211-1번지,외1필지(211-4)","indutype":"문화.취미 - 화원","category":"other"}]},{"lat":"37.20560678","long":"127.04035973","imageIndex":17,"items":[{"name":"뷰티걸","tel":"031-222-5719","addr":"경기도 화성시 병점동 431-55번지 두산 상가 205호","indutype":"회원제형태 - 기타4","category":"other"},{"name":"지음인테리어","tel":"031-221-1034","addr":"경기도 화성시 병점동 431-55번지 상가동 1층 109호","indutype":"건축자재 - 인테리어전문","category":"other"},{"name":"티파니","tel":"031-224-9535","addr":"경기도 화성시 병점동 431-55번지 남수원두산 상가 1층 103호","indutype":"신변잡화 - 귀금속","category":"other"}]},{"lat":"37.205994251","long":"127.04028107","imageIndex":17,"items":[{"name":"블럭아카데미(화성병점점)","tel":"031-893-0770","addr":"경기도 화성시 병점동 317-3번지 명신프라자 202호","indutype":"서적문구 - 완구점","category":"other"},{"name":"핑크엔젤","tel":"031-236-5513","addr":"경기도 화성시 병점동 317-3번지 명신프라자 307-2","indutype":"의류 - 아동의류","category":"other"}]},{"lat":"37.208326601","long":"127.04430387","imageIndex":17,"items":[{"name":"사랑하개","tel":"031-236-2777","addr":"경기도 화성시 병점동 842-18번지 102호","indutype":"문화.취미 - 애완동물","category":"other"}]},{"lat":"37.215109393","long":"127.04972659","imageIndex":17,"items":[{"name":"삼성화원","tel":"031-233-9222","addr":"경기도 화성시 병점동 6,6-1,6-2","indutype":"문화.취미 - 화원","category":"other"},{"name":"웰빙농원","tel":"031-226-4288","addr":"경기도 화성시 병점동 6,6-1,6-2","indutype":"문화.취미 - 화원","category":"other"},{"name":"터치플라워","tel":"031-223-0133","addr":"경기도 화성시 병점동 6번지 외1필지 6-2","indutype":"문화.취미 - 화원","category":"other"},{"name":"한국 화훼","tel":"031-1588-3125","addr":"경기도 화성시 병점동 6,6-1,6-2","indutype":"문화.취미 - 화원","category":"other"},{"name":"허브향기마을","tel":"031-224-1365","addr":"경기도 화성시 병점동 6,6-1,6-2","indutype":"문화.취미 - 화원","category":"other"}]},{"lat":"37.208608295","long":"127.03684648","imageIndex":17,"items":[{"name":"삼정산업","tel":"","addr":"경기도 화성시 병점동 347-17번지 용우빌라 B동 102호","indutype":"유통업 영리 - 기타유통업","category":"other"}]},{"lat":"37.20657948","long":"127.04166693","imageIndex":17,"items":[{"name":"색종이","tel":"031-232-6623","addr":"경기도 화성시 병점동 313-4번지 태성빌딩 1층 106호","indutype":"서적문구 - 문구용품","category":"other"},{"name":"아이지에이마트 병점본점","tel":"031-768-0708","addr":"경기도 화성시 병점동 313-4번지 105호 외4필지태성빌딩","indutype":"유통업 영리 - 편 의 점","category":"other"}]},{"lat":"37.208049733","long":"127.0365646","imageIndex":17,"items":[{"name":"서진이엔씨","tel":"031-223-8414","addr":"경기도 화성시 병점동 348-1 3층302-2호","indutype":"용역 서비스 - 사무서비스","category":"other"}]},{"lat":"37.199714227","long":"127.03959087","imageIndex":17,"items":[{"name":"세민스크린","tel":"031-226-1872","addr":"경기도 화성시 병점동 514-4번지 4층","indutype":"레져용품 - 골프용품 전문점","category":"other"},{"name":"에스엠스크린","tel":"031-226-1872","addr":"경기도 화성시 병점동 514-4번지 3층","indutype":"레져용품 - 골프용품 전문점","category":"other"}]},{"lat":"37.213523829","long":"127.04906092","imageIndex":17,"items":[{"name":"세븐세탁소","tel":"031-235-9945","addr":"경기도 화성시 병점동 849번지 주공7단지 상가 가동 101호","indutype":"수리서비스 - 세탁소","category":"other"}]},{"lat":"37.206444269","long":"127.04183584","imageIndex":17,"items":[{"name":"세븐일레븐.병점태성점","tel":"02-2127-5857","addr":"경기도 화성시 병점동 311외4필지태성빌딩105","indutype":"유통업 영리 - 편 의 점","category":"other"},{"name":"진흥사진관","tel":"031-255-6741","addr":"경기도 화성시 병점동 311번지 203호","indutype":"광학제품 - 사진관","category":"other"}]},{"lat":"37.208886174","long":"127.04155546","imageIndex":17,"items":[{"name":"세븐일레븐병점주공점","tel":"031-1577-0711","addr":"경기도 화성시 병점동 822번지 느치미마을주공아파트 101호","indutype":"유통업 영리 - 편 의 점","category":"other"}]},{"lat":"37.204607878","long":"127.03616881","imageIndex":17,"items":[{"name":"세븐일레븐병점효성점","tel":"031-1577-0711","addr":"경기도 화성시 병점동 871번지 효성해링턴플레이스 106동 108,109호","indutype":"유통업 영리 - 편 의 점","category":"other"},{"name":"씨유병점인텔리안점","tel":"031-223-7737","addr":"경기도 화성시 병점동 871번지 병점역효성해링턴플레이스 107동 107,108호","indutype":"유통업 영리 - 편 의 점","category":"other"}]},{"lat":"37.206525488","long":"127.04145287","imageIndex":17,"items":[{"name":"수리야요가","tel":"031-232-1302","addr":"경기도 화성시 병점동 314-3번지 성진빌딩 2층 201호","indutype":"회원제형태 - 레져업소","category":"other"},{"name":"작심공간","tel":"031-235-0701","addr":"경기도 화성시 병점동 314-3번지 성진빌딩 401-1호","indutype":"용역 서비스 - 사무서비스","category":"other"}]},{"lat":"37.199859007","long":"127.03755218","imageIndex":17,"items":[{"name":"슈퍼스토리","tel":"070-7607-7655","addr":"경기도 화성시 병점동 한일타운 101-503 11/","indutype":"의류 - 아동의류","category":"other"}]},{"lat":"37.214462645","long":"127.04436355","imageIndex":17,"items":[{"name":"스마트디스플레이","tel":"070-8221-9770","addr":"경기도 화성시 병점동 845-1 이타운3.303","indutype":"전기제품 - 가전제품","category":"other"},{"name":"알로(alo)","tel":"031-222-9567","addr":"경기도 화성시 병점동 845-1번지 E동 TOWN-31층 105","indutype":"의류 - 정장","category":"other"},{"name":"엘지인테리어","tel":"031-221-1181","addr":"경기도 화성시 병점동 845-1번지 이타운3 103호","indutype":"건축자재 - 인테리어전문","category":"other"},{"name":"영광기업","tel":"031-235-5559","addr":"경기도 화성시 병점동 845-1번지 e-TOWN3 902호","indutype":"용역 서비스 - 기타용역서비스","category":"other"},{"name":"주식회사 마담비","tel":"031-000-0000","addr":"경기도 화성시 병점동 845-1번지 이타운쓰리 602호","indutype":"신변잡화 - 기타잡화","category":"other"},{"name":"지우코퍼레이션","tel":"031-227-0855","addr":"경기도 화성시 병점동 845-1번지 태안병점이타운쓰리 2층 205호","indutype":"의류 - 아동의류","category":"other"},{"name":"파파츠","tel":"031-267-4793","addr":"경기도 화성시 병점동 845-1번지 태안병점이타운쓰리 8층 801호","indutype":"전기제품 - 기타전기제품","category":"other"},{"name":"푸른체험여행","tel":"031-258-3090","addr":"경기도 화성시 병점동 845-1번지 이타운3 607호","indutype":"용역 서비스 - 사무서비스","category":"other"},{"name":"하이테크/원격지","tel":"031-237-2563","addr":"경기도 화성시 병점동 845-1번지 이-타운 902호","indutype":"기타 - 기타 전문점","category":"other"}]},{"lat":"37.202078712","long":"127.02422765","imageIndex":17,"items":[{"name":"스마트전산","tel":"031-237-4119","addr":"경기도 화성시 병점동 755-2번지 (1층6,7,8,9,10호)","indutype":"사무통신 - 컴퓨터","category":"other"}]},{"lat":"37.208605717","long":"127.04488981","imageIndex":17,"items":[{"name":"스타일업","tel":"031-239-8693","addr":"경기도 화성시 병점동 842-15번지 103호","indutype":"의류 - 정장","category":"other"},{"name":"주공세탁소","tel":"031-232-5131","addr":"경기도 화성시 병점동 842-15번지 102호","indutype":"수리서비스 - 세탁소","category":"other"}]},{"lat":"37.204409634","long":"127.03622505","imageIndex":17,"items":[{"name":"스테파니","tel":"031-231-8845","addr":"경기도 화성시 병점동 374-6 107-111","indutype":"의류 - 정장","category":"other"}]},{"lat":"37.213468733","long":"127.05164078","imageIndex":17,"items":[{"name":"씨유병점다인점","tel":"031-221-8969","addr":"경기도 화성시 병점동 203-7번지 다인프라자 105호","indutype":"유통업 영리 - 편 의 점","category":"other"}]},{"lat":"37.202047327","long":"127.0414506","imageIndex":17,"items":[{"name":"씨유병점한신점","tel":"031-239-6693","addr":"경기도 화성시 병점동 490-2번지 하이코아 101호","indutype":"유통업 영리 - 편 의 점","category":"other"}]},{"lat":"37.208076693","long":"127.03681245","imageIndex":17,"items":[{"name":"아이조음키친","tel":"031-225-1331","addr":"경기도 화성시 병점동 348-26번지","indutype":"주방용구 - 주방용구","category":"other"}]},{"lat":"37.208830996","long":"127.04483361","imageIndex":17,"items":[{"name":"아쿠아그린정수기","tel":"","addr":"경기도 화성시 병점동 842-7번지 원호주택 103호","indutype":"주방용구 - 정수기","category":"other"}]},{"lat":"37.207356582","long":"127.03419865","imageIndex":17,"items":[{"name":"애플메이트 병점아이폰수리센터","tel":"","addr":"경기도 화성시 병점동 383-5번지 1층","indutype":"수리서비스 - 사무·통신기기수리","category":"other"}]},{"lat":"37.206715884","long":"127.03764544","imageIndex":17,"items":[{"name":"에이펙스인텍","tel":"031-1611-4046","addr":"경기도 화성시 병점동 361-15번지 민성빌딩 101호","indutype":"건축자재 - 조명기구","category":"other"}]},{"lat":"37.211048306","long":"127.04263806","imageIndex":17,"items":[{"name":"엘두후스(Eldhus)","tel":"031-225-1523","addr":"경기도 화성시 병점동 833-3번지 1층 전체","indutype":"주방용구 - 주방용구","category":"other"}]},{"lat":"37.205499353","long":"127.0380842","imageIndex":17,"items":[{"name":"영광철물","tel":"031-234-7177","addr":"경기도 화성시 병점동 364번지 글로리아빌딩","indutype":"건축자재 - 목재·석재·철물","category":"other"},{"name":"영광철물(글로리아)","tel":"031-234-7177","addr":"경기도 화성시 병점동 364번지","indutype":"기타 - 기계공구","category":"other"}]},{"lat":"37.208662274","long":"127.0371394","imageIndex":17,"items":[{"name":"영보꽃방","tel":"031-225-8303","addr":"경기도 화성시 병점동 345-65번지","indutype":"문화.취미 - 화원","category":"other"}]},{"lat":"37.206859927","long":"127.03806231","imageIndex":17,"items":[{"name":"예쁜뜨락","tel":"031-304-0132","addr":"경기도 화성시 병점동 361-3번지 덕성빌딩 105호","indutype":"문화.취미 - 문화취미기타","category":"other"}]},{"lat":"37.208137544","long":"127.0438419","imageIndex":17,"items":[{"name":"오드리햅번","tel":"031-231-1162","addr":"경기도 화성시 병점동 842-22번지 103호","indutype":"의류 - 정장","category":"other"}]},{"lat":"37.208464187","long":"127.03664364","imageIndex":17,"items":[{"name":"용인대TheBest복싱클럽","tel":"031-237-8212","addr":"경기도 화성시 병점동 347-10번지 용우빌딩 B동 B01호","indutype":"회원제형태 - 레져업소","category":"other"}]},{"lat":"37.211300615","long":"127.04258186","imageIndex":17,"items":[{"name":"워시테리아 화성병점점","tel":"","addr":"경기도 화성시 병점동 833-1번지 인애빌 101호","indutype":"수리서비스 - 세탁소","category":"other"}]},{"lat":"37.203607582","long":"127.03667527","imageIndex":17,"items":[{"name":"월드크리닝","tel":"031-239-1117","addr":"경기도 화성시 병점동 399-4번지 4층X11, YB호월드크리닝코너","indutype":"수리서비스 - 세탁소","category":"other"}]},{"lat":"37.215407714","long":"127.04718062","imageIndex":17,"items":[{"name":"윈시스템","tel":"031-111-1111","addr":"경기도 화성시 병점동 848번지 안화동마을주공8단지 807동 20층 3호","indutype":"수리서비스 - 가정용품수리","category":"other"}]},{"lat":"37.197992626","long":"127.04152738","imageIndex":17,"items":[{"name":"유노디자인","tel":"031-238-3886","addr":"경기도 화성시 병점동 506","indutype":"용역 서비스 - 종합용역","category":"other"}]},{"lat":"37.206641262","long":"127.04542944","imageIndex":17,"items":[{"name":"유진장식인테리어","tel":"070-8242-4309","addr":"경기도 화성시 병점동 859번지 느치미마을주공4단지 406동 206호","indutype":"건축자재 - 인테리어전문","category":"other"}]},{"lat":"37.21021788","long":"127.04680582","imageIndex":17,"items":[{"name":"이마트24 화성안화주공점","tel":"","addr":"경기도 화성시 병점동 820번지 안화동마을주공5단지 제상가동 101호","indutype":"유통업 영리 - 편 의 점","category":"other"},{"name":"인테리어뷰","tel":"031-239-8804","addr":"경기도 화성시 병점동 820번지 105호 상가","indutype":"직물 - 카페트,커튼,천막,지물","category":"other"}]},{"lat":"37.208580802","long":"127.03842359","imageIndex":17,"items":[{"name":"이안인테리어","tel":"031-233-1600","addr":"경기도 화성시 병점동 345-55번지","indutype":"건축자재 - 인테리어전문","category":"other"}]},{"lat":"37.207553486","long":"127.03886244","imageIndex":17,"items":[{"name":"정우에어컨","tel":"","addr":"경기도 화성시 병점동 357-14번지 307호","indutype":"용역 서비스 - 기타용역서비스","category":"other"}]},{"lat":"37.208409796","long":"127.0377814","imageIndex":17,"items":[{"name":"정직팜플라워","tel":"031-222-7968","addr":"경기도 화성시 병점동 345-45번지","indutype":"문화.취미 - 화원","category":"other"}]},{"lat":"37.202804316","long":"127.04109052","imageIndex":17,"items":[{"name":"조아INT","tel":"031-226-6664","addr":"경기도 화성시 병점동 481번지 1층 105호","indutype":"직물 - 카페트,커튼,천막,지물","category":"other"},{"name":"종이접기","tel":"031-224-5477","addr":"경기도 화성시 병점동 481번지","indutype":"문화.취미 - 문화취미기타","category":"other"},{"name":"한신문구","tel":"031-222-7947","addr":"경기도 화성시 병점동 481번지 1층 104호","indutype":"서적문구 - 문구용품","category":"other"}]},{"lat":"37.205355629","long":"127.0365634","imageIndex":17,"items":[{"name":"종로금은거래소","tel":"031-236-8947","addr":"경기도 화성시 병점동 871번지 병점역효성해링턴플레이스 106동 104호","indutype":"신변잡화 - 귀금속","category":"other"}]},{"lat":"37.210913945","long":"127.04019337","imageIndex":17,"items":[{"name":"좋은사람OA","tel":"","addr":"경기도 화성시 병점동 826-7번지 102호","indutype":"사무통신 - 사무용 OA기기","category":"other"}]},{"lat":"37.21304799","long":"127.04444164","imageIndex":17,"items":[{"name":"주공세탁","tel":"031-223-8588","addr":"경기도 화성시 병점동 819번지 안화동마을주공아파트 상가동 103호","indutype":"수리서비스 - 세탁소","category":"other"}]},{"lat":"37.207689539","long":"127.03577589","imageIndex":17,"items":[{"name":"주식회사한남엔지니어링","tel":"031-223-2119","addr":"경기도 화성시 병점동 349-30번지 하산빌딩 3층","indutype":"용역 서비스 - 기타용역서비스","category":"other"}]},{"lat":"37.205039514","long":"127.03910907","imageIndex":17,"items":[{"name":"주연의류","tel":"031-892-8035","addr":"경기도 화성시 병점동 870번지 화성병점에스케이뷰 106동 902호","indutype":"의류 - 정장","category":"other"}]},{"lat":"37.205193202","long":"127.03739692","imageIndex":17,"items":[{"name":"주연테크컴퓨터병점점","tel":"031-226-6123","addr":"경기도 화성시 병점동 373-1번지 2호","indutype":"사무통신 - 컴퓨터","category":"other"}]},{"lat":"37.208416646","long":"127.0444729","imageIndex":17,"items":[{"name":"지인서적","tel":"031-225-2299","addr":"경기도 화성시 병점동 842-17번지 201호","indutype":"회원제형태 - 서적","category":"other"}]},{"lat":"37.214911232","long":"127.04955748","imageIndex":17,"items":[{"name":"초원농원","tel":"031-222-2250","addr":"경기도 화성시 병점동 6-1번지 6-2","indutype":"문화.취미 - 화원","category":"other"}]},{"lat":"37.204038608","long":"127.04149667","imageIndex":17,"items":[{"name":"치현 생수유통","tel":"031-222-4344","addr":"경기도 화성시 병점동 817 신창 119-106","indutype":"유통업 영리 - 기타유통업","category":"other"}]},{"lat":"37.214496522","long":"127.05014305","imageIndex":17,"items":[{"name":"카라꽃화원","tel":"031-234-9393","addr":"경기도 화성시 병점동 8-1번지","indutype":"문화.취미 - 화원","category":"other"},{"name":"희림화원","tel":"031-225-1600","addr":"경기도 화성시 병점동 8-1번지","indutype":"문화.취미 - 화원","category":"other"}]},{"lat":"37.208437166","long":"127.03660983","imageIndex":17,"items":[{"name":"코코","tel":"031-234-1321","addr":"경기도 화성시 병점동 347-10번지","indutype":"의류 - 정장","category":"other"}]},{"lat":"37.212325145","long":"127.04983753","imageIndex":17,"items":[{"name":"콜수선","tel":"031-224-5527","addr":"경기도 화성시 병점동 850번지 안화동마을주공6단지 203호","indutype":"수리서비스 - 세탁소","category":"other"}]},{"lat":"37.213882968","long":"127.05222687","imageIndex":17,"items":[{"name":"크린토피아화성지사","tel":"031-225-1994","addr":"경기도 화성시 병점동 206번지","indutype":"수리서비스 - 세탁소","category":"other"}]},{"lat":"37.208941401","long":"127.03780417","imageIndex":17,"items":[{"name":"태안인쇄사","tel":"031-223-5940","addr":"경기도 화성시 병점동 345-18번지","indutype":"서적문구 - 출판 및 인쇄물","category":"other"}]},{"lat":"37.20504988","long":"127.03436666","imageIndex":17,"items":[{"name":"파티조아","tel":"031-222-6111","addr":"경기도 화성시 병점동 387-4번지 동현빌딩 101호","indutype":"용역 서비스 - 종합용역","category":"other"}]},{"lat":"37.204967837","long":"127.03775728","imageIndex":17,"items":[{"name":"폰할인마트3","tel":"","addr":"경기도 화성시 병점동 406-1번지 금강빌딩","indutype":"사무통신 - 통신기기","category":"other"}]},{"lat":"37.201525495","long":"127.03900602","imageIndex":17,"items":[{"name":"현대목재사","tel":"031-232-4175","addr":"경기도 화성시 병점동 471-3번지","indutype":"건축자재 - 목재·석재·철물","category":"other"}]},{"lat":"37.206328569","long":"127.03719467","imageIndex":17,"items":[{"name":"화인코리아","tel":"031-226-3084","addr":"경기도 화성시 병점동 366-1번지 101호","indutype":"기타 - 기계공구","category":"other"}]},{"lat":"37.210967926","long":"127.0404525","imageIndex":17,"items":[{"name":"힐링사주이야기","tel":"031-234-9611","addr":"경기도 화성시 병점동 828-1번지 1층 102호","indutype":"신변잡화 - 기타잡화","category":"other"}]}]