[{"lat":"37.909358682","long":"127.03307234","items":[{"name":"(주)라온가구","tel":"031-866-9960","addr":"경기도 동두천시 상패동 466번지 1층","category":"가구 - 일반가구"}]},{"lat":"37.902828516","long":"127.02609977","items":[{"name":"(주)비젼아이에이치씨","tel":"031-865-2724","addr":"경기도 동두천시 상패동 664-1번지","category":"보건위생 - 안경"}]},{"lat":"37.910327669","long":"127.04597918","items":[{"name":"(주)에버밀동두천경찰서","tel":"031-869-0458","addr":"경기도 동두천시 상패동 47-6번지 동두천경찰서","category":"일반휴게음식 - 위탁급식업"},{"name":"동두천경찰서 구내식당","tel":"","addr":"경기도 동두천시 상패동 47-6번지 동두천경찰서","category":"일반휴게음식 - 위탁급식업"}]},{"lat":"37.914685181","long":"127.05348723","items":[{"name":"25재활용","tel":"031-863-1416","addr":"경기도 동두천시 상패동 10-29번지","category":"기타 - 기타 전문점"}]},{"lat":"37.903853063","long":"127.0365153","items":[{"name":"COFFEE TREE","tel":"031-866-0524","addr":"경기도 동두천시 상패동 233-1번지 외5필지한북대학교교내 E-102호","category":"일반휴게음식 - 서양음식"},{"name":"신한급식","tel":"031-864-4981","addr":"경기도 동두천시 상패동 233-1번지 신한대학교","category":"일반휴게음식 - 위탁급식업"},{"name":"신한대학교제2캠퍼스구내서점","tel":"031-872-7204","addr":"경기도 동두천시 상패동 233-1번지","category":"서적문구 - 일반서적"},{"name":"씨유동두천신한대캠퍼스점","tel":"031-866-8938","addr":"경기도 동두천시 상패동 233-1번지 브니엘관","category":"유통업 영리 - 편 의 점"},{"name":"착한커피","tel":"031-848-8158","addr":"경기도 동두천시 상패동 233-1번지 신흥대학교 H동 1층","category":"일반휴게음식 - 서양음식"}]},{"lat":"37.906687529","long":"127.04701179","items":[{"name":"GS25동두천조흥점","tel":"02-2006-2485","addr":"경기도 동두천시 상패동 53-14번지","category":"유통업 영리 - 편 의 점"}]},{"lat":"37.916577038","long":"127.0537046","items":[{"name":"K-마트","tel":"031-865-7845","addr":"경기도 동두천시 상패동 2-17번지","category":"유통업 영리 - 슈퍼마켓"}]},{"lat":"37.903664437","long":"127.03445719","items":[{"name":"RFC","tel":"031-863-5553","addr":"경기도 동두천시 상패동 376-2번지","category":"자동차정비 유지 - 카인테리어"}]},{"lat":"37.906491266","long":"127.04148551","items":[{"name":"TOP써비스","tel":"031-864-9090","addr":"경기도 동두천시 상패동 117번지","category":"자동차정비 유지 - 자동차정비"},{"name":"탑정비1급공업사","tel":"031-864-9090","addr":"경기도 동두천시 상패동 117번지","category":"자동차정비 유지 - 자동차정비"}]},{"lat":"37.910577289","long":"127.02179246","items":[{"name":"가든어스","tel":"031-863-1596","addr":"경기도 동두천시 상패동 849-1번지","category":"문화.취미 - 화원"},{"name":"연솔조경","tel":"","addr":"경기도 동두천시 상패동 849-1번지","category":"건축자재 - 인테리어전문"}]},{"lat":"37.904796369","long":"127.04483891","items":[{"name":"감악산 흑염소","tel":"","addr":"경기도 동두천시 상패동 81-5번지","category":"일반휴게음식 - 일반한식"}]},{"lat":"37.902383891","long":"127.0387318","items":[{"name":"건우공업사","tel":"031-866-8287","addr":"경기도 동두천시 상패동 221-2번지","category":"용역 서비스 - 기타용역서비스"}]},{"lat":"37.911407406","long":"127.04959594","items":[{"name":"결우","tel":"031-837-9239","addr":"경기도 동두천시 상패동 31-28번지","category":"신변잡화 - 기타잡화"}]},{"lat":"37.90190977","long":"127.02504207","items":[{"name":"경기디지털OA서비스","tel":"031-866-6777","addr":"경기도 동두천시 상패동 686-7번지","category":"사무통신 - 사무용 OA기기"}]},{"lat":"37.90471553","long":"127.04414526","items":[{"name":"경기북부유통 사업협동조합","tel":"031-866-7117","addr":"경기도 동두천시 상패동 122-11번지","category":"음료식품 - 기타음료식품"}]},{"lat":"37.894967563","long":"127.04382149","items":[{"name":"경동철재","tel":"031-865-2778","addr":"경기도 동두천시 상패동 311번지","category":"건축자재 - 목재·석재·철물"}]},{"lat":"37.903381903","long":"127.04484947","items":[{"name":"골프존파크 상패 드림스크린","tel":"031-859-7700","addr":"경기도 동두천시 상패동 77-12번지","category":"레저업소 - 스크린골프"}]},{"lat":"37.913273063","long":"127.0477094","items":[{"name":"광덕사","tel":"031-862-5879","addr":"경기도 동두천시 상패동 산11번지","category":"기타 - 비영리/대상"}]},{"lat":"37.902077446","long":"127.03915234","items":[{"name":"국제에너지","tel":"031-868-4005","addr":"경기도 동두천시 상패동 226-7번지","category":"연료판매점 - LPG 취급점"}]},{"lat":"37.905191368","long":"127.04862551","items":[{"name":"금강산스포랜드","tel":"031-857-1570","addr":"경기도 동두천시 상패동 57-18번지","category":"보건위생 - 사우나"},{"name":"동천스포츠타운볼링장","tel":"031-864-6020","addr":"경기도 동두천시 상패동 57-18번지","category":"레저업소 - 볼 링 장"}]},{"lat":"37.907492428","long":"127.03787009","items":[{"name":"금성PVC철물건재","tel":"031-862-6000","addr":"경기도 동두천시 상패동 195-6번지","category":"기타 - 기타 전문점"}]},{"lat":"37.904408666","long":"127.0456801","items":[{"name":"금촌식당","tel":"031-866-2627","addr":"경기도 동두천시 상패동 70번지","category":"일반휴게음식 - 일반한식"},{"name":"산채식당","tel":"02-866-5208","addr":"경기도 동두천시 상패동 70번지","category":"일반휴게음식 - 일반한식"}]},{"lat":"37.906382833","long":"127.04245196","items":[{"name":"금토일스포렉스","tel":"031-866-7114","addr":"경기도 동두천시 상패동 137-2번지 외25필지","category":"회원제형태 - 레져업소"},{"name":"주식회사 금토일골프","tel":"031-866-7114","addr":"경기도 동두천시 상패동 137-2번지","category":"레져용품 - 골프용품 전문점"}]},{"lat":"37.915883372","long":"127.0535904","items":[{"name":"금호환경","tel":"031-832-7994","addr":"경기도 동두천시 상패동 11-22번지","category":"용역 서비스 - 종합용역"}]},{"lat":"37.9060233","long":"127.03987063","items":[{"name":"꿈에그린","tel":"","addr":"경기도 동두천시 상패동 113-7번지","category":"숙박업 - 여관/기타숙박업"}]},{"lat":"37.909020357","long":"127.04853692","items":[{"name":"나라시스템","tel":"031-867-9006","addr":"경기도 동두천시 상패동 51-22번지","category":"가구 - 일반가구"}]},{"lat":"37.901940065","long":"127.04581511","items":[{"name":"남두천카센타","tel":"031-867-1240","addr":"경기도 동두천시 상패동 293-2번지","category":"자동차정비 유지 - 자동차정비"}]},{"lat":"37.910243081","long":"127.02656832","items":[{"name":"단지한식부페","tel":"031-863-3655","addr":"경기도 동두천시 상패동 600-9번지","category":"일반휴게음식 - 일반한식"}]},{"lat":"37.906825573","long":"127.03842694","items":[{"name":"대륙에너지","tel":"031-865-9204","addr":"경기도 동두천시 상패동 208-6번지","category":"보건위생 - 의료용품"}]},{"lat":"37.915684769","long":"127.02620616","items":[{"name":"대산공사","tel":"031-864-3302","addr":"경기도 동두천시 상패동 548-1번지","category":"농업 - 기타농업관련"}]},{"lat":"37.899689805","long":"127.03970828","items":[{"name":"대산기계","tel":"031-841-5346","addr":"경기도 동두천시 상패동 247-1","category":"기타 - 기계공구"}]},{"lat":"37.908524845","long":"127.04853661","items":[{"name":"도원","tel":"031-535-0825","addr":"경기도 동두천시 상패동 51-6번지","category":"자동차정비 유지 - 자동차부품"},{"name":"도원카오디오","tel":"031-864-5477","addr":"경기도 동두천시 상패동 51-6번지","category":"자동차정비 유지 - 자동차부품"},{"name":"레인포크","tel":"031-857-0939","addr":"경기도 동두천시 상패동 51-6번지","category":"의류 - 정장"},{"name":"서울세차장","tel":"031-861-0467","addr":"경기도 동두천시 상패동 51-6번지","category":"회원제형태 - 기타3"}]},{"lat":"37.9097952","long":"127.04842368","items":[{"name":"동두천울타리노인요양원","tel":"031-866-1192","addr":"경기도 동두천시 상패동 42-1번지","category":"기타의료기관 - 기타의료기관 및 기타"}]},{"lat":"37.91112823","long":"127.04931148","items":[{"name":"동반자","tel":"031-861-2342","addr":"경기도 동두천시 상패동 32-17번지 동두천문화회관","category":"수리서비스 - 기타수리서비스"}]},{"lat":"37.904192108","long":"127.0465896","items":[{"name":"동천오리&불고기","tel":"031-861-2721","addr":"경기도 동두천시 상패동 66-3번지","category":"일반휴게음식 - 일반한식"},{"name":"씨유동두천신한대점","tel":"031-857-2065","addr":"경기도 동두천시 상패동 66-3번지","category":"유통업 영리 - 편 의 점"}]},{"lat":"37.910107864","long":"127.0269549","items":[{"name":"드림모터스","tel":"070-7581-5775","addr":"경기도 동두천시 상패동 600-11번지","category":"자동차정비 유지 - 자동차정비"}]},{"lat":"37.905524332","long":"127.010648","items":[{"name":"드림베딩","tel":"","addr":"경기도 동두천시 상패동 1070-3번지","category":"직물 - 침구·수예점"}]},{"lat":"37.90904745","long":"127.04836637","items":[{"name":"땡주네","tel":"031-863-5525","addr":"경기도 동두천시 상패동 51-2번지 수정빌딩","category":"일반휴게음식 - 일반한식"}]},{"lat":"37.904462324","long":"127.04676032","items":[{"name":"또래오래상패주공점","tel":"","addr":"경기도 동두천시 상패동 65-22번지","category":"일반휴게음식 - 스넥"}]},{"lat":"37.898664618","long":"127.03312482","items":[{"name":"뚱냥이네","tel":"","addr":"경기도 동두천시 상패동 361-14번지","category":"문화.취미 - 애완동물"}]},{"lat":"37.911655426","long":"127.03542718","items":[{"name":"라이프에이팩 주식회사","tel":"02-713-6736","addr":"경기도 동두천시 상패동 176번지","category":"유통업 영리 - 기타유통업"}]},{"lat":"37.90302112","long":"127.04598629","items":[{"name":"마파스앤뜨락","tel":"031-865-5454","addr":"경기도 동두천시 상패동 69-4번지","category":"일반휴게음식 - 서양음식"}]},{"lat":"37.904020838","long":"127.04683965","items":[{"name":"막국수초계탕","tel":"031-861-0781","addr":"경기도 동두천시 상패동 66-1번지","category":"일반휴게음식 - 일반한식"},{"name":"성원목재","tel":"031-862-7373","addr":"경기도 동두천시 상패동 66-1번지","category":"건축자재 - 목재·석재·철물"}]},{"lat":"37.904795647","long":"127.04681737","items":[{"name":"머리하는 집","tel":"031-864-0055","addr":"경기도 동두천시 상패동 65-18번지","category":"보건위생 - 미용원"}]},{"lat":"37.912099463","long":"127.02412402","items":[{"name":"명보ENG","tel":"031-862-6872","addr":"경기도 동두천시 상패동 559번지","category":"회원제형태 - 기타4"},{"name":"쉼터씽크","tel":"031-862-3775","addr":"경기도 동두천시 상패동 559번지","category":"주방용구 - 주방용구"}]},{"lat":"37.911911548","long":"127.0505401","items":[{"name":"명성카센타","tel":"031-862-8754","addr":"경기도 동두천시 상패동 25-2번지","category":"자동차정비 유지 - 자동차정비"}]},{"lat":"37.904192802","long":"127.04467938","items":[{"name":"모션현대","tel":"031-868-0094","addr":"경기도 동두천시 상패동 77-4번지","category":"자동차정비 유지 - 자동차정비"}]},{"lat":"37.90899388","long":"127.04709277","items":[{"name":"믿음상사","tel":"031-868-3977","addr":"경기도 동두천시 상패동 48-2번지","category":"신변잡화 - 기타잡화"}]},{"lat":"37.909578814","long":"127.04884428","items":[{"name":"바로기획","tel":"","addr":"경기도 동두천시 상패동 40-8번지","category":"서적문구 - 문구용품"}]},{"lat":"37.904130507","long":"127.04245075","items":[{"name":"별미식품 도너츠윤","tel":"","addr":"경기도 동두천시 상패동 109-4번지","category":"음료식품 - 기타음료식품"}]},{"lat":"37.903714342","long":"127.04731702","items":[{"name":"보령식당","tel":"031-857-2418","addr":"경기도 동두천시 상패동 66-5번지","category":"일반휴게음식 - 일반한식"}]},{"lat":"37.908434836","long":"127.0483205","items":[{"name":"복지종합상사","tel":"031-861-9742","addr":"경기도 동두천시 상패동 50-7번지","category":"기타 - 기계공구"}]},{"lat":"37.90891232","long":"127.04834354","items":[{"name":"빅투치킨(중앙점)","tel":"031-827-8484","addr":"경기도 동두천시 상패동 51-23번지 동광빌딩 1층","category":"일반휴게음식 - 주점"}]},{"lat":"37.911911749","long":"127.05003975","items":[{"name":"사거리식당","tel":"031-861-4193","addr":"경기도 동두천시 상패동 31-50번지","category":"일반휴게음식 - 일반한식"}]},{"lat":"37.916352118","long":"127.05297662","items":[{"name":"사랑방 건강 힐링 센터","tel":"","addr":"경기도 동두천시 상패동 5-14번지","category":"보건위생 - 의료용품"}]},{"lat":"37.913326061","long":"127.01459483","items":[{"name":"사천골","tel":"031-862-6161","addr":"경기도 동두천시 상패동 954-1번지","category":"일반휴게음식 - 일반한식"}]},{"lat":"37.909326023","long":"127.01365039","items":[{"name":"사천옹기칼국수","tel":"031-861-0303","addr":"경기도 동두천시 상패동 978-5번지","category":"일반휴게음식 - 일반한식"}]},{"lat":"37.91649617","long":"127.05320416","items":[{"name":"삼성재활용센타","tel":"031-861-8832","addr":"경기도 동두천시 상패동 5-13번지","category":"전기제품 - 가전제품"}]},{"lat":"37.909163991","long":"127.01204704","items":[{"name":"삼원온스파주식회사","tel":"02-1600-8456","addr":"경기도 동두천시 상패동 1083-5번지","category":"전기제품 - 기타전기제품"}]},{"lat":"37.90888512","long":"127.048787","items":[{"name":"삼정카토탈서비스","tel":"031-864-0110","addr":"경기도 동두천시 상패동 51-14번지","category":"자동차정비 유지 - 자동차정비"}]},{"lat":"37.909909325","long":"127.02853544","items":[{"name":"상패스크린","tel":"031-861-1900","addr":"경기도 동두천시 상패동 619번지","category":"레저업소 - 스크린골프"}]},{"lat":"37.905886652","long":"127.04439607","items":[{"name":"상패어린이집[아이행복]","tel":"031-866-6421","addr":"경기도 동두천시 상패동 83-1번지","category":"학원 - 유아원"}]},{"lat":"37.905129464","long":"127.0455327","items":[{"name":"상패점 현대자동차","tel":"031-868-4806","addr":"경기도 동두천시 상패동 79-4번지","category":"자동차정비 유지 - 세차장"},{"name":"태흥자동차유리","tel":"031-868-4806","addr":"경기도 동두천시 상패동 79-4번지","category":"건축자재 - 유리"}]},{"lat":"37.903633194","long":"127.04748752","items":[{"name":"상패점기아오토큐","tel":"031-865-3311","addr":"경기도 동두천시 상패동 66-6번지","category":"자동차정비 유지 - 자동차정비"}]},{"lat":"37.905327796","long":"127.04518032","items":[{"name":"상패카센타","tel":"031-862-3748","addr":"경기도 동두천시 상패동 126-7번지","category":"자동차정비 유지 - 자동차정비"}]},{"lat":"37.904993758","long":"127.04706763","items":[{"name":"상패허가네왕족발","tel":"031-866-5855","addr":"경기도 동두천시 상패동 65-15번지","category":"일반휴게음식 - 일반한식"},{"name":"열방인테리어","tel":"031-866-6641","addr":"경기도 동두천시 상패동 65-15번지","category":"용역 서비스 - 기타용역서비스"}]},{"lat":"37.90177463","long":"127.02504203","items":[{"name":"샬롬","tel":"070-8877-0469","addr":"경기도 동두천시 상패동 686-9번지","category":"의류 - 내의판매"}]},{"lat":"37.900329006","long":"127.04115256","items":[{"name":"서림식당","tel":"031-861-1676","addr":"경기도 동두천시 상패동 279-12","category":"일반휴게음식 - 일반한식"}]},{"lat":"37.91199281","long":"127.05009666","items":[{"name":"서울상회","tel":"031-862-1887","addr":"경기도 동두천시 상패동 31-52번지","category":"음료식품 - 기타음료식품"}]},{"lat":"37.912829177","long":"127.0243403","items":[{"name":"선진유통","tel":"031-866-5612","addr":"경기도 동두천시 상패동 560-4번지","category":"음료식품 - 농·축·수산품"}]},{"lat":"37.91265907","long":"127.01732393","items":[{"name":"성우상사","tel":"031-863-8343","addr":"경기도 동두천시 상패동 941-2번지","category":"건축자재 - 보일러·펌프·샷시"}]},{"lat":"37.909272564","long":"127.04867353","items":[{"name":"세븐일레븐동두천경찰서점","tel":"031-1577-0711","addr":"경기도 동두천시 상패동 40-3번지","category":"유통업 영리 - 편 의 점"}]},{"lat":"37.903328345","long":"127.04342816","items":[{"name":"세븐일레븐동두천시민회관점","tel":"031-1577-0711","addr":"경기도 동두천시 상패동 74-1번지 1층","category":"유통업 영리 - 편 의 점"}]},{"lat":"37.902579564","long":"127.04625891","items":[{"name":"소띠돈띠횡성생고기","tel":"031-859-5681","addr":"경기도 동두천시 상패동 68-13번지","category":"일반휴게음식 - 일반한식"}]},{"lat":"37.917856995","long":"127.05220431","items":[{"name":"소은슈퍼","tel":"031-864-8984","addr":"경기도 동두천시 상패동 3-27번지","category":"유통업 영리 - 슈퍼마켓"}]},{"lat":"37.901549144","long":"127.02634951","items":[{"name":"송이고버섯농원","tel":"070-4149-1473","addr":"경기도 동두천시 상패동 738-3번지","category":"음료식품 - 농·축·수산품"}]},{"lat":"37.909461918","long":"127.04826428","items":[{"name":"순남이순대국","tel":"031-866-2929","addr":"경기도 동두천시 상패동 42-3번지","category":"일반휴게음식 - 일반한식"},{"name":"오가네식당","tel":"031-862-1543","addr":"경기도 동두천시 상패동 42-3번지 1층","category":"일반휴게음식 - 일반한식"},{"name":"한우돈축산","tel":"031-865-3878","addr":"경기도 동두천시 상패동 42-3번지","category":"음료식품 - 정육점"}]},{"lat":"37.901359635","long":"127.02787302","items":[{"name":"쉼터","tel":"031-866-0701","addr":"경기도 동두천시 상패동 711-1외1필지78-2","category":"일반휴게음식 - 일반한식"}]},{"lat":"37.914712948","long":"127.05173596","items":[{"name":"스낵파파","tel":"","addr":"경기도 동두천시 상패동 16-4번지 1층","category":"음료식품 - 기타음료식품"}]},{"lat":"37.898630676","long":"127.02340388","items":[{"name":"스마일","tel":"031-111-1111","addr":"경기도 동두천시 상패동 756번지","category":"직물 - 침구·수예점"},{"name":"아라기술","tel":"031-222-2222","addr":"경기도 동두천시 상패동 756번지","category":"사무통신 - 컴퓨터"}]},{"lat":"37.903855817","long":"127.02484936","items":[{"name":"스피드기획","tel":"070-8225-3924","addr":"경기도 동두천시 상패동 679-11","category":"용역 서비스 - 종합용역"}]},{"lat":"37.905301442","long":"127.04325869","items":[{"name":"시설사업소","tel":"031-860-3245","addr":"경기도 동두천시 상패동 122번지","category":"레저업소 - 수 영 장"}]},{"lat":"37.903770804","long":"127.04040391","items":[{"name":"신광자동차운전전문학원","tel":"031-862-6433","addr":"경기도 동두천시 상패동 220-6번지","category":"학원 - 기능학원"}]},{"lat":"37.906518915","long":"127.03954113","items":[{"name":"신흥에너지","tel":"031-863-0444","addr":"경기도 동두천시 상패동 213번지","category":"연료판매점 - LPG 취급점"}]},{"lat":"37.904579373","long":"127.04695368","items":[{"name":"씨스페이스 상패주공점","tel":"","addr":"경기도 동두천시 상패동 61-12번지 상패주공상가 1층 101~102호","category":"유통업 영리 - 편 의 점"}]},{"lat":"37.899609123","long":"127.03840073","items":[{"name":"양주유통","tel":"031-865-1142","addr":"경기도 동두천시 상패동 247-9번지","category":"음료식품 - 기타음료식품"}]},{"lat":"37.905661351","long":"127.04458924","items":[{"name":"에프엠119","tel":"031-865-9119","addr":"경기도 동두천시 상패동 82-2번지","category":"용역 서비스 - 기타용역서비스"},{"name":"커피서바이벌랩","tel":"","addr":"경기도 동두천시 상패동 82-2번지 1층 105호","category":"일반휴게음식 - 서양음식"}]},{"lat":"37.910101201","long":"127.04923123","items":[{"name":"연못골식당","tel":"031-861-0995","addr":"경기도 동두천시 상패동 29-11번지","category":"일반휴게음식 - 일반한식"}]},{"lat":"37.905914877","long":"127.04084845","items":[{"name":"영남철강","tel":"031-864-2835","addr":"경기도 동두천시 상패동 113-4","category":"기타 - 기계공구"}]},{"lat":"37.908551722","long":"127.04892324","items":[{"name":"영성전기콘트롤즈","tel":"031-865-1235","addr":"경기도 동두천시 상패동 51-11번지","category":"건축자재 - 조명기구"}]},{"lat":"37.904020702","long":"127.0472035","items":[{"name":"영원자동차정비","tel":"031-866-8204","addr":"경기도 동두천시 상패동 65-25번지","category":"자동차정비 유지 - 자동차정비"}]},{"lat":"37.906717316","long":"127.03890446","items":[{"name":"온돌백화점","tel":"031-856-9204","addr":"경기도 동두천시 상패동 208-4번지","category":"건축자재 - 기타건축자재"}]},{"lat":"37.909713967","long":"127.04881025","items":[{"name":"온동네","tel":"","addr":"경기도 동두천시 상패동 40-1번지","category":"일반휴게음식 - 일반한식"}]},{"lat":"37.903660984","long":"127.04542952","items":[{"name":"우리골프연습장","tel":"031-861-7711","addr":"경기도 동두천시 상패동 71-1번지","category":"레저업소 - 골프연습장"}]},{"lat":"37.908240753","long":"127.03596012","items":[{"name":"우리들 요양병원","tel":"031-861-5733","addr":"경기도 동두천시 상패동 201-19번지","category":"병원 - 병원"},{"name":"이담장례식장","tel":"031-866-7300","addr":"경기도 동두천시 상패동 201-19번지","category":"용역 서비스 - 가례서비스업"}]},{"lat":"37.90310288","long":"127.04409888","items":[{"name":"우성공업농기계","tel":"031-866-4800","addr":"경기도 동두천시 상패동 75-16번지","category":"수리서비스 - 기타수리서비스"}]},{"lat":"37.908272934","long":"127.04762677","items":[{"name":"우호유통","tel":"031-853-2949","addr":"경기도 동두천시 상패동 49-2","category":"음료식품 - 농·축·수산품"}]},{"lat":"37.917271215","long":"127.0526247","items":[{"name":"원유통","tel":"070-8818-7880","addr":"경기도 동두천시 상패동 2-100번지 5동 201호","category":"음료식품 - 기타음료식품"}]},{"lat":"37.90299536","long":"127.04237055","items":[{"name":"유씨바이크","tel":"070-7783-9919","addr":"경기도 동두천시 상패동 91-1번지","category":"레져용품 - 스포츠·레져용품"}]},{"lat":"37.911578328","long":"127.05023285","items":[{"name":"유진넷","tel":"","addr":"경기도 동두천시 상패동 25-11번지 2층 1호","category":"용역 서비스 - 기타용역서비스"},{"name":"이지코리아","tel":"","addr":"경기도 동두천시 상패동 25-11번지","category":"전기제품 - 기타전기제품"},{"name":"티에프 코리아 (TF KOREA)","tel":"031-528-6263","addr":"경기도 동두천시 상패동 25-11번지 1층","category":"문화.취미 - 화원"}]},{"lat":"37.910352053","long":"127.02181514","items":[{"name":"이삭아울렛","tel":"031-000-0000","addr":"경기도 동두천시 상패동 849-4번지","category":"의류 - 기타의류"}]},{"lat":"37.904048152","long":"127.04606648","items":[{"name":"이섬주유소","tel":"031-857-3800","addr":"경기도 동두천시 상패동 69-22번지","category":"연료판매점 - GS주유소"},{"name":"타이어 카페 동두천점","tel":"031-857-0017","addr":"경기도 동두천시 상패동 69-22번지","category":"자동차정비 유지 - 자동차시트·타이어"}]},{"lat":"37.913046149","long":"127.05192818","items":[{"name":"자연미인테리어","tel":"","addr":"경기도 동두천시 상패동 22-2번지","category":"건축자재 - 인테리어전문"}]},{"lat":"37.897772443","long":"127.03409086","items":[{"name":"제1급자동차공업사","tel":"031-864-0141","addr":"경기도 동두천시 상패동 351-4번지","category":"자동차정비 유지 - 자동차정비"}]},{"lat":"37.918352691","long":"127.05176111","items":[{"name":"제이서비스","tel":"070-7804-9926","addr":"경기도 동두천시 상패동 1-9번지 1층","category":"자동차정비 유지 - 자동차부품"}]},{"lat":"37.904498462","long":"127.04648745","items":[{"name":"제일제당배합사료동두천특약점","tel":"031-865-3535","addr":"경기도 동두천시 상패동 69-19번지","category":"농업 - 비료,사료,종자"}]},{"lat":"37.896221121","long":"127.04001352","items":[{"name":"주식회사 세라비","tel":"070-4036-5273","addr":"경기도 동두천시 상패동 330-1번지","category":"의류 - 정장"}]},{"lat":"37.896663591","long":"127.03664846","items":[{"name":"주식회사누보비앤티","tel":"02-975-2582","addr":"경기도 동두천시 상패동 335번지","category":"농업 - 비료,사료,종자"}]},{"lat":"37.905242907","long":"127.02662357","items":[{"name":"주식회사모컴테크","tel":"031-531-0498","addr":"경기도 동두천시 상패동 660-9번지","category":"기타 - 기타 전문점"}]},{"lat":"37.9127114","long":"127.02768354","items":[{"name":"주원","tel":"031-868-2561","addr":"경기도 동두천시 상패동 525-2번지","category":"유통업 영리 - 기타유통업"}]},{"lat":"37.909548609","long":"127.03007043","items":[{"name":"중앙상사","tel":"031-864-7585","addr":"경기도 동두천시 상패동 425-6번지","category":"건축자재 - 목재·석재·철물"}]},{"lat":"37.906581496","long":"127.04106484","items":[{"name":"중앙자동차공업사","tel":"031-861-7836","addr":"경기도 동두천시 상패동 114번지","category":"자동차정비 유지 - 자동차정비"}]},{"lat":"37.908800456","long":"127.03167347","items":[{"name":"중앙카","tel":"031-862-7161","addr":"경기도 동두천시 상패동 402-1번지","category":"자동차정비 유지 - 자동차정비"}]},{"lat":"37.903768441","long":"127.04720335","items":[{"name":"진주맛집","tel":"031-868-0724","addr":"경기도 동두천시 상패동 66-13번지","category":"일반휴게음식 - 일반한식"}]},{"lat":"37.898601617","long":"127.03287467","items":[{"name":"참빛노인요양원","tel":"070-8849-8267","addr":"경기도 동두천시 상패동 361-13번지","category":"기타의료기관 - 기타의료기관 및 기타"}]},{"lat":"37.916378932","long":"127.05347702","items":[{"name":"처갓집양념치킨상패점","tel":"031-865-1102","addr":"경기도 동두천시 상패동 2-21번지","category":"일반휴게음식 - 서양음식"}]},{"lat":"37.909881823","long":"127.03062774","items":[{"name":"천일가스","tel":"031-836-3264","addr":"경기도 동두천시 상패동 453-4번지","category":"연료판매점 - LPG 취급점"}]},{"lat":"37.902354423","long":"127.04600864","items":[{"name":"천지종합타이어","tel":"070-8888-8760","addr":"경기도 동두천시 상패동 69-20번지","category":"자동차정비 유지 - 자동차시트·타이어"}]},{"lat":"37.90663478","long":"127.04337312","items":[{"name":"카페엘림","tel":"031-864-2523","addr":"경기도 동두천시 상패동 135번지 1층","category":"일반휴게음식 - 서양음식"}]},{"lat":"37.908267171","long":"127.03806376","items":[{"name":"푸른농장","tel":"031-865-8997","addr":"경기도 동두천시 상패동 192-2번지","category":"일반휴게음식 - 일반한식"}]},{"lat":"37.915991683","long":"127.05312421","items":[{"name":"풍경애드","tel":"031-858-7767","addr":"경기도 동두천시 상패동 13-14번지 1층","category":"건축자재 - 인테리어전문"},{"name":"홈시스템","tel":"070-4001-7287","addr":"경기도 동두천시 상패동 13-14번지 1층","category":"용역 서비스 - 기타용역서비스"}]},{"lat":"37.900937366","long":"127.02157397","items":[{"name":"한국불교태고종덕수사","tel":"031-862-6686","addr":"경기도 동두천시 상패동 766-1번지","category":"기타 - 기타 전문점"}]},{"lat":"37.916883559","long":"127.05322717","items":[{"name":"한솔갈비살","tel":"031-864-0234","addr":"경기도 동두천시 상패동 2-53 동남상가1호","category":"일반휴게음식 - 일반한식"}]},{"lat":"37.903517862","long":"127.04248454","items":[{"name":"한일공업사","tel":"031-862-9898","addr":"경기도 동두천시 상패동 90-2번지","category":"자동차정비 유지 - 자동차정비"}]},{"lat":"37.904742232","long":"127.04506628","items":[{"name":"함지박바지락칼국수","tel":"031-864-2731","addr":"경기도 동두천시 상패동 81-1번지","category":"일반휴게음식 - 일반한식"}]},{"lat":"37.905435838","long":"127.04537369","items":[{"name":"해주부분정비공업사","tel":"031-865-6748","addr":"경기도 동두천시 상패동 126-4번지","category":"자동차정비 유지 - 자동차정비"},{"name":"화진영양탕","tel":"031-866-2406","addr":"경기도 동두천시 상패동 126-4번지 1층","category":"일반휴게음식 - 일반한식"}]},{"lat":"37.916099644","long":"127.05347682","items":[{"name":"행운상회","tel":"031-862-2195","addr":"경기도 동두천시 상패동 11-13번지","category":"음료식품 - 기타음료식품"}]},{"lat":"37.903268043","long":"127.03440017","items":[{"name":"현대종합가스","tel":"070-7761-3600","addr":"경기도 동두천시 상패동 376-1번지","category":"연료판매점 - LPG 취급점"}]},{"lat":"37.903768252","long":"127.04770364","items":[{"name":"형제건축자재","tel":"031-862-3723","addr":"경기도 동두천시 상패동 63-1","category":"건축자재 - 기타건축자재"}]},{"lat":"37.901247993","long":"127.04103934","items":[{"name":"황금돼지","tel":"031-861-8833","addr":"경기도 동두천시 상패동 282-6번지","category":"일반휴게음식 - 일반한식"}]},{"lat":"37.910242674","long":"127.02851281","items":[{"name":"흥부네돈잔치","tel":"031-866-6001","addr":"경기도 동두천시 상패동 597-5번지","category":"일반휴게음식 - 일반한식"}]}]