[{"lat":"37.539899175","long":"127.21331491","imageIndex":17,"items":[{"name":"(주) 에듀비젼","tel":"031-792-6100","addr":"경기도 하남시 신장동 519-4번지 우정빌딩 6층","indutype":"회원제형태 - 기타4","category":"other"}]},{"lat":"37.541461444","long":"127.21130522","imageIndex":17,"items":[{"name":"(주) 코즈","tel":"031-575-4754","addr":"경기도 하남시 신장동 381-37번지 5층","indutype":"신변잡화 - 기타잡화","category":"other"}]},{"lat":"37.541011665","long":"127.21595442","imageIndex":17,"items":[{"name":"(주)SK투어","tel":"031-792-8722","addr":"경기도 하남시 신장동 523-1번지 현대베스코아빌딩 2층 225호","indutype":"여행 - 관광여행","category":"other"},{"name":"(주)케이이에스에스","tel":"031-796-7988","addr":"경기도 하남시 신장동 523-1번지 현대베스코아빌딩 409,410호","indutype":"용역 서비스 - 종합용역","category":"other"},{"name":"SOCCER.MANIA","tel":"031-795-2079","addr":"경기도 하남시 신장동 523-1번지 현대베스코아 318호","indutype":"의류 - 정장","category":"other"},{"name":"somma 인덕션","tel":"031-000-0000","addr":"경기도 하남시 신장동 523-1번지 현대베스코아빌딩 3층","indutype":"주방용구 - 주방용구","category":"other"},{"name":"경남모직 학생복","tel":"031-791-7642","addr":"경기도 하남시 신장동 523-1번지 현대베스코아빌딩 231호","indutype":"의류 - 단체복","category":"other"},{"name":"골드라인","tel":"031-791-2226","addr":"경기도 하남시 신장동 523-1번지 현대베스코아빌딩 103호","indutype":"신변잡화 - 귀금속","category":"other"},{"name":"권정열한복침구","tel":"031-794-8588","addr":"경기도 하남시 신장동 523-1현대베스코아318호,323호,324호","indutype":"직물 - 혼수전문점","category":"other"},{"name":"나노바이오테크","tel":"031-794-3162","addr":"경기도 하남시 신장동 523-1번지 현대베스코아 343, 344, 348, 349, 350호","indutype":"신변잡화 - 기타잡화","category":"other"},{"name":"나도미인뷰티샵","tel":"031-791-6324","addr":"경기도 하남시 신장동 523-1번지 현대베스코아 602호","indutype":"회원제형태 - 기타4","category":"other"},{"name":"다조아","tel":"031-795-0938","addr":"경기도 하남시 신장동 523-1번지 현대베스코아빌딩 108호","indutype":"신변잡화 - 기타잡화","category":"other"},{"name":"대건","tel":"031-793-0758","addr":"경기도 하남시 신장동 523-1번지 현대베스코아 112-1호","indutype":"유통업 영리 - 기타유통업","category":"other"},{"name":"디제이시스템","tel":"031-8953-5287","addr":"경기도 하남시 신장동 523-1번지 현대베스코아빌딩 3층 309호","indutype":"기타 - 기계공구","category":"other"},{"name":"뜨개 갤러리","tel":"031-796-6384","addr":"경기도 하남시 신장동 523-1번지 현대베스코아 124호","indutype":"직물 - 침구·수예점","category":"other"},{"name":"라운드","tel":"031-794-9178","addr":"경기도 하남시 신장동 523-1번지 현대베스코아빌딩 1층 118,119호","indutype":"의류 - 정장","category":"other"},{"name":"라인","tel":"031-792-1452","addr":"경기도 하남시 신장동 523-1번지 현대베스코아 2층 42호","indutype":"의류 - 정장","category":"other"},{"name":"라피스","tel":"031-795-1998","addr":"경기도 하남시 신장동 523-1번지 현대베스토아 159호","indutype":"신변잡화 - 액세서리","category":"other"},{"name":"로즈","tel":"","addr":"경기도 하남시 신장동 523-1번지 현대베스코아 239호","indutype":"의류 - 정장","category":"other"},{"name":"리턴힐링하우스","tel":"031-796-7522","addr":"경기도 하남시 신장동 523-1번지 현대베스코아빌딩 412호","indutype":"신변잡화 - 기타잡화","category":"other"},{"name":"모놀로그 스튜디오","tel":"","addr":"경기도 하남시 신장동 523-1번지 현대베스코아빌딩 2층 227호","indutype":"광학제품 - 사진관","category":"other"},{"name":"모아패션","tel":"031-793-8604","addr":"경기도 하남시 신장동 523-1번지 현대베스코아 214호","indutype":"의류 - 정장","category":"other"},{"name":"모퉁이돌","tel":"031-796-3584","addr":"경기도 하남시 신장동 523-1번지","indutype":"의류 - 정장","category":"other"},{"name":"밀앤보리","tel":"","addr":"경기도 하남시 신장동 523-1번지 현대베스코아빌딩 314호","indutype":"의류 - 아동의류","category":"other"},{"name":"베어벨르코리아","tel":"","addr":"경기도 하남시 신장동 523-1번지 현대베스코아빌딩 314호","indutype":"레져용품 - 스포츠·레져용품","category":"other"},{"name":"베이비 류","tel":"02-1111-1111","addr":"경기도 하남시 신장동 523-1번지 현대베스코아빌딩 2층 240호","indutype":"의류 - 아동의류","category":"other"},{"name":"베이프렌드 전자담배 하남점","tel":"070-4134-8253","addr":"경기도 하남시 신장동 523-1번지 현대베스코아빌딩 1층 109호","indutype":"기타 - 기타 전문점","category":"other"},{"name":"보디가드","tel":"031-792-7205","addr":"경기도 하남시 신장동 523-1번지 현대베스코아 1층","indutype":"의류 - 내의판매","category":"other"},{"name":"비비텔레콤","tel":"031-794-9874","addr":"경기도 하남시 신장동 523-1번지 현대베스코아 153호","indutype":"사무통신 - 통신기기","category":"other"},{"name":"사계절","tel":"031-699-6814","addr":"경기도 하남시 신장동 523-1번지 현대베스코아 2층 238호","indutype":"의류 - 정장","category":"other"},{"name":"숙진패션","tel":"031-791-6545","addr":"경기도 하남시 신장동 523-1번지 현대베스코아빌딩 2층 235호","indutype":"의류 - 기타의류","category":"other"},{"name":"쉐모아","tel":"031-794-5938","addr":"경기도 하남시 신장동 523-1번지 현대베스코아빌딩 2층 205,206호","indutype":"직물 - 침구·수예점","category":"other"},{"name":"쉬즈","tel":"031-792-6026","addr":"경기도 하남시 신장동 523-1번지 현대베스코아빌딩 2층 14호","indutype":"의류 - 정장","category":"other"},{"name":"슈뜨","tel":"031-791-2072","addr":"경기도 하남시 신장동 523-1번지 현대베스코아빌딩 1층 120호","indutype":"의류 - 정장","category":"other"},{"name":"슈슈","tel":"031-795-0336","addr":"경기도 하남시 신장동 523-1번지 현대베스코아빌딩 2층 2호","indutype":"의류 - 정장","category":"other"},{"name":"스윗제이","tel":"02-774-9034","addr":"경기도 하남시 신장동 523-1번지 현대베스코아 2층 236호","indutype":"의류 - 정장","category":"other"},{"name":"스카이볼링장 편의점","tel":"031-796-9088","addr":"경기도 하남시 신장동 523-1번지 현대베스코아빌딩 1303호","indutype":"유통업 영리 - 편 의 점","category":"other"},{"name":"스톤진","tel":"031-796-1847","addr":"경기도 하남시 신장동 523-1번지 현대베스코아 2층","indutype":"의류 - 정장","category":"other"},{"name":"스포츠아카데미","tel":"031-791-7762","addr":"경기도 하남시 신장동 523-1번지 현대베스코아 228호","indutype":"의류 - 정장","category":"other"},{"name":"신데렐라","tel":"031-793-4212","addr":"경기도 하남시 신장동 523-1번지 현대베스코아빌딩 2층 210호","indutype":"의류 - 기타의류","category":"other"},{"name":"신들 신고","tel":"031-793-0852","addr":"경기도 하남시 신장동 523-1번지 현대베스코아 107호","indutype":"신변잡화 - 신발","category":"other"},{"name":"신발장","tel":"031-791-4731","addr":"경기도 하남시 신장동 523-1번지 현대베스코아빌딩 2층 204호","indutype":"신변잡화 - 신발","category":"other"},{"name":"씨앤샵트레이딩","tel":"031-794-2545","addr":"경기도 하남시 신장동 523-1번지 현대베스코아빌딩 2층 36호","indutype":"의류 - 정장","category":"other"},{"name":"아레나수영복","tel":"031-792-1444","addr":"경기도 하남시 신장동 523-1번지 현대베스코아빌딩 3층 352호","indutype":"의류 - 스포츠의류","category":"other"},{"name":"아이비스터디홀스쿨링","tel":"031-793-2381","addr":"경기도 하남시 신장동 523-1번지 현대베스코아 611호","indutype":"회원제형태 - 서적","category":"other"},{"name":"오렌지","tel":"031-795-8999","addr":"경기도 하남시 신장동 523-1번지 현대베스코아 247호","indutype":"의류 - 정장","category":"other"},{"name":"오로라","tel":"031-794-6373","addr":"경기도 하남시 신장동 523-1번지 현대베스코아빌딩 1층 141호","indutype":"레져용품 - 스포츠·레져용품","category":"other"},{"name":"은총의여유공간(닥터큐)","tel":"070-7018-5392","addr":"경기도 하남시 신장동 523-1번지 현대베스코아빌딩 2층 220호","indutype":"레져용품 - 스포츠·레져용품","category":"other"},{"name":"이브자리","tel":"031-795-8321","addr":"경기도 하남시 신장동 523-1번지 현대베스코아 3층","indutype":"직물 - 침구·수예점","category":"other"},{"name":"이산스튜디오","tel":"031-796-4782","addr":"경기도 하남시 신장동 523-1번지 현대베스코아 323,324,325","indutype":"광학제품 - 사진관","category":"other"},{"name":"자유시간","tel":"031-795-2944","addr":"경기도 하남시 신장동 523-1번지 현대베스코아빌딩 121호","indutype":"의류 - 정장","category":"other"},{"name":"젬마","tel":"02-1111-1111","addr":"경기도 하남시 신장동 523-1번지 현대베스코아빌딩 127호","indutype":"의류 - 정장","category":"other"},{"name":"주)까르페디엠 스포츠","tel":"031-794-1331","addr":"경기도 하남시 신장동 523-1번지","indutype":"회원제형태 - 레져업소","category":"other"},{"name":"주식회사 카르페디엠","tel":"02-6416-6051","addr":"경기도 하남시 신장동 523-1번지 현대베스코아빌딩 1511호","indutype":"용역 서비스 - 사무서비스","category":"other"},{"name":"주식회사알씨렌트카","tel":"031-793-6766","addr":"경기도 하남시 신장동 523-1번지 현대베스코아 618호","indutype":"여행 - 렌터카","category":"other"},{"name":"카라","tel":"031-791-5483","addr":"경기도 하남시 신장동 523-1번지 현대베스코아빌딩 1층 123,124호","indutype":"의류 - 정장","category":"other"},{"name":"캠브리지","tel":"031-796-0058","addr":"경기도 하남시 신장동 523-1번지 현대베스코아 334호","indutype":"의류 - 정장","category":"other"},{"name":"코코","tel":"031-791-2355","addr":"경기도 하남시 신장동 523-1번지 현대베스코아 142호 143호","indutype":"신변잡화 - 신발","category":"other"},{"name":"테이크 폼","tel":"031-795-1468","addr":"경기도 하남시 신장동 523-1번지 현대베스코아빌딩 606-3호","indutype":"의류 - 스포츠의류","category":"other"},{"name":"파이플러스","tel":"031-792-8292","addr":"경기도 하남시 신장동 523-1현대베스코아1층-150","indutype":"사무통신 - 컴퓨터","category":"other"},{"name":"플러스","tel":"031-791-7577","addr":"경기도 하남시 신장동 523-1번지 현대베스코아빌딩 249호","indutype":"의류 - 정장","category":"other"},{"name":"피티에스(PTS)","tel":"031-795-3233","addr":"경기도 하남시 신장동 523-1번지 현대베스코아 1007호","indutype":"회원제형태 - 레져업소","category":"other"},{"name":"핑크앤블루","tel":"031-793-4212","addr":"경기도 하남시 신장동 523-1번지 현대베스코아 127호","indutype":"의류 - 정장","category":"other"},{"name":"한국P&S","tel":"031-792-5303","addr":"경기도 하남시 신장동 523-1번지 현대베스코아 4층 433호","indutype":"사무통신 - 컴퓨터","category":"other"},{"name":"한샘하남키친프라자","tel":"02-422-3374","addr":"경기도 하남시 신장동 523-1번지 현대베스코아 4층","indutype":"주방용구 - 주방용구","category":"other"},{"name":"해든","tel":"031-235-0365","addr":"경기도 하남시 신장동 523-1번지 현대베스코아빌딩 지하1층 116호","indutype":"문화.취미 - 화원","category":"other"},{"name":"해피아트갤러리","tel":"","addr":"경기도 하남시 신장동 523-1번지 현대베스코아빌딩 910호","indutype":"문화.취미 - 화랑","category":"other"},{"name":"현대포토","tel":"031-795-2663","addr":"경기도 하남시 신장동 523-1번지 현대베스코아 1층","indutype":"광학제품 - 사진관","category":"other"},{"name":"홈패션모자이크","tel":"031-794-9341","addr":"경기도 하남시 신장동 523-1번지 현대베스코아 350호","indutype":"직물 - 침구·수예점","category":"other"},{"name":"희자보석","tel":"02-1234-1234","addr":"경기도 하남시 신장동 523-1번지 현대베스코아빌딩 129호","indutype":"신변잡화 - 액세서리","category":"other"}]},{"lat":"37.537073141","long":"127.20642782","imageIndex":17,"items":[{"name":"(주)동진통신랜드","tel":"031-793-3017","addr":"경기도 하남시 신장동 430-36번지","indutype":"사무통신 - 통신기기","category":"other"}]},{"lat":"37.538372906","long":"127.20506229","imageIndex":17,"items":[{"name":"(주)레드페이스 신장점","tel":"02-3434-3415","addr":"경기도 하남시 신장동 427-156번지 1,2층","indutype":"레져용품 - 스포츠·레져용품","category":"other"}]},{"lat":"37.541072659","long":"127.20692524","imageIndex":17,"items":[{"name":"(주)비스코리아","tel":"031-795-2002","addr":"경기도 하남시 신장동 415-10번지 명지캐럿","indutype":"여행 - 렌터카","category":"other"},{"name":"피아노","tel":"031-794-4768","addr":"경기도 하남시 신장동 415-10번지 명지캐럿 상가 107호","indutype":"의류 - 정장","category":"other"}]},{"lat":"37.540789601","long":"127.20908562","imageIndex":17,"items":[{"name":"(주)비오비에듀테인먼트","tel":"031-796-2666","addr":"경기도 하남시 신장동 565-11번지 이현빌딩 2,4층","indutype":"용역 서비스 - 기타용역서비스","category":"other"},{"name":"(주)비오비에듀테인먼트","tel":"031-793-8807","addr":"경기도 하남시 신장동 565-11번지 이현빌딩 2,4층","indutype":"서적문구 - 출판 및 인쇄물","category":"other"},{"name":"애완용품 동부유통","tel":"031-792-2572","addr":"경기도 하남시 신장동 565-11번지 이현빌딩","indutype":"문화.취미 - 애완동물","category":"other"},{"name":"휘닉스전기조명LED할인매장","tel":"031-791-3501","addr":"경기도 하남시 신장동 565-11번지 이현빌딩 1층","indutype":"건축자재 - 조명기구","category":"other"}]},{"lat":"37.540873386","long":"127.2075357","imageIndex":17,"items":[{"name":"(주)옵트비젼","tel":"031-794-4933","addr":"경기도 하남시 신장동 424-2번지 경림빌딩 305호","indutype":"광학제품 - 기타광학제품","category":"other"},{"name":"A (에이)","tel":"031-795-0429","addr":"경기도 하남시 신장동 424-2번지 경림빌딩 1층 103호","indutype":"의류 - 정장","category":"other"},{"name":"미래사무기기","tel":"031-795-1276","addr":"경기도 하남시 신장동 424-2번지 경림빌딩","indutype":"가구 - 기타가구","category":"other"},{"name":"주연테크하남점","tel":"031-795-1411","addr":"경기도 하남시 신장동 424-2번지","indutype":"사무통신 - 컴퓨터","category":"other"}]},{"lat":"37.537071558","long":"127.20734428","imageIndex":17,"items":[{"name":"(주)원전사","tel":"031-792-3175","addr":"경기도 하남시 신장동 432-8번지","indutype":"건축자재 - 인테리어전문","category":"other"}]},{"lat":"37.537544584","long":"127.20992527","imageIndex":17,"items":[{"name":"(주)지지샵","tel":"1855-0828-0000","addr":"경기도 하남시 신장동 451-14번지","indutype":"유통업 영리 - 기타유통업","category":"other"}]},{"lat":"37.54007012","long":"127.21345116","imageIndex":17,"items":[{"name":"(주)진성여행사","tel":"031-792-8123","addr":"경기도 하남시 신장동 519-3번지 백천빌딩 1층","indutype":"여행 - 관광여행","category":"other"},{"name":"이청우세무회계사무소","tel":"031-794-3633","addr":"경기도 하남시 신장동 519-3번지 신장빌딩 4층","indutype":"용역 서비스 - 법률회계서비스(개인)","category":"other"},{"name":"하남종합법률사무소","tel":"031-791-6100","addr":"경기도 하남시 신장동 519-3번지 백천빌딩 6층 1호","indutype":"용역 서비스 - 법률회계서비스(개인)","category":"other"},{"name":"한아건축사사무소","tel":"031-795-3322","addr":"경기도 하남시 신장동 519-3번지 백천빌딩 5층","indutype":"용역 서비스 - 법률회계서비스(개인)","category":"other"}]},{"lat":"37.540510853","long":"127.21387105","imageIndex":17,"items":[{"name":"(주)파고다관광여행사","tel":"031-795-3311","addr":"경기도 하남시 신장동 519번지 오피스텔트레벨 상가 202호","indutype":"여행 - 관광여행","category":"other"},{"name":"U PLUS텔레콤","tel":"02-426-1236","addr":"경기도 하남시 신장동 519번지 오피스텔트레벨106호","indutype":"사무통신 - 통신기기","category":"other"},{"name":"경진환경산업개발","tel":"031-798-7287","addr":"경기도 하남시 신장동 519번지 오피스텔트레벨 1228호","indutype":"기타 - 기타 전문점","category":"other"},{"name":"다우이엔씨","tel":"031-796-3679","addr":"경기도 하남시 신장동 519번지 동양트레벨 1101호","indutype":"건축자재 - 기타건축자재","category":"other"},{"name":"당케당케","tel":"","addr":"경기도 하남시 신장동 519번지 오피스텔트레벨 1408호","indutype":"문화.취미 - 문화취미기타","category":"other"},{"name":"더쎈트팩토리","tel":"031-777-0933","addr":"경기도 하남시 신장동 519번지 오피스텔트레벨 429호","indutype":"신변잡화 - 기타잡화","category":"other"},{"name":"바이더웨이하남트레벨점","tel":"031-791-8770","addr":"경기도 하남시 신장동 519번지 동양트레벨 상가 1층","indutype":"유통업 영리 - 편 의 점","category":"other"},{"name":"법무사장영환사무소","tel":"031-791-0077","addr":"경기도 하남시 신장동 519번지 오피스텔트레벨 206호","indutype":"용역 서비스 - 법률회계서비스(개인)","category":"other"},{"name":"세븐일레븐하남시청점","tel":"","addr":"경기도 하남시 신장동 519번지 동양트레벨오피스텔 1층 103호","indutype":"유통업 영리 - 편 의 점","category":"other"},{"name":"세븐일레븐하남트레벨점","tel":"","addr":"경기도 하남시 신장동 519번지 동양트레벨상가1층 106호","indutype":"유통업 영리 - 편 의 점","category":"other"},{"name":"세영기획인쇄","tel":"","addr":"경기도 하남시 신장동 519번지 오피스텔트레벨 1층 108호","indutype":"서적문구 - 출판 및 인쇄물","category":"other"},{"name":"이레크리에이티브","tel":"02-323-5459","addr":"경기도 하남시 신장동 519번지 오피스텔트레벨 108호","indutype":"용역 서비스 - 종합용역","category":"other"},{"name":"주식회사 지에프컴퍼니","tel":"031-794-8808","addr":"경기도 하남시 신장동 519번지 오피스텔트레벨 407호","indutype":"건축자재 - 조명기구","category":"other"},{"name":"주식회사 카이로스테크","tel":"070-8289-2309","addr":"경기도 하남시 신장동 519번지 오피스텔트레벨 1229호","indutype":"기타 - 기계공구","category":"other"},{"name":"트레벨공인중개사사무소","tel":"031-796-1800","addr":"경기도 하남시 신장동 519번지 동양트레벨 108호","indutype":"용역 서비스 - 부동산 중개·임대","category":"other"},{"name":"하남종합건축사사무소","tel":"031-792-4557","addr":"경기도 하남시 신장동 519번지 오피스텔트레벨 9층 914호","indutype":"용역 서비스 - 사무서비스","category":"other"}]},{"lat":"37.536458213","long":"127.21286398","imageIndex":17,"items":[{"name":"(주)하남환경","tel":"031-793-8178","addr":"경기도 하남시 신장동 470-2번지","indutype":"용역 서비스 - 종합용역","category":"other"}]},{"lat":"37.538822387","long":"127.21083397","imageIndex":17,"items":[{"name":"AK종합상사","tel":"031-796-2086","addr":"경기도 하남시 신장동 448-44번지","indutype":"신변잡화 - 기타잡화","category":"other"},{"name":"한결기획인쇄","tel":"031-793-5663","addr":"경기도 하남시 신장동 448-44번지","indutype":"용역 서비스 - 종합용역","category":"other"}]},{"lat":"37.539179737","long":"127.20741793","imageIndex":17,"items":[{"name":"BBUGGUBBU(뿌꾸뿌)","tel":"","addr":"경기도 하남시 신장동 427-347번지","indutype":"신변잡화 - 귀금속","category":"other"}]},{"lat":"37.54048214","long":"127.20972972","imageIndex":17,"items":[{"name":"GS25하남대로점","tel":"","addr":"경기도 하남시 신장동 565-5번지 1층 일부","indutype":"유통업 영리 - 편 의 점","category":"other"},{"name":"아이비클럽","tel":"031-794-8321","addr":"경기도 하남시 신장동 565-5번지 다인빌딩","indutype":"의류 - 기타의류","category":"other"}]},{"lat":"37.540876607","long":"127.22084209","imageIndex":17,"items":[{"name":"GS25하남대명점","tel":"","addr":"경기도 하남시 신장동 105-4번지 대명상가(지우제) 105호","indutype":"유통업 영리 - 편 의 점","category":"other"},{"name":"더슈원","tel":"031-791-9207","addr":"경기도 하남시 신장동 105-4번지 하남프라자5층501호~502호 501호","indutype":"신변잡화 - 신발","category":"other"},{"name":"신우리공인중개사사무소","tel":"031-794-0808","addr":"경기도 하남시 신장동 105-4번지 대명상가(지우제) 1층 102호","indutype":"용역 서비스 - 부동산 중개·임대","category":"other"},{"name":"종미피부삽","tel":"031-796-2722","addr":"경기도 하남시 신장동 105-4번지 대명상가(지우제) 504호","indutype":"회원제형태 - 기타4","category":"other"},{"name":"타임스포츠","tel":"031-791-3171","addr":"경기도 하남시 신장동 105-4번지 하남프라자 6층","indutype":"레져용품 - 스포츠·레져용품","category":"other"}]},{"lat":"37.539649713","long":"127.21173014","imageIndex":17,"items":[{"name":"GS25하남블루밍점","tel":"","addr":"경기도 하남시 신장동 517번지 블루밍더클래식 1층","indutype":"유통업 영리 - 편 의 점","category":"other"},{"name":"아크로갤러리","tel":"031-792-7748","addr":"경기도 하남시 신장동 517번지 블루밍더클래식 1층","indutype":"가구 - 일반가구","category":"other"},{"name":"하남번호판제작소","tel":"031-794-2049","addr":"경기도 하남시 신장동 517번지","indutype":"기타 - 기타 전문점","category":"other"}]},{"lat":"37.537514583","long":"127.20645165","imageIndex":17,"items":[{"name":"GS25하남상떼빌점","tel":"031-795-2513","addr":"경기도 하남시 신장동 430-7번지 상원상떼빌 상가 110호","indutype":"유통업 영리 - 편 의 점","category":"other"},{"name":"오피스크린피아","tel":"070-8836-7095","addr":"경기도 하남시 신장동 430-7번지 성원상떼빌 307호","indutype":"신변잡화 - 기타잡화","category":"other"}]},{"lat":"37.538901196","long":"127.20697589","imageIndex":17,"items":[{"name":"GS25하남신장점","tel":"","addr":"경기도 하남시 신장동 427-299번지","indutype":"유통업 영리 - 편 의 점","category":"other"}]},{"lat":"37.538959453","long":"127.20453209","imageIndex":17,"items":[{"name":"GS25하남진도점","tel":"","addr":"경기도 하남시 신장동 427-66번지 진도로르빌","indutype":"유통업 영리 - 편 의 점","category":"other"},{"name":"뿜디자인","tel":"","addr":"경기도 하남시 신장동 427-66번지 진도로르빌 2층 211호","indutype":"건축자재 - 인테리어전문","category":"other"},{"name":"아모레/정봉선","tel":"031-793-9870","addr":"경기도 하남시 신장동 427-66번지 진도로르빌 상가 203호","indutype":"회원제형태 - 기타1","category":"other"},{"name":"유브이(UV)깔끔이","tel":"","addr":"경기도 하남시 신장동 427-66번지 진도로르빌 1406호","indutype":"용역 서비스 - 종합용역","category":"other"}]},{"lat":"37.536458263","long":"127.20770467","imageIndex":17,"items":[{"name":"JJ MOTORS","tel":"031-794-4560","addr":"경기도 하남시 신장동 433-1번지 1층","indutype":"수리서비스 - 레져용품수리","category":"other"}]},{"lat":"37.538343584","long":"127.20639733","imageIndex":17,"items":[{"name":"SKY코리아파워","tel":"031-792-7591","addr":"경기도 하남시 신장동 427-18번지 1층","indutype":"전기제품 - 냉열기기","category":"other"},{"name":"슈가","tel":"031-796-2044","addr":"경기도 하남시 신장동 427-18번지 순흥빌딩 1층","indutype":"의류 - 정장","category":"other"},{"name":"앵두양말","tel":"","addr":"경기도 하남시 신장동 427-18번지 1층","indutype":"의류 - 기타의류","category":"other"}]},{"lat":"37.53626368","long":"127.21078161","imageIndex":17,"items":[{"name":"가람상사","tel":"031-793-8443","addr":"경기도 하남시 신장동 472-14번지","indutype":"건축자재 - 목재·석재·철물","category":"other"},{"name":"도기스쿨(doggy school)","tel":"031-794-3680","addr":"경기도 하남시 신장동 472-14","indutype":"문화.취미 - 애완동물","category":"other"}]},{"lat":"37.538072918","long":"127.20661157","imageIndex":17,"items":[{"name":"가방랜드","tel":"031-796-1266","addr":"경기도 하남시 신장동 427-38번지 1층 112호","indutype":"신변잡화 - 가방","category":"other"}]},{"lat":"37.537707031","long":"127.20456266","imageIndex":17,"items":[{"name":"각설탕","tel":"031-791-9558","addr":"경기도 하남시 신장동 427-14번지","indutype":"의류 - 정장","category":"other"},{"name":"에드윈하남점","tel":"031-793-0276","addr":"경기도 하남시 신장동 427-14번지","indutype":"의류 - 정장","category":"other"},{"name":"혜성실업","tel":"031-792-3245","addr":"경기도 하남시 신장동 427-14번지","indutype":"신변잡화 - 귀금속","category":"other"}]},{"lat":"37.547038393","long":"127.21138864","imageIndex":17,"items":[{"name":"강남애니펫샵","tel":"070-7795-8875","addr":"경기도 하남시 신장동 315-2번지","indutype":"문화.취미 - 애완동물","category":"other"}]},{"lat":"37.538513872","long":"127.20691827","imageIndex":17,"items":[{"name":"개팔자상팔자","tel":"031-795-9419","addr":"경기도 하남시 신장동 427-330번지","indutype":"문화.취미 - 애완동물","category":"other"},{"name":"따라쟁이","tel":"031-796-7585","addr":"경기도 하남시 신장동 427-330번지 1층","indutype":"신변잡화 - 기타잡화","category":"other"}]},{"lat":"37.539154873","long":"127.21133274","imageIndex":17,"items":[{"name":"건축사사무소모노(주)","tel":"031-795-0212","addr":"경기도 하남시 신장동 455-2번지","indutype":"용역 서비스 - 법률회계서비스(법인)","category":"other"},{"name":"주식회사 삼미공간건축사사무소","tel":"031-796-0777","addr":"경기도 하남시 신장동 455-2번지 3층","indutype":"용역 서비스 - 사무서비스","category":"other"}]},{"lat":"37.540069389","long":"127.20875551","imageIndex":17,"items":[{"name":"경기도민뉴스(주)","tel":"031-775-4567","addr":"경기도 하남시 신장동 411-23번지","indutype":"용역 서비스 - 종합용역","category":"other"}]},{"lat":"37.539037286","long":"127.21159265","imageIndex":17,"items":[{"name":"경기인쇄","tel":"031-791-4661","addr":"경기도 하남시 신장동 448-35번지 지송빌딩 104호","indutype":"기타 - 기타 전문점","category":"other"}]},{"lat":"37.536736565","long":"127.20828246","imageIndex":17,"items":[{"name":"경기전력안전기술단 (주)","tel":"031-795-4253","addr":"경기도 하남시 신장동 438-10번지 금강빌딩 502호","indutype":"용역 서비스 - 기타용역서비스","category":"other"},{"name":"세종불교사","tel":"031-792-7972","addr":"경기도 하남시 신장동 438-10번지 1층 102호","indutype":"신변잡화 - 기념품점","category":"other"}]},{"lat":"37.540794798","long":"127.2112581","imageIndex":17,"items":[{"name":"경원인테리어","tel":"031-794-4314","addr":"경기도 하남시 신장동 387-46번지","indutype":"건축자재 - 인테리어전문","category":"other"}]},{"lat":"37.535822875","long":"127.21039571","imageIndex":17,"items":[{"name":"경원장식","tel":"031-794-4343","addr":"경기도 하남시 신장동 475-35번지","indutype":"직물 - 카페트,커튼,천막,지물","category":"other"}]},{"lat":"37.54439992","long":"127.22059209","imageIndex":17,"items":[{"name":"고고종합환경","tel":"","addr":"경기도 하남시 신장동 602번지 하남유니온시티에일린의뜰 107동 203호","indutype":"용역 서비스 - 종합용역","category":"other"},{"name":"고양이 타로 공방","tel":"031-699-2686","addr":"경기도 하남시 신장동 602번지 2층 203호","indutype":"문화.취미 - 문화취미기타","category":"other"},{"name":"레드컨시","tel":"","addr":"경기도 하남시 신장동 602번지 하남유니온시티에일린의뜰 105동 1904호","indutype":"신변잡화 - 기타잡화","category":"other"},{"name":"엘지설치센터분당점","tel":"031-793-4550","addr":"경기도 하남시 신장동 602번지 하남유니온시티에일린의뜰 106동 1503호","indutype":"용역 서비스 - 기타용역서비스","category":"other"},{"name":"이마트24 하남에일린점","tel":"","addr":"경기도 하남시 신장동 602번지 상가동 113,114호","indutype":"유통업 영리 - 편 의 점","category":"other"},{"name":"크린에이드","tel":"031-791-1118","addr":"경기도 하남시 신장동 602번지 하남유니온시티에일린의뜰 상가동 206호","indutype":"수리서비스 - 세탁소","category":"other"}]},{"lat":"37.543290934","long":"127.21102743","imageIndex":17,"items":[{"name":"골프그룹알","tel":"031-794-7992","addr":"경기도 하남시 신장동 589-1번지 유니온 상가 4층 401호,창고지하2층 401호","indutype":"레져용품 - 골프용품 전문점","category":"other"},{"name":"유니온프라자","tel":"","addr":"경기도 하남시 신장동 589-1번지 지하1층","indutype":"용역 서비스 - 사무서비스","category":"other"}]},{"lat":"37.537100376","long":"127.21147411","imageIndex":17,"items":[{"name":"광명간판","tel":"031-792-4438","addr":"경기도 하남시 신장동 454-65번지","indutype":"용역 서비스 - 종합용역","category":"other"}]},{"lat":"37.536510788","long":"127.20858732","imageIndex":17,"items":[{"name":"광신상사","tel":"031-792-2258","addr":"경기도 하남시 신장동 435번지 광신빌딩 1층","indutype":"건축자재 - 목재·석재·철물","category":"other"},{"name":"법무사 박종관사무소","tel":"031-793-3650","addr":"경기도 하남시 신장동 435번지 광신빌딩 502호","indutype":"용역 서비스 - 법률회계서비스(개인)","category":"other"}]},{"lat":"37.537073785","long":"127.21122512","imageIndex":17,"items":[{"name":"국가대표 사무기기","tel":"031-000-0000","addr":"경기도 하남시 신장동 454-55번지 1층 103호","indutype":"사무통신 - 사무용 OA기기","category":"other"},{"name":"자보렌트카 주식회사","tel":"031-794-0801","addr":"경기도 하남시 신장동 454-55번지 B동 1층","indutype":"여행 - 렌터카","category":"other"}]},{"lat":"37.538597919","long":"127.20519867","imageIndex":17,"items":[{"name":"금도풍기인견 쉐르담","tel":"031-793-1677","addr":"경기도 하남시 신장동 427-35번지","indutype":"의류 - 스포츠의류","category":"other"},{"name":"러브펫동물병원","tel":"031-791-5775","addr":"경기도 하남시 신장동 427-35번지","indutype":"문화.취미 - 애완동물","category":"other"}]},{"lat":"37.539795248","long":"127.21094982","imageIndex":17,"items":[{"name":"금란스튜디오","tel":"031-796-1441","addr":"경기도 하남시 신장동 447-10번지","indutype":"광학제품 - 사진관","category":"other"},{"name":"다오공사","tel":"031-795-0464","addr":"경기도 하남시 신장동 447-10번지","indutype":"건축자재 - 페인트","category":"other"},{"name":"라텔주짓수","tel":"031-792-3311","addr":"경기도 하남시 신장동 447-10번지 2층","indutype":"회원제형태 - 레져업소","category":"other"}]},{"lat":"37.538066998","long":"127.20481255","imageIndex":17,"items":[{"name":"금장사","tel":"031-792-8585","addr":"경기도 하남시 신장동 427-170번지","indutype":"신변잡화 - 시계","category":"other"},{"name":"호원사","tel":"031-796-4920","addr":"경기도 하남시 신장동 427-170번지 2층","indutype":"기타 - 기타 전문점","category":"other"}]},{"lat":"37.540931392","long":"127.21550159","imageIndex":17,"items":[{"name":"김규석세무회계사무소","tel":"031-795-1411","addr":"경기도 하남시 신장동 523-4번지","indutype":"용역 서비스 - 법률회계서비스(개인)","category":"other"},{"name":"마리앤모리 하남신장점","tel":"031-795-7916","addr":"경기도 하남시 신장동 523-4번지 대유빌딩 지하1층","indutype":"서적문구 - 문구용품","category":"other"},{"name":"커브스 신잔클럽","tel":"031-796-8090","addr":"경기도 하남시 신장동 523-4번지 대유빌딩 5층","indutype":"회원제형태 - 레져업소","category":"other"},{"name":"하남문고","tel":"031-795-6602","addr":"경기도 하남시 신장동 523-4번지 대유빌딩 지하1층","indutype":"서적문구 - 일반서적","category":"other"}]},{"lat":"37.540177995","long":"127.21358724","imageIndex":17,"items":[{"name":"김시관세무회계사무소","tel":"031-795-7171","addr":"경기도 하남시 신장동 519-2번지 하남코아 603호","indutype":"용역 서비스 - 법률회계서비스(개인)","category":"other"},{"name":"르하임스터디카페 하남점","tel":"","addr":"경기도 하남시 신장동 519-2번지 코아빌딩 4층","indutype":"용역 서비스 - 사무서비스","category":"other"},{"name":"변호사차경남법률사무소","tel":"031-791-0266","addr":"경기도 하남시 신장동 519-2번지 하남코아빌딩 501호","indutype":"용역 서비스 - 법률회계서비스(개인)","category":"other"},{"name":"서광건축사사무소","tel":"031-794-0727","addr":"경기도 하남시 신장동 519-2번지 하남코아빌딩 502호","indutype":"용역 서비스 - 법률회계서비스(개인)","category":"other"},{"name":"세무사홍인선사무소","tel":"031-791-6628","addr":"경기도 하남시 신장동 519-2번지 하남코아빌딩 503호","indutype":"용역 서비스 - 법률회계서비스(개인)","category":"other"},{"name":"신동민공인회계사사무소","tel":"031-794-5093","addr":"경기도 하남시 신장동 519-2번지 코아빌딩 5층 503호","indutype":"용역 서비스 - 법률회계서비스(개인)","category":"other"},{"name":"제닉스 아레나PC 하남점","tel":"","addr":"경기도 하남시 신장동 519-2번지 코아빌딩 지층 1호","indutype":"수리서비스 - 사무·통신기기수리","category":"other"},{"name":"하남세무회계사무소","tel":"031-791-6628","addr":"경기도 하남시 신장동 519-2번지 하남코아빌딩 503호","indutype":"용역 서비스 - 법률회계서비스(개인)","category":"other"}]},{"lat":"37.541069872","long":"127.20853196","imageIndex":17,"items":[{"name":"김지연우리옷","tel":"031-796-4446","addr":"경기도 하남시 신장동 564번지 글로벌빌딩 1층","indutype":"의류 - 기타의류","category":"other"},{"name":"스마트학생복-하남점","tel":"031-794-4114","addr":"경기도 하남시 신장동 564번지 글로벌빌딩 2층","indutype":"의류 - 단체복","category":"other"}]},{"lat":"37.54012252","long":"127.20928745","imageIndex":17,"items":[{"name":"꽃을사랑하는사람들","tel":"031-796-3511","addr":"경기도 하남시 신장동 406-9번지","indutype":"문화.취미 - 화원","category":"other"},{"name":"서울아트광고","tel":"031-794-9746","addr":"경기도 하남시 신장동 406-9번지","indutype":"용역 서비스 - 종합용역","category":"other"},{"name":"오투바이크(00 BIKE)","tel":"070-4104-0151","addr":"경기도 하남시 신장동 406-9번지 108호","indutype":"레져용품 - 스포츠·레져용품","category":"other"},{"name":"와이에스시스텍(YS systech)","tel":"031-796-4052","addr":"경기도 하남시 신장동 406-9번지 102호","indutype":"건축자재 - 기타건축자재","category":"other"},{"name":"주식회사 동해전기","tel":"031-791-8996","addr":"경기도 하남시 신장동 406-9번지","indutype":"전기제품 - 기타전기제품","category":"other"}]},{"lat":"37.537983912","long":"127.20597772","imageIndex":17,"items":[{"name":"나드리","tel":"031-796-1149","addr":"경기도 하남시 신장동 427-372번지 하이렉스오피스텔 108호","indutype":"의류 - 정장","category":"other"},{"name":"씨유하남하이렉스점","tel":"031-793-1250","addr":"경기도 하남시 신장동 427-372번지 하이렉스오피스텔 104호","indutype":"유통업 영리 - 편 의 점","category":"other"},{"name":"아이엠","tel":"031-791-2848","addr":"경기도 하남시 신장동 427-372번지","indutype":"의류 - 정장","category":"other"},{"name":"원왕한복","tel":"031-792-3953","addr":"경기도 하남시 신장동 427-372번지","indutype":"의류 - 맞춤복점","category":"other"}]},{"lat":"37.539431771","long":"127.21770371","imageIndex":17,"items":[{"name":"나래문구","tel":"031-793-6769","addr":"경기도 하남시 신장동 528-5 (백송한신상가 1-22)","indutype":"서적문구 - 문구용품","category":"other"},{"name":"유노이아","tel":"031-796-0018","addr":"경기도 하남시 신장동 528-5번지 2층 12,13호","indutype":"레져용품 - 스포츠·레져용품","category":"other"},{"name":"이레카본","tel":"031-795-5179","addr":"경기도 하남시 신장동 528-5번지 한신백송상가 B24호","indutype":"서적문구 - 과학기자재","category":"other"},{"name":"이레카본/원격지","tel":"","addr":"경기도 하남시 신장동 528-5번지 한신백송상가 B24호","indutype":"기타 - 기타 전문점","category":"other"}]},{"lat":"37.538290634","long":"127.20575226","imageIndex":17,"items":[{"name":"나영만물","tel":"031-791-1392","addr":"경기도 하남시 신장동 427-281번지 1층","indutype":"신변잡화 - 기념품점","category":"other"}]},{"lat":"37.540349521","long":"127.20828105","imageIndex":17,"items":[{"name":"나의로망","tel":"031-796-9121","addr":"경기도 하남시 신장동 411-12번지 1층","indutype":"의류 - 정장","category":"other"},{"name":"다성전기조명","tel":"031-795-9890","addr":"경기도 하남시 신장동 411-12번지 1층","indutype":"전기제품 - 기타전기제품","category":"other"},{"name":"동성중기","tel":"031-2693-1199","addr":"경기도 하남시 신장동 411-12번지","indutype":"기타 - 기계공구","category":"other"}]},{"lat":"37.540984004","long":"127.21125863","imageIndex":17,"items":[{"name":"노비타앤키","tel":"02-2282-6886","addr":"경기도 하남시 신장동 387-3번지 해오름 상가 101호","indutype":"전기제품 - 가전제품","category":"other"}]},{"lat":"37.540987584","long":"127.21431368","imageIndex":17,"items":[{"name":"농협은행(주)하남시지부","tel":"031-795-6642","addr":"경기도 하남시 신장동 522번지 NH농협중앙회하남지부","indutype":"유통업 비영리 - 농,축협 직영매장","category":"other"}]},{"lat":"37.53817847","long":"127.20809407","imageIndex":17,"items":[{"name":"누수명가","tel":"","addr":"경기도 하남시 신장동 430-71번지","indutype":"용역 서비스 - 기타용역서비스","category":"other"}]},{"lat":"37.541181558","long":"127.20647294","imageIndex":17,"items":[{"name":"늘봄플라워","tel":"031-794-0790","addr":"경기도 하남시 신장동 415-2번지 외1필지","indutype":"문화.취미 - 화원","category":"other"},{"name":"코코벼룩시장","tel":"070-8569-1120","addr":"경기도 하남시 신장동 415-2번지","indutype":"의류 - 기타의류","category":"other"},{"name":"프로통신","tel":"031-792-1011","addr":"경기도 하남시 신장동 415-2번지 1층 5호","indutype":"사무통신 - 통신기기","category":"other"}]},{"lat":"37.537851453","long":"127.20962063","imageIndex":17,"items":[{"name":"대건판넬건축","tel":"031-793-4511","addr":"경기도 하남시 신장동 450-42번지 성심빌라 402호","indutype":"건축자재 - 기타건축자재","category":"other"}]},{"lat":"37.541259978","long":"127.22302701","imageIndex":17,"items":[{"name":"대산인테리어","tel":"031-794-1744","addr":"경기도 하남시 신장동 82-2번지 102호","indutype":"건축자재 - 인테리어전문","category":"other"}]},{"lat":"37.539849429","long":"127.20569991","imageIndex":17,"items":[{"name":"대성철물","tel":"031-796-3568","addr":"경기도 하남시 신장동 427-61번지","indutype":"건축자재 - 목재·석재·철물","category":"other"}]},{"lat":"37.538515101","long":"127.20620545","imageIndex":17,"items":[{"name":"대신주방마트","tel":"031-791-8479","addr":"경기도 하남시 신장동 427-252번지 1층","indutype":"주방용구 - 주방용구","category":"other"}]},{"lat":"37.538319349","long":"127.20997267","imageIndex":17,"items":[{"name":"대우철물건재","tel":"031-791-7974","addr":"경기도 하남시 신장동 450-15번지","indutype":"건축자재 - 목재·석재·철물","category":"other"}]},{"lat":"37.536819811","long":"127.20703811","imageIndex":17,"items":[{"name":"대한불교법상종불사암","tel":"031-791-5747","addr":"경기도 하남시 신장동 432-31번지","indutype":"기타 - 비영리/대상","category":"other"},{"name":"미니스톱하남신장점","tel":"031-1577-9621","addr":"경기도 하남시 신장동 432-31번지","indutype":"유통업 영리 - 편 의 점","category":"other"}]},{"lat":"37.541708339","long":"127.21930566","imageIndex":17,"items":[{"name":"더우개종합건축","tel":"031-795-7601","addr":"경기도 하남시 신장동 97-32번지 동일 상가 105호","indutype":"건축자재 - 인테리어전문","category":"other"}]},{"lat":"37.539543413","long":"127.21575789","imageIndex":17,"items":[{"name":"더존 세무회계사무소","tel":"031-796-0051","addr":"경기도 하남시 신장동 526-4번지","indutype":"용역 서비스 - 법률회계서비스(개인)","category":"other"},{"name":"주식회사 신풍이지건축사사무소","tel":"031-792-3612","addr":"경기도 하남시 신장동 526-4번지","indutype":"용역 서비스 - 법률회계서비스(법인)","category":"other"}]},{"lat":"37.539350669","long":"127.20756549","imageIndex":17,"items":[{"name":"동부수예사","tel":"031-795-5876","addr":"경기도 하남시 신장동 427-336번지 1층","indutype":"직물 - 침구·수예점","category":"other"}]},{"lat":"37.539017796","long":"127.20728171","imageIndex":17,"items":[{"name":"동부유리","tel":"031-792-2244","addr":"경기도 하남시 신장동 427-428번지","indutype":"건축자재 - 유리","category":"other"}]},{"lat":"37.539045744","long":"127.20675","imageIndex":17,"items":[{"name":"동부음향","tel":"031-793-6113","addr":"경기도 하남시 신장동 427-301번지 1층","indutype":"전기제품 - 가전제품","category":"other"}]},{"lat":"37.538400774","long":"127.20978055","imageIndex":17,"items":[{"name":"동서종합공사","tel":"070-4686-9412","addr":"경기도 하남시 신장동 450-17번지 1층 우측호","indutype":"건축자재 - 인테리어전문","category":"other"}]},{"lat":"37.538517703","long":"127.20989402","imageIndex":17,"items":[{"name":"동안 에스테틱","tel":"02-796-5561","addr":"경기도 하남시 신장동 450-12번지 1층","indutype":"회원제형태 - 기타4","category":"other"}]},{"lat":"37.536845705","long":"127.20769441","imageIndex":17,"items":[{"name":"동양당","tel":"031-792-3807","addr":"경기도 하남시 신장동 432-12번지","indutype":"신변잡화 - 시계","category":"other"}]},{"lat":"37.536680732","long":"127.21439204","imageIndex":17,"items":[{"name":"드림데코","tel":"031-401-3334","addr":"경기도 하남시 신장동 533-1번지 202호","indutype":"직물 - 카페트,커튼,천막,지물","category":"other"}]},{"lat":"37.541124128","long":"127.20841896","imageIndex":17,"items":[{"name":"드림랩스터디센터","tel":"070-8843-7669","addr":"경기도 하남시 신장동 564-1번지 심산빌딩 4층","indutype":"용역 서비스 - 사무서비스","category":"other"},{"name":"비엔비인터내셔날","tel":"","addr":"경기도 하남시 신장동 564-1번지 심산빌딩 1층","indutype":"의류 - 정장","category":"other"}]},{"lat":"37.539985091","long":"127.21058828","imageIndex":17,"items":[{"name":"디스토리스튜디오","tel":"031-792-6330","addr":"경기도 하남시 신장동 407-12번지","indutype":"광학제품 - 사진관","category":"other"},{"name":"할인24","tel":"031-796-1211","addr":"경기도 하남시 신장동 407-12번지 1층 3호","indutype":"유통업 영리 - 편 의 점","category":"other"}]},{"lat":"37.538793508","long":"127.20672668","imageIndex":17,"items":[{"name":"디오스컴","tel":"031-793-3479","addr":"경기도 하남시 신장동 427-315번지","indutype":"사무통신 - 컴퓨터","category":"other"}]},{"lat":"37.540434383","long":"127.21631485","imageIndex":17,"items":[{"name":"디즈니포토","tel":"031-796-4411","addr":"경기도 하남시 신장동 524-6번지","indutype":"광학제품 - 사진관","category":"other"},{"name":"씨유하남시청점","tel":"031-794-9590","addr":"경기도 하남시 신장동 524-6번지","indutype":"유통업 영리 - 편 의 점","category":"other"}]},{"lat":"37.539567061","long":"127.20747556","imageIndex":17,"items":[{"name":"땡스명품구제","tel":"031-699-8168","addr":"경기도 하남시 신장동 427-374번지 상가 1층","indutype":"의류 - 정장","category":"other"},{"name":"미래공간","tel":"031-796-2308","addr":"경기도 하남시 신장동 427-374","indutype":"건축자재 - 기타건축자재","category":"other"}]},{"lat":"37.538211735","long":"127.2044735","imageIndex":17,"items":[{"name":"랄라블라 하남점","tel":"02-2006-3506","addr":"경기도 하남시 신장동 427-78번지 1층","indutype":"유통업 영리 - 편 의 점","category":"other"},{"name":"주식회사 다르지오 하남점","tel":"070-4740-0215","addr":"경기도 하남시 신장동 427-78번지 B1층","indutype":"신변잡화 - 기타잡화","category":"other"}]},{"lat":"37.54135014","long":"127.20797829","imageIndex":17,"items":[{"name":"러브레터","tel":"031-791-9895","addr":"경기도 하남시 신장동 564-5번지 주원빌딩 1층 103호","indutype":"의류 - 정장","category":"other"}]},{"lat":"37.540567111","long":"127.20750092","imageIndex":17,"items":[{"name":"러브줄리아","tel":"070-4465-7760","addr":"경기도 하남시 신장동 425-11번지 1층","indutype":"의류 - 정장","category":"other"}]},{"lat":"37.545204699","long":"127.21403138","imageIndex":17,"items":[{"name":"러블리유나(Lovely yuna)","tel":"","addr":"경기도 하남시 신장동 593번지 하남유시티대명루첸리버파크 104동 201호","indutype":"신변잡화 - 기타잡화","category":"other"}]},{"lat":"37.541404241","long":"127.22297086","imageIndex":17,"items":[{"name":"럭키유통슈퍼","tel":"031-793-8881","addr":"경기도 하남시 신장동 82-11번지","indutype":"유통업 영리 - 기타유통업","category":"other"}]},{"lat":"37.540348555","long":"127.20883548","imageIndex":17,"items":[{"name":"레오파드","tel":"070-7642-0121","addr":"경기도 하남시 신장동 406-2번지 107호","indutype":"의류 - 정장","category":"other"},{"name":"말글종합광고","tel":"031-793-2000","addr":"경기도 하남시 신장동 406-2번지","indutype":"유통업 영리 - 기타유통업","category":"other"},{"name":"홍익광고","tel":"031-793-9373","addr":"경기도 하남시 신장동 406-2번지","indutype":"용역 서비스 - 종합용역","category":"other"}]},{"lat":"37.538399742","long":"127.2103689","imageIndex":17,"items":[{"name":"렛츠컴퓨터","tel":"031-793-7174","addr":"경기도 하남시 신장동 450-33번지","indutype":"사무통신 - 컴퓨터","category":"other"},{"name":"하나정보","tel":"070-7642-0121","addr":"경기도 하남시 신장동 450-33번지","indutype":"사무통신 - 컴퓨터","category":"other"}]},{"lat":"37.546429039","long":"127.21458931","imageIndex":17,"items":[{"name":"루트231","tel":"031-1577-9291","addr":"경기도 하남시 신장동 231-1번지 K빌딩 2층 202호","indutype":"문화.취미 - 애완동물","category":"other"},{"name":"루트231","tel":"031-1577-9291","addr":"경기도 하남시 신장동 231-1번지 K 빌딩 102호","indutype":"문화.취미 - 애완동물","category":"other"},{"name":"펫호텔231","tel":"031-1577-9291","addr":"경기도 하남시 신장동 231-1번지 K빌딩 201호","indutype":"문화.취미 - 애완동물","category":"other"}]},{"lat":"37.545960766","long":"127.22428556","imageIndex":17,"items":[{"name":"룰루레몬 스타필드하남지점","tel":"031-8028-6518","addr":"경기도 하남시 신장동 616번지 스타필드 하남 1층 1275호","indutype":"의류 - 정장","category":"other"},{"name":"메가박스중앙(주)하남스타필드지점","tel":"02-3147-3756","addr":"경기도 하남시 신장동 616번지 3층","indutype":"문화.취미 - 영화관","category":"other"},{"name":"한샘인테리어 강동대리점","tel":"031-8072-8508","addr":"경기도 하남시 신장동 616번지 B1","indutype":"가구 - 일반가구","category":"other"}]},{"lat":"37.547316356","long":"127.21214758","imageIndex":17,"items":[{"name":"리사이클시티 신장점","tel":"031-794-8425","addr":"경기도 하남시 신장동 303-101번지 1,2층","indutype":"가구 - 일반가구","category":"other"}]},{"lat":"37.540399956","long":"127.21542088","imageIndex":17,"items":[{"name":"리우텔레콤","tel":"031-795-9735","addr":"경기도 하남시 신장동 524-2번지 우신빌딩 1층","indutype":"사무통신 - 통신기기","category":"other"},{"name":"세윤플라워","tel":"031-794-0779","addr":"경기도 하남시 신장동 524-2번지","indutype":"문화.취미 - 화원","category":"other"}]},{"lat":"37.538985574","long":"127.20506395","imageIndex":17,"items":[{"name":"마드모아젤하남점","tel":"031-791-4378","addr":"경기도 하남시 신장동 427-415번지 1층","indutype":"레져용품 - 스포츠·레져용품","category":"other"},{"name":"아트텔레콤","tel":"031-794-0088","addr":"경기도 하남시 신장동 427-415번지","indutype":"사무통신 - 통신기기","category":"other"}]},{"lat":"37.537510976","long":"127.2085335","imageIndex":17,"items":[{"name":"마루전기","tel":"070-8804-9075","addr":"경기도 하남시 신장동 441-8번지 지하","indutype":"전기제품 - 기타전기제품","category":"other"}]},{"lat":"37.537344506","long":"127.20580627","imageIndex":17,"items":[{"name":"마코","tel":"031-794-8786","addr":"경기도 하남시 신장동 427-3번지 1층","indutype":"의류 - 스포츠의류","category":"other"},{"name":"제일종묘","tel":"031-792-4339","addr":"경기도 하남시 신장동 427-3번지","indutype":"농업 - 비료,사료,종자","category":"other"}]},{"lat":"37.541456801","long":"127.2088159","imageIndex":17,"items":[{"name":"맘스채널","tel":"031-796-0233","addr":"경기도 하남시 신장동 563-3번지 국보빌딩 5층","indutype":"서적문구 - 일반서적","category":"other"}]},{"lat":"37.543181443","long":"127.22175403","imageIndex":17,"items":[{"name":"멜랑바니","tel":"","addr":"경기도 하남시 신장동 73-3번지 4층","indutype":"신변잡화 - 기타잡화","category":"other"}]},{"lat":"37.537596781","long":"127.20580695","imageIndex":17,"items":[{"name":"명랑사","tel":"031-792-2532","addr":"경기도 하남시 신장동 427-51번지","indutype":"신변잡화 - 귀금속","category":"other"},{"name":"행텐하남","tel":"031-791-2828","addr":"경기도 하남시 신장동 427-51번지 1층","indutype":"레져용품 - 스포츠·레져용품","category":"other"}]},{"lat":"37.540350051","long":"127.20797555","imageIndex":17,"items":[{"name":"명성대박피씨(PC)","tel":"031-794-0556","addr":"경기도 하남시 신장동 411-10번지 101호","indutype":"사무통신 - 컴퓨터","category":"other"},{"name":"성신기업","tel":"031-794-3054","addr":"경기도 하남시 신장동 411-10번지","indutype":"직물 - 카페트,커튼,천막,지물","category":"other"},{"name":"세븐일레븐하남신장타운점","tel":"031-1577-0711","addr":"경기도 하남시 신장동 411-10번지","indutype":"유통업 영리 - 편 의 점","category":"other"}]},{"lat":"37.538039252","long":"127.20523111","imageIndex":17,"items":[{"name":"명성커텐","tel":"031-793-9604","addr":"경기도 하남시 신장동 427-159번지 신장시장 26호","indutype":"직물 - 카페트,커튼,천막,지물","category":"other"},{"name":"좋은사람들","tel":"031-796-6012","addr":"경기도 하남시 신장동 427-159번지 신장시장 1층 24호","indutype":"의류 - 정장","category":"other"},{"name":"최고숙녀화","tel":"031-791-7161","addr":"경기도 하남시 신장동 427-159번지","indutype":"신변잡화 - 신발","category":"other"}]},{"lat":"37.538261343","long":"127.20706467","imageIndex":17,"items":[{"name":"명품갤러리","tel":"","addr":"경기도 하남시 신장동 428-32번지","indutype":"의류 - 정장","category":"other"},{"name":"부국전력공사","tel":"031-791-2082","addr":"경기도 하남시 신장동 428-32번지","indutype":"용역 서비스 - 기타용역서비스","category":"other"},{"name":"엄마옷수선판매","tel":"031-1111-1111","addr":"경기도 하남시 신장동 428-32번지","indutype":"의류 - 정장","category":"other"}]},{"lat":"37.539904315","long":"127.21547605","imageIndex":17,"items":[{"name":"모임건축사사무소","tel":"031-791-4365","addr":"경기도 하남시 신장동 525번지 국제주타빌딩 2층 205호","indutype":"용역 서비스 - 사무서비스","category":"other"},{"name":"최경선변호사사무소","tel":"031-795-2740","addr":"경기도 하남시 신장동 525번지 국제주차빌딩 201호","indutype":"용역 서비스 - 법률회계서비스(개인)","category":"other"},{"name":"현대카피","tel":"031-794-8032","addr":"경기도 하남시 신장동 525번지 국제주차빌딩 3층 302호","indutype":"용역 서비스 - 사무서비스","category":"other"}]},{"lat":"37.538621599","long":"127.20714485","imageIndex":17,"items":[{"name":"문화전파사","tel":"031-794-3800","addr":"경기도 하남시 신장동 428-27번지","indutype":"수리서비스 - 가정용품수리","category":"other"}]},{"lat":"37.538654058","long":"127.2092042","imageIndex":17,"items":[{"name":"미라손상회","tel":"070-8741-5714","addr":"경기도 하남시 신장동 446-35번지 2층 바호","indutype":"신변잡화 - 기타잡화","category":"other"},{"name":"제니패션","tel":"070-2699-0807","addr":"경기도 하남시 신장동 446-35번지 102호","indutype":"의류 - 내의판매","category":"other"}]},{"lat":"37.536067113","long":"127.20984198","imageIndex":17,"items":[{"name":"미소스킨케어","tel":"031-792-0077","addr":"경기도 하남시 신장동 475-4번지","indutype":"회원제형태 - 기타4","category":"other"},{"name":"유로휠 하남점","tel":"031-794-1659","addr":"경기도 하남시 신장동 475-4번지 1층","indutype":"레져용품 - 스포츠·레져용품","category":"other"},{"name":"하남경동나비엔","tel":"031-794-3364","addr":"경기도 하남시 신장동 475-4 1층및지층","indutype":"건축자재 - 보일러·펌프·샷시","category":"other"}]},{"lat":"37.539153178","long":"127.2071463","imageIndex":17,"items":[{"name":"미조사","tel":"031-791-0873","addr":"경기도 하남시 신장동 427-68번지","indutype":"수리서비스 - 세탁소","category":"other"}]},{"lat":"37.542069498","long":"127.21888805","imageIndex":17,"items":[{"name":"민지네 뜨개방","tel":"02-1577-0000","addr":"경기도 하남시 신장동 527-4번지 현대베스코아빌딩 2층 229호","indutype":"직물 - 침구·수예점","category":"other"}]},{"lat":"37.539934281","long":"127.20873251","imageIndex":17,"items":[{"name":"바로고","tel":"031-826-6652","addr":"경기도 하남시 신장동 411-3번지","indutype":"용역 서비스 - 종합용역","category":"other"}]},{"lat":"37.541070773","long":"127.22302645","imageIndex":17,"items":[{"name":"발리골프아카데미","tel":"031-796-4007","addr":"경기도 하남시 신장동 81-4번지 지하1층","indutype":"회원제형태 - 레져업소","category":"other"},{"name":"하우스터디 하남신장센터 모임공간","tel":"031-796-1995","addr":"경기도 하남시 신장동 81-4번지 5층 일부","indutype":"용역 서비스 - 사무서비스","category":"other"}]},{"lat":"37.53859539","long":"127.20666957","imageIndex":17,"items":[{"name":"백조씽크","tel":"031-794-7926","addr":"경기도 하남시 신장동 427-367번지 1층","indutype":"주방용구 - 주방용구","category":"other"}]},{"lat":"37.541042796","long":"127.21366888","imageIndex":17,"items":[{"name":"벌툰 하남시청점","tel":"031-793-7721","addr":"경기도 하남시 신장동 148-1번지 오피스텔트레벨 1동 215호,216호","indutype":"서적문구 - 일반서적","category":"other"},{"name":"축복도장","tel":"031-792-5105","addr":"경기도 하남시 신장동 148-1번지","indutype":"건축자재 - 목재·석재·철물","category":"other"}]},{"lat":"37.540676618","long":"127.20669786","imageIndex":17,"items":[{"name":"범채널","tel":"031-793-3081","addr":"경기도 하남시 신장동 415-44번지 신장동주차빌딩 8층 804호","indutype":"건축자재 - 인테리어전문","category":"other"}]},{"lat":"37.539543809","long":"127.2104739","imageIndex":17,"items":[{"name":"법무사안준형사무소","tel":"031-793-2003","addr":"경기도 하남시 신장동 407-16번지","indutype":"용역 서비스 - 법률회계서비스(개인)","category":"other"},{"name":"양지표구사","tel":"031-794-2291","addr":"경기도 하남시 신장동 407-16번지 1층","indutype":"문화.취미 - 화방·표구점","category":"other"}]},{"lat":"37.539683484","long":"127.2130088","imageIndex":17,"items":[{"name":"법무사이득규","tel":"031-795-1188","addr":"경기도 하남시 신장동 519-6번지 우성빌딩 403호","indutype":"용역 서비스 - 법률회계서비스(개인)","category":"other"},{"name":"이철규세무회계사무소","tel":"031-793-0111","addr":"경기도 하남시 신장동 519-6번지 우성빌딩 402호","indutype":"용역 서비스 - 법률회계서비스(개인)","category":"other"}]},{"lat":"37.540346853","long":"127.21488893","imageIndex":17,"items":[{"name":"법무사전준근사무소","tel":"031-8027-3931","addr":"경기도 하남시 신장동 524번지 하남리빙텔 906호","indutype":"용역 서비스 - 법률회계서비스(개인)","category":"other"},{"name":"법무사함종철사무소","tel":"031-792-3006","addr":"경기도 하남시 신장동 524번지 하남리빙텔 202호","indutype":"용역 서비스 - 법률회계서비스(개인)","category":"other"},{"name":"슬로코스터","tel":"031-805-4959","addr":"경기도 하남시 신장동 524번지","indutype":"회원제형태 - 기타4","category":"other"},{"name":"슬림&슬림","tel":"031-796-4050","addr":"경기도 하남시 신장동 524번지 하남리빙텔 306호","indutype":"회원제형태 - 기타4","category":"other"},{"name":"씨제이올리브네트웍스(주)하남시청점","tel":"031-791-6972","addr":"경기도 하남시 신장동 524번지","indutype":"유통업 영리 - 편 의 점","category":"other"},{"name":"알파 하남점","tel":"031-795-6064","addr":"경기도 하남시 신장동 524번지 하남리빙텔 101호","indutype":"서적문구 - 문구용품","category":"other"},{"name":"한마음기획","tel":"031-795-4800","addr":"경기도 하남시 신장동 524번지 하남리빙텔 101호","indutype":"서적문구 - 출판 및 인쇄물","category":"other"}]},{"lat":"37.537544139","long":"127.20498085","imageIndex":17,"items":[{"name":"베네라인(BENELINE)","tel":"031-791-5949","addr":"경기도 하남시 신장동 427-70번지","indutype":"의류 - 정장","category":"other"},{"name":"제시뉴욕(하남점)","tel":"031-794-2663","addr":"경기도 하남시 신장동 427-70번지 1층","indutype":"의류 - 스포츠의류","category":"other"}]},{"lat":"37.537625382","long":"127.20489056","imageIndex":17,"items":[{"name":"베스띠벨리하남점","tel":"031-786-9503","addr":"경기도 하남시 신장동 427-71번지","indutype":"의류 - 스포츠의류","category":"other"},{"name":"크로커다일","tel":"031-792-9234","addr":"경기도 하남시 신장동 427-71번지","indutype":"의류 - 스포츠의류","category":"other"}]},{"lat":"37.539539639","long":"127.20770178","imageIndex":17,"items":[{"name":"별이맘이야기","tel":"031-793-8813","addr":"경기도 하남시 신장동 427-366번지","indutype":"의류 - 아동의류","category":"other"}]},{"lat":"37.537986007","long":"127.20475576","imageIndex":17,"items":[{"name":"보광당","tel":"031-792-2413","addr":"경기도 하남시 신장동 427-169번지","indutype":"신변잡화 - 시계","category":"other"},{"name":"블라썸","tel":"031-791-2742","addr":"경기도 하남시 신장동 427-169번지","indutype":"신변잡화 - 액세서리","category":"other"}]},{"lat":"37.538127504","long":"127.20630623","imageIndex":17,"items":[{"name":"보배가방","tel":"031-791-3522","addr":"경기도 하남시 신장동 427-452번지","indutype":"레져용품 - 스포츠·레져용품","category":"other"}]},{"lat":"37.538318653","long":"127.20517529","imageIndex":17,"items":[{"name":"부흥상회","tel":"031-792-1345","addr":"경기도 하남시 신장동 427-157번지","indutype":"직물 - 침구·수예점","category":"other"}]},{"lat":"37.537206711","long":"127.21248139","imageIndex":17,"items":[{"name":"브라잇라잇","tel":"031-0000-0000","addr":"경기도 하남시 신장동 467-8번지 1층 102호","indutype":"의류 - 정장","category":"other"},{"name":"삼팔오도씨","tel":"","addr":"경기도 하남시 신장동 467-8번지 1층 101호","indutype":"문화.취미 - 애완동물","category":"other"}]},{"lat":"37.539461813","long":"127.205812","imageIndex":17,"items":[{"name":"산곡지물","tel":"031-791-8437","addr":"경기도 하남시 신장동 427-125번지","indutype":"직물 - 카페트,커튼,천막,지물","category":"other"}]},{"lat":"37.536484497","long":"127.21328268","imageIndex":17,"items":[{"name":"삼미건축사사무소","tel":"031-795-6725","addr":"경기도 하남시 신장동 470-3번지","indutype":"용역 서비스 - 법률회계서비스(개인)","category":"other"},{"name":"희망 에이디(ad)","tel":"070-8741-5724","addr":"경기도 하남시 신장동 470-3번지 1층 2호","indutype":"용역 서비스 - 종합용역","category":"other"}]},{"lat":"37.538455269","long":"127.20953178","imageIndex":17,"items":[{"name":"삼보전기","tel":"031-793-0485","addr":"경기도 하남시 신장동 446-18번지","indutype":"전기제품 - 기타전기제품","category":"other"},{"name":"원일ENG","tel":"070-8260-3322","addr":"경기도 하남시 신장동 446-18번지 지하1층","indutype":"전기제품 - 냉열기기","category":"other"}]},{"lat":"37.536678843","long":"127.21544426","imageIndex":17,"items":[{"name":"새하남로터리클럽","tel":"031-793-2222","addr":"경기도 하남시 신장동 531-6번지","indutype":"회원제형태 - 기타4","category":"other"}]},{"lat":"37.537732395","long":"127.20553577","imageIndex":17,"items":[{"name":"샤트렌","tel":"031-792-1010","addr":"경기도 하남시 신장동 430-20번지","indutype":"의류 - 정장","category":"other"}]},{"lat":"37.540042162","long":"127.20886858","imageIndex":17,"items":[{"name":"서비스뱅크","tel":"031-423-2654","addr":"경기도 하남시 신장동 411-25번지","indutype":"사무통신 - 사무용 OA기기","category":"other"},{"name":"오지스하이텍(주)","tel":"031-795-3130","addr":"경기도 하남시 신장동 411-25번지","indutype":"가구 - 일반가구","category":"other"}]},{"lat":"37.538985539","long":"127.21028001","imageIndex":17,"items":[{"name":"서울 유리 샷시","tel":"031-792-0478","addr":"경기도 하남시 신장동 449-1번지","indutype":"수리서비스 - 기타수리서비스","category":"other"}]},{"lat":"37.538905324","long":"127.20978194","imageIndex":17,"items":[{"name":"서울스포츠스태킹총판","tel":"","addr":"경기도 하남시 신장동 446-13번지 101호","indutype":"레져용품 - 스포츠·레져용품","category":"other"}]},{"lat":"37.536211715","long":"127.21467357","imageIndex":17,"items":[{"name":"성동 전산","tel":"02-1111-1111","addr":"경기도 하남시 신장동 533-5번지 202호","indutype":"사무통신 - 사무용 OA기기","category":"other"}]},{"lat":"37.536879125","long":"127.20919931","imageIndex":17,"items":[{"name":"성창종합공사","tel":"031-794-1324","addr":"경기도 하남시 신장동 436-13번지","indutype":"건축자재 - 목재·석재·철물","category":"other"}]},{"lat":"37.537239043","long":"127.20947185","imageIndex":17,"items":[{"name":"세븐라인서울ENG","tel":"02-1899-1727","addr":"경기도 하남시 신장동 437-8번지 102호","indutype":"주방용구 - 주방용구","category":"other"},{"name":"정광타이루","tel":"031-791-4249","addr":"경기도 하남시 신장동 437-8번지","indutype":"건축자재 - 기타건축자재","category":"other"}]},{"lat":"37.552316932","long":"127.21208234","imageIndex":17,"items":[{"name":"세븐일레븐미사한가람점","tel":"031-1577-0711","addr":"경기도 하남시 신장동 287-9번지 103호","indutype":"유통업 영리 - 편 의 점","category":"other"}]},{"lat":"37.543317025","long":"127.21155932","imageIndex":17,"items":[{"name":"세븐일레븐하남덕풍프라자점","tel":"","addr":"경기도 하남시 신장동 589-3번지 덕풍프라자 103호","indutype":"유통업 영리 - 편 의 점","category":"other"}]},{"lat":"37.537710647","long":"127.20769678","imageIndex":17,"items":[{"name":"세븐일레븐하남신장시장점","tel":"","addr":"경기도 하남시 신장동 430-99번지 1층","indutype":"유통업 영리 - 편 의 점","category":"other"}]},{"lat":"37.539156528","long":"127.20520018","imageIndex":17,"items":[{"name":"세븐일레븐하남신장중앙점","tel":"031-1577-0711","addr":"경기도 하남시 신장동 427-288번지 1층","indutype":"유통업 영리 - 편 의 점","category":"other"}]},{"lat":"37.540794059","long":"127.21167675","imageIndex":17,"items":[{"name":"소극장 하남 단막극장","tel":"031-792-9119","addr":"경기도 하남시 신장동 387-17번지","indutype":"문화.취미 - 티켓","category":"other"},{"name":"화이트 운동화 빨래방","tel":"031-792-5252","addr":"경기도 하남시 신장동 387-17번지 1층","indutype":"수리서비스 - 세탁소","category":"other"}]},{"lat":"37.54207253","long":"127.21220081","imageIndex":17,"items":[{"name":"소나기","tel":"031-791-2510","addr":"경기도 하남시 신장동 381-8번지 동아아파트 가동 202호","indutype":"주방용구 - 주방용구","category":"other"}]},{"lat":"37.537458843","long":"127.20742454","imageIndex":17,"items":[{"name":"손일영행정사사무소","tel":"031-791-6707","addr":"경기도 하남시 신장동 432-52번지","indutype":"용역 서비스 - 법률회계서비스(개인)","category":"other"}]},{"lat":"37.53839846","long":"127.20592227","imageIndex":17,"items":[{"name":"솜씨공방","tel":"","addr":"경기도 하남시 신장동 427-464번지 3호","indutype":"문화.취미 - 문화취미기타","category":"other"}]},{"lat":"37.538622454","long":"127.21180647","imageIndex":17,"items":[{"name":"스쿨룩스 하남점","tel":"02-796-3060","addr":"경기도 하남시 신장동 455-27번지 2층","indutype":"의류 - 단체복","category":"other"}]},{"lat":"37.540712249","long":"127.21208386","imageIndex":17,"items":[{"name":"스포츠월드","tel":"031-791-6008","addr":"경기도 하남시 신장동 388-1번지 지앤지빌 C동 102호","indutype":"레져용품 - 스포츠·레져용품","category":"other"}]},{"lat":"37.541986356","long":"127.22000801","imageIndex":17,"items":[{"name":"신성공조","tel":"070-8623-8204","addr":"경기도 하남시 신장동 95-4번지","indutype":"용역 서비스 - 기타용역서비스","category":"other"}]},{"lat":"37.537543945","long":"127.205094","imageIndex":17,"items":[{"name":"신세계","tel":"031-794-0874","addr":"경기도 하남시 신장동 430-5번지 2층","indutype":"회원제형태 - 레져업소","category":"other"},{"name":"신장지물인테리어","tel":"031-792-3804","addr":"경기도 하남시 신장동 430-5번지","indutype":"직물 - 카페트,커튼,천막,지물","category":"other"},{"name":"여성크로커다일아날도바시니","tel":"031-794-2441","addr":"경기도 하남시 신장동 430-5번지","indutype":"의류 - 스포츠의류","category":"other"}]},{"lat":"37.536765518","long":"127.20717373","imageIndex":17,"items":[{"name":"신용종합광고","tel":"031-794-2800","addr":"경기도 하남시 신장동 432-5번지","indutype":"용역 서비스 - 종합용역","category":"other"}]},{"lat":"37.538623044","long":"127.20630757","imageIndex":17,"items":[{"name":"신장가구","tel":"031-791-4551","addr":"경기도 하남시 신장동 427-254번지","indutype":"가구 - 일반가구","category":"other"}]},{"lat":"37.53856879","long":"127.20642057","imageIndex":17,"items":[{"name":"신장가구","tel":"031-791-4551","addr":"경기도 하남시 신장동 427-255번지","indutype":"가구 - 일반가구","category":"other"}]},{"lat":"37.540038811","long":"127.21078078","imageIndex":17,"items":[{"name":"신장타일","tel":"031-791-2144","addr":"경기도 하남시 신장동 407-10번지","indutype":"건축자재 - 건축용 요업제품","category":"other"}]},{"lat":"37.539156188","long":"127.21058598","imageIndex":17,"items":[{"name":"신태양부동산중개사무소","tel":"031-792-4982","addr":"경기도 하남시 신장동 448-6번지","indutype":"용역 서비스 - 부동산 중개·임대","category":"other"}]},{"lat":"37.537236136","long":"127.20595306","imageIndex":17,"items":[{"name":"신하남 제일아가방","tel":"031-792-8229","addr":"경기도 하남시 신장동 427-88번지","indutype":"의류 - 아동의류","category":"other"}]},{"lat":"37.541259374","long":"127.21347714","imageIndex":17,"items":[{"name":"심기숙세무회계사무소","tel":"031-796-5533","addr":"경기도 하남시 신장동 149-2번지","indutype":"용역 서비스 - 법률회계서비스(개인)","category":"other"}]},{"lat":"37.537845784","long":"127.21283393","imageIndex":17,"items":[{"name":"쌍용건축사사무소","tel":"031-795-0819","addr":"경기도 하남시 신장동 465-8","indutype":"용역 서비스 - 사무서비스","category":"other"}]},{"lat":"37.538927795","long":"127.20722489","imageIndex":17,"items":[{"name":"써니플라워","tel":"031-793-3167","addr":"경기도 하남시 신장동 427-358번지","indutype":"문화.취미 - 화원","category":"other"},{"name":"형제칼라","tel":"031-793-3167","addr":"경기도 하남시 신장동 427-358번지","indutype":"광학제품 - 사진관","category":"other"}]},{"lat":"37.537931907","long":"127.20998291","imageIndex":17,"items":[{"name":"씨유신장새싹1호점","tel":"031-792-6898","addr":"경기도 하남시 신장동 450-25번지 1층","indutype":"유통업 영리 - 편 의 점","category":"other"}]},{"lat":"37.539542804","long":"127.2058688","imageIndex":17,"items":[{"name":"씨유신장새싹2호점","tel":"031-791-0662","addr":"경기도 하남시 신장동 427-34번지","indutype":"유통업 영리 - 편 의 점","category":"other"}]},{"lat":"37.546259997","long":"127.21338936","imageIndex":17,"items":[{"name":"씨유하남유니온점","tel":"080-080-3663","addr":"경기도 하남시 신장동 332-5번지 106호, 107호","indutype":"유통업 영리 - 편 의 점","category":"other"}]},{"lat":"37.540934193","long":"127.20883709","imageIndex":17,"items":[{"name":"아가페","tel":"031-796-8222","addr":"경기도 하남시 신장동 565-13번지 1층","indutype":"레져용품 - 스포츠·레져용품","category":"other"}]},{"lat":"37.538766245","long":"127.20686238","imageIndex":17,"items":[{"name":"아싸라비아","tel":"031-111-1111","addr":"경기도 하남시 신장동 427-317번지","indutype":"의류 - 기타의류","category":"other"}]},{"lat":"37.536874164","long":"127.20686854","imageIndex":17,"items":[{"name":"안디옥서적","tel":"031-793-7500","addr":"경기도 하남시 신장동 432-44번지","indutype":"서적문구 - 일반서적","category":"other"}]},{"lat":"37.53829143","long":"127.20528836","imageIndex":17,"items":[{"name":"안성신발","tel":"031-791-7060","addr":"경기도 하남시 신장동 427-158번지","indutype":"신변잡화 - 신발","category":"other"}]},{"lat":"37.540762096","long":"127.21444882","imageIndex":17,"items":[{"name":"안칠권세무사","tel":"031-792-1800","addr":"경기도 하남시 신장동 522-7번지","indutype":"용역 서비스 - 법률회계서비스(개인)","category":"other"},{"name":"중앙세무회계사무소","tel":"031-795-3300","addr":"경기도 하남시 신장동 522-7번지","indutype":"용역 서비스 - 법률회계서비스(개인)","category":"other"},{"name":"하남종합건축사사무소","tel":"031-792-4557","addr":"경기도 하남시 신장동 522-7번지","indutype":"용역 서비스 - 법률회계서비스(개인)","category":"other"}]},{"lat":"37.539372569","long":"127.20531392","imageIndex":17,"items":[{"name":"알뜰매장센타","tel":"031-791-2421","addr":"경기도 하남시 신장동 427-279번지","indutype":"신변잡화 - 기타잡화","category":"other"}]},{"lat":"37.538849767","long":"127.20544828","imageIndex":17,"items":[{"name":"알앤비문구","tel":"031-796-0512","addr":"경기도 하남시 신장동 427-394번지 태산빌딩 지하1층","indutype":"서적문구 - 문구용품","category":"other"}]},{"lat":"37.537181648","long":"127.20620183","imageIndex":17,"items":[{"name":"알파","tel":"031-791-4432","addr":"경기도 하남시 신장동 430-25번지","indutype":"서적문구 - 문구용품","category":"other"}]},{"lat":"37.538427308","long":"127.21006348","imageIndex":17,"items":[{"name":"애드인","tel":"031-791-7913","addr":"경기도 하남시 신장동 450-14번지","indutype":"용역 서비스 - 종합용역","category":"other"}]},{"lat":"37.53946","long":"127.20686427","imageIndex":17,"items":[{"name":"애플닥터","tel":"","addr":"경기도 하남시 신장동 427-28번지 101호","indutype":"수리서비스 - 사무·통신기기수리","category":"other"}]},{"lat":"37.540346616","long":"127.20994433","imageIndex":17,"items":[{"name":"얼짱몸짱하남점","tel":"031-795-5377","addr":"경기도 하남시 신장동 565-3번지 보문빌딩 5층","indutype":"회원제형태 - 기타4","category":"other"},{"name":"하남여성회 부설 장난감도서관","tel":"031-791-1361","addr":"경기도 하남시 신장동 565-3번지 보문빌딩 지층","indutype":"서적문구 - 완구점","category":"other"}]},{"lat":"37.541427734","long":"127.20998127","imageIndex":17,"items":[{"name":"에스비샵","tel":"","addr":"경기도 하남시 신장동 562번지 에코타운 103동 205호","indutype":"신변잡화 - 액세서리","category":"other"}]},{"lat":"37.536210297","long":"127.21039678","imageIndex":17,"items":[{"name":"에스엔(SN)에너지","tel":"031-794-8597","addr":"경기도 하남시 신장동 472-31번지 201호","indutype":"건축자재 - 보일러·펌프·샷시","category":"other"},{"name":"이건에너텍","tel":"070-7534-8048","addr":"경기도 하남시 신장동 472-31번지","indutype":"건축자재 - 기타건축자재","category":"other"}]},{"lat":"37.540678809","long":"127.22061522","imageIndex":17,"items":[{"name":"에쓰제이 쓰리디(SJ 3D)","tel":"031-792-2475","addr":"경기도 하남시 신장동 99-30번지","indutype":"사무통신 - 컴퓨터","category":"other"}]},{"lat":"37.53690419","long":"127.21538833","imageIndex":17,"items":[{"name":"에어웨이","tel":"070-8177-5680","addr":"경기도 하남시 신장동 531-20번지","indutype":"용역 서비스 - 종합용역","category":"other"}]},{"lat":"37.537849845","long":"127.2105371","imageIndex":17,"items":[{"name":"에어케어(AIRCARE)","tel":"031-1588-3731","addr":"경기도 하남시 신장동 451-1번지 1층","indutype":"용역 서비스 - 종합용역","category":"other"},{"name":"태양성보수센터","tel":"031-792-6158","addr":"경기도 하남시 신장동 451-1번지","indutype":"용역 서비스 - 기타용역서비스","category":"other"}]},{"lat":"37.537795948","long":"127.20525308","imageIndex":17,"items":[{"name":"에이스","tel":"031-791-9445","addr":"경기도 하남시 신장동 427-165번지 1층","indutype":"의류 - 정장","category":"other"},{"name":"이즐리","tel":"","addr":"경기도 하남시 신장동 427-165번지","indutype":"의류 - 정장","category":"other"},{"name":"임씨네","tel":"031-793-4074","addr":"경기도 하남시 신장동 427-165번지 1층","indutype":"의류 - 정장","category":"other"},{"name":"크리스탈(CRYATAL)","tel":"070-8153-7851","addr":"경기도 하남시 신장동 427-165번지","indutype":"의류 - 정장","category":"other"}]},{"lat":"37.537209872","long":"127.21575126","imageIndex":17,"items":[{"name":"에이스라이팅","tel":"031-794-1033","addr":"경기도 하남시 신장동 531번지","indutype":"건축자재 - 조명기구","category":"other"}]},{"lat":"37.538564987","long":"127.2086156","imageIndex":17,"items":[{"name":"에이스컴퓨터","tel":"","addr":"경기도 하남시 신장동 430-65번지","indutype":"수리서비스 - 사무·통신기기수리","category":"other"}]},{"lat":"37.539371941","long":"127.21591581","imageIndex":17,"items":[{"name":"에이치사운드","tel":"031-792-6790","addr":"경기도 하남시 신장동 526-3번지 성제빌딩 3층 101호 301 B","indutype":"용역 서비스 - 사무서비스","category":"other"},{"name":"튼튼영어","tel":"031-791-0502","addr":"경기도 하남시 신장동 526-3번지 성제빌딩 401호","indutype":"회원제형태 - 서적","category":"other"}]},{"lat":"37.53729151","long":"127.215446","imageIndex":17,"items":[{"name":"에이치엘이씨 (HLEC)","tel":"070-8819-3332","addr":"경기도 하남시 신장동 530-2번지","indutype":"용역 서비스 - 종합용역","category":"other"}]},{"lat":"37.536319041","long":"127.21511513","imageIndex":17,"items":[{"name":"에이플러스과학나라","tel":"031-795-0037","addr":"경기도 하남시 신장동 531-10번지 202호","indutype":"회원제형태 - 서적","category":"other"}]},{"lat":"37.538262142","long":"127.21176021","imageIndex":17,"items":[{"name":"엑스씨웍스(XC works)","tel":"031-757-2999","addr":"경기도 하남시 신장동 454-31번지 301호","indutype":"용역 서비스 - 종합용역","category":"other"}]},{"lat":"37.537205135","long":"127.2082498","imageIndex":17,"items":[{"name":"엔비(NB)","tel":"031-794-6772","addr":"경기도 하남시 신장동 440-3번지 허브오피스텔 304호","indutype":"직물 - 카페트,커튼,천막,지물","category":"other"}]},{"lat":"37.539018226","long":"127.20703279","imageIndex":17,"items":[{"name":"엘레강스갤러리가구","tel":"031-792-1700","addr":"경기도 하남시 신장동 427-298번지","indutype":"가구 - 일반가구","category":"other"},{"name":"제니패션","tel":"070-2699-0807","addr":"경기도 하남시 신장동 427-298번지 1층","indutype":"의류 - 내의판매","category":"other"}]},{"lat":"37.541156637","long":"127.21550223","imageIndex":17,"items":[{"name":"엘르뿌뽕하남점","tel":"031-796-4174","addr":"경기도 하남시 신장동 523번지 현대베스코아 213호","indutype":"의류 - 아동의류","category":"other"}]},{"lat":"37.537849522","long":"127.20553609","imageIndex":17,"items":[{"name":"연백그릇백화점","tel":"031-794-1402","addr":"경기도 하남시 신장동 427-163번지","indutype":"주방용구 - 주방용구","category":"other"}]},{"lat":"37.538212479","long":"127.20925956","imageIndex":17,"items":[{"name":"연세SM적응센타","tel":"031-794-7589","addr":"경기도 하남시 신장동 441-1번지 한솔빌리지 102호","indutype":"기타의료기관 - 기타의료기관 및 기타","category":"other"}]},{"lat":"37.536430802","long":"127.20795351","imageIndex":17,"items":[{"name":"연플라워","tel":"031-792-3849","addr":"경기도 하남시 신장동 434-8번지 1층","indutype":"문화.취미 - 화원","category":"other"},{"name":"잉크블루","tel":"031-796-5177","addr":"경기도 하남시 신장동 434-8번지 302호","indutype":"사무통신 - 기타 사무용품","category":"other"}]},{"lat":"37.540290548","long":"127.21108698","imageIndex":17,"items":[{"name":"영인테리어","tel":"031-791-2474","addr":"경기도 하남시 신장동 400-1번지","indutype":"직물 - 카페트,커튼,천막,지물","category":"other"}]},{"lat":"37.538093845","long":"127.21011913","imageIndex":17,"items":[{"name":"영풍상사","tel":"031-794-8292","addr":"경기도 하남시 신장동 450-29번지","indutype":"건축자재 - 건축용 요업제품","category":"other"}]},{"lat":"37.540070492","long":"127.20812188","imageIndex":17,"items":[{"name":"예들","tel":"031-794-7746","addr":"경기도 하남시 신장동 411-29번지 1층","indutype":"유통업 영리 - 통신판매업2","category":"other"},{"name":"우현테크","tel":"","addr":"경기도 하남시 신장동 411-29번지 301호","indutype":"용역 서비스 - 기타용역서비스","category":"other"}]},{"lat":"37.537927355","long":"127.21256261","imageIndex":17,"items":[{"name":"오로지","tel":"031-792-5707","addr":"경기도 하남시 신장동 570번지 112호, 113호","indutype":"직물 - 카페트,커튼,천막,지물","category":"other"},{"name":"크린토피아 홈플러스 하남점","tel":"031-794-2365","addr":"경기도 하남시 신장동 570번지 홈플러스경기하남점 B3호","indutype":"수리서비스 - 세탁소","category":"other"},{"name":"프로젝터쇼핑몰","tel":"02-1644-6723","addr":"경기도 하남시 신장동 570번지 하남두산위브파크 103동 1703호","indutype":"전기제품 - 기타전기제품","category":"other"}]},{"lat":"37.539710256","long":"127.20803037","imageIndex":17,"items":[{"name":"오일프라자","tel":"031-793-5152","addr":"경기도 하남시 신장동 427-392번지","indutype":"기타 - 기타 전문점","category":"other"}]},{"lat":"37.536262702","long":"127.21133601","imageIndex":17,"items":[{"name":"오피스프라임","tel":"031-795-2282","addr":"경기도 하남시 신장동 471-10번지 102호","indutype":"서적문구 - 문구용품","category":"other"},{"name":"한영볼링워크샵","tel":"031-795-9897","addr":"경기도 하남시 신장동 471-10번지","indutype":"레져용품 - 스포츠·레져용품","category":"other"}]},{"lat":"37.537823113","long":"127.20517395","imageIndex":17,"items":[{"name":"올리비아로렌하남점","tel":"031-794-8123","addr":"경기도 하남시 신장동 427-166번지","indutype":"의류 - 정장","category":"other"}]},{"lat":"37.538733008","long":"127.20523298","imageIndex":17,"items":[{"name":"우리내","tel":"031-793-4344","addr":"경기도 하남시 신장동 427-54번지 1층","indutype":"의류 - 내의판매","category":"other"},{"name":"이코노미가구","tel":"031-794-8895","addr":"경기도 하남시 신장동 427-54번지","indutype":"가구 - 일반가구","category":"other"},{"name":"케이넷","tel":"031-795-1081","addr":"경기도 하남시 신장동 427-54번지","indutype":"사무통신 - 통신기기","category":"other"},{"name":"케이넷 본점","tel":"031-795-1081","addr":"경기도 하남시 신장동 427-54번지","indutype":"신변잡화 - 기타잡화","category":"other"}]},{"lat":"37.537599613","long":"127.20937101","imageIndex":17,"items":[{"name":"우성후렘","tel":"031-793-8078","addr":"경기도 하남시 신장동 437-4번지","indutype":"기타 - 기타 전문점","category":"other"}]},{"lat":"37.537906244","long":"127.20920214","imageIndex":17,"items":[{"name":"우진인테리어","tel":"070-7018-5365","addr":"경기도 하남시 신장동 450-46번지","indutype":"건축자재 - 인테리어전문","category":"other"}]},{"lat":"37.537150682","long":"127.20847594","imageIndex":17,"items":[{"name":"운범실업","tel":"031-793-0587","addr":"경기도 하남시 신장동 440-8번지","indutype":"신변잡화 - 신발","category":"other"}]},{"lat":"37.53954508","long":"127.20974976","imageIndex":17,"items":[{"name":"원종상사","tel":"02-1234-1234","addr":"경기도 하남시 신장동 446-1번지 402호","indutype":"유통업 영리 - 기타유통업","category":"other"}]},{"lat":"37.538821749","long":"127.21119604","imageIndex":17,"items":[{"name":"월드에어컨","tel":"","addr":"경기도 하남시 신장동 448-28번지 에코아트빌 501호","indutype":"용역 서비스 - 기타용역서비스","category":"other"}]},{"lat":"37.547569131","long":"127.21186539","imageIndex":17,"items":[{"name":"월풀서비스","tel":"070-7768-0077","addr":"경기도 하남시 신장동 303-58번지 1층","indutype":"전기제품 - 가전제품","category":"other"}]},{"lat":"37.538512423","long":"127.20775554","imageIndex":17,"items":[{"name":"위드 스타일","tel":"070-8806-0450","addr":"경기도 하남시 신장동 428-12번지 1층","indutype":"의류 - 정장","category":"other"}]},{"lat":"37.538515782","long":"127.20580944","imageIndex":17,"items":[{"name":"유니크린","tel":"070-7551-2096","addr":"경기도 하남시 신장동 427-232번지 105호","indutype":"신변잡화 - 기타잡화","category":"other"}]},{"lat":"37.540260649","long":"127.22261673","imageIndex":17,"items":[{"name":"유덕문구점","tel":"","addr":"경기도 하남시 신장동 81-13번지","indutype":"서적문구 - 문구용품","category":"other"},{"name":"코코로","tel":"031-795-5729","addr":"경기도 하남시 신장동 81-13번지","indutype":"의류 - 정장","category":"other"}]},{"lat":"37.540735345","long":"127.20919862","imageIndex":17,"items":[{"name":"유신광고","tel":"031-796-0333","addr":"경기도 하남시 신장동 565-10번지 재옥빌딩 3층","indutype":"용역 서비스 - 종합용역","category":"other"}]},{"lat":"37.548369538","long":"127.2126937","imageIndex":17,"items":[{"name":"유일종합상사","tel":"031-795-4100","addr":"경기도 하남시 신장동 306-6번지","indutype":"기타 - 기계공구","category":"other"}]},{"lat":"37.537679673","long":"127.20475493","imageIndex":17,"items":[{"name":"윤순영패션","tel":"031-794-0713","addr":"경기도 하남시 신장동 427-82번지","indutype":"레져용품 - 스포츠·레져용품","category":"other"},{"name":"프로스펙스","tel":"031-791-5557","addr":"경기도 하남시 신장동 427-82번지","indutype":"레져용품 - 스포츠·레져용품","category":"other"}]},{"lat":"37.538039647","long":"127.21019819","imageIndex":17,"items":[{"name":"은하수지물포","tel":"031-791-7725","addr":"경기도 하남시 신장동 450-28번지","indutype":"직물 - 카페트,커튼,천막,지물","category":"other"}]},{"lat":"37.542789163","long":"127.21950115","imageIndex":17,"items":[{"name":"의로움","tel":"","addr":"경기도 하남시 신장동 94-4번지 1층","indutype":"의류 - 정장","category":"other"}]},{"lat":"37.537625672","long":"127.20992549","imageIndex":17,"items":[{"name":"이노유통 남부지사","tel":"031-000-0000","addr":"경기도 하남시 신장동 451-12번지","indutype":"주방용구 - 정수기","category":"other"}]},{"lat":"37.538157","long":"127.20486936","imageIndex":17,"items":[{"name":"이동우패션","tel":"031-792-2537","addr":"경기도 하남시 신장동 427-171번지","indutype":"의류 - 스포츠의류","category":"other"}]},{"lat":"37.536597898","long":"127.21536483","imageIndex":17,"items":[{"name":"이룬행복","tel":"","addr":"경기도 하남시 신장동 531-7번지","indutype":"의류 - 내의판매","category":"other"}]},{"lat":"37.542738366","long":"127.22261269","imageIndex":17,"items":[{"name":"이마트24 하남스타점","tel":"02-6916-1500","addr":"경기도 하남시 신장동 75-2번지","indutype":"유통업 영리 - 편 의 점","category":"other"}]},{"lat":"37.537598874","long":"127.204585","imageIndex":17,"items":[{"name":"이솝키드(하남점)","tel":"031-792-6896","addr":"경기도 하남시 신장동 427-85번지","indutype":"의류 - 아동의류","category":"other"}]},{"lat":"37.537403154","long":"127.20836349","imageIndex":17,"items":[{"name":"일루나","tel":"","addr":"경기도 하남시 신장동 440-2번지 지하","indutype":"의류 - 내의판매","category":"other"}]},{"lat":"37.537017264","long":"127.20747991","imageIndex":17,"items":[{"name":"일신당","tel":"031-792-5456","addr":"경기도 하남시 신장동 432-19번지","indutype":"신변잡화 - 시계","category":"other"}]},{"lat":"37.539462423","long":"127.2106434","imageIndex":17,"items":[{"name":"임페리얼하남점","tel":"02-2679-6605","addr":"경기도 하남시 신장동 447-9번지","indutype":"의류 - 정장","category":"other"}]},{"lat":"37.540292299","long":"127.21009127","imageIndex":17,"items":[{"name":"잡화","tel":"031-0000-0000","addr":"경기도 하남시 신장동 565-2번지 4층","indutype":"신변잡화 - 기타잡화","category":"other"},{"name":"티제이모바일(직영점)","tel":"031-791-1978","addr":"경기도 하남시 신장동 565-2번지 1층","indutype":"사무통신 - 통신기기","category":"other"}]},{"lat":"37.540572575","long":"127.20953762","imageIndex":17,"items":[{"name":"장미텔레콤","tel":"031-792-8089","addr":"경기도 하남시 신장동 565-7번지 동진빌딩 1층","indutype":"사무통신 - 통신기기","category":"other"}]},{"lat":"37.539037685","long":"127.21136636","imageIndex":17,"items":[{"name":"장성","tel":"","addr":"경기도 하남시 신장동 448-17번지","indutype":"용역 서비스 - 기타용역서비스","category":"other"}]},{"lat":"37.540183744","long":"127.2103399","imageIndex":17,"items":[{"name":"장원교육하남지점","tel":"031-794-0979","addr":"경기도 하남시 신장동 565번지 SK빌딩 6층","indutype":"회원제형태 - 서적","category":"other"}]},{"lat":"37.539821836","long":"127.20602796","imageIndex":17,"items":[{"name":"재우텔레콤","tel":"031-796-3011","addr":"경기도 하남시 신장동 427-29번지 1층","indutype":"사무통신 - 통신기기","category":"other"}]},{"lat":"37.540209021","long":"127.21133568","imageIndex":17,"items":[{"name":"전산솔루션","tel":"070-8958-3131","addr":"경기도 하남시 신장동 455-50번지 201호","indutype":"회원제형태 - 기타4","category":"other"}]},{"lat":"37.54149862","long":"127.21066036","imageIndex":17,"items":[{"name":"정훈ENG","tel":"0000-0000-0000","addr":"경기도 하남시 신장동 562번지 에코타운 104동 1104호","indutype":"회원제형태 - 기타4","category":"other"}]},{"lat":"37.53909627","long":"127.20878678","imageIndex":17,"items":[{"name":"제이앤케이파트너쉽","tel":"031-796-9254","addr":"경기도 하남시 신장동 444-13번지","indutype":"신변잡화 - 신발","category":"other"}]},{"lat":"37.538819815","long":"127.20714539","imageIndex":17,"items":[{"name":"제일철물점","tel":"031-791-4532","addr":"경기도 하남시 신장동 427-360번지 1층","indutype":"건축자재 - 목재·석재·철물","category":"other"}]},{"lat":"37.537679576","long":"127.2048115","imageIndex":17,"items":[{"name":"조이너스","tel":"031-792-5698","addr":"경기도 하남시 신장동 427-72번지","indutype":"의류 - 정장","category":"other"}]},{"lat":"37.53706983","long":"127.20833994","imageIndex":17,"items":[{"name":"종서점","tel":"031-791-5795","addr":"경기도 하남시 신장동 440-13번지","indutype":"서적문구 - 일반서적","category":"other"}]},{"lat":"37.541875535","long":"127.21151004","imageIndex":17,"items":[{"name":"종이와연필","tel":"031-796-9140","addr":"경기도 하남시 신장동 381-29번지","indutype":"서적문구 - 문구용품","category":"other"}]},{"lat":"37.538207903","long":"127.21186189","imageIndex":17,"items":[{"name":"좋은 날","tel":"031-8410-7708","addr":"경기도 하남시 신장동 454-40번지 1층","indutype":"직물 - 침구·수예점","category":"other"}]},{"lat":"37.542124618","long":"127.21330984","imageIndex":17,"items":[{"name":"주식회사 그레이스","tel":"","addr":"경기도 하남시 신장동 382-6번지","indutype":"의류 - 정장","category":"other"}]},{"lat":"37.537682753","long":"127.20819454","imageIndex":17,"items":[{"name":"주식회사 우리정보시스템","tel":"031-796-0923","addr":"경기도 하남시 신장동 430-101번지 103호","indutype":"용역 서비스 - 소프트웨어","category":"other"}]},{"lat":"37.541322745","long":"127.21330759","imageIndex":17,"items":[{"name":"주식회사 파킹로드","tel":"031-000-0000","addr":"경기도 하남시 신장동 392-5번지 1층","indutype":"기타 - 기계공구","category":"other"}]},{"lat":"37.547350122","long":"127.21342637","imageIndex":17,"items":[{"name":"주식회사노바(NOVA Co.Ltd)","tel":"02-3444-9680","addr":"경기도 하남시 신장동 261-15번지","indutype":"건축자재 - 조명기구","category":"other"}]},{"lat":"37.536427016","long":"127.21519463","imageIndex":17,"items":[{"name":"주식회사비엠리더스코리아","tel":"031-796-7945","addr":"경기도 하남시 신장동 531-9번지","indutype":"건축자재 - 건축용 요업제품","category":"other"}]},{"lat":"37.541933024","long":"127.21961182","imageIndex":17,"items":[{"name":"주식회사오즈웰","tel":"070-8823-3233","addr":"경기도 하남시 신장동 96-2번지 1층","indutype":"레져용품 - 스포츠·레져용품","category":"other"}]},{"lat":"37.542572865","long":"127.21953447","imageIndex":17,"items":[{"name":"주식회사트라이코코리아","tel":"031-794-2750","addr":"경기도 하남시 신장동 93-7번지 4층","indutype":"유통업 영리 - 기타유통업","category":"other"}]},{"lat":"37.547371156","long":"127.21172904","imageIndex":17,"items":[{"name":"중고컴퓨터할인매장","tel":"031-793-2328","addr":"경기도 하남시 신장동 303-59번지 신풍빌딩 1층 103호","indutype":"사무통신 - 컴퓨터","category":"other"}]},{"lat":"37.538182788","long":"127.20559356","imageIndex":17,"items":[{"name":"중앙메리야스","tel":"031-791-4664","addr":"경기도 하남시 신장동 427-160번지 1층","indutype":"의류 - 내의판매","category":"other"}]},{"lat":"37.537624083","long":"127.20564862","imageIndex":17,"items":[{"name":"지센(ZISHEN) 하남점","tel":"031-794-0876","addr":"경기도 하남시 신장동 430-1번지 1층","indutype":"의류 - 스포츠의류","category":"other"}]},{"lat":"37.541656048","long":"127.21334247","imageIndex":17,"items":[{"name":"진성열세무사사무소","tel":"031-795-1937","addr":"경기도 하남시 신장동 383-1번지 정현빌딩 2층","indutype":"용역 서비스 - 법률회계서비스(개인)","category":"other"}]},{"lat":"37.540047743","long":"127.20564387","imageIndex":17,"items":[{"name":"진스 (Jins)","tel":"02-111-1111","addr":"경기도 하남시 신장동 427-184번지 한진연립 D동 304호","indutype":"의류 - 내의판매","category":"other"}]},{"lat":"37.537823253","long":"127.2102881","imageIndex":17,"items":[{"name":"창세기 시스템","tel":"02-481-3739","addr":"경기도 하남시 신장동 451-6번지","indutype":"직물 - 카페트,커튼,천막,지물","category":"other"}]},{"lat":"37.537101489","long":"127.21589804","imageIndex":17,"items":[{"name":"천현문구점","tel":"031-793-9789","addr":"경기도 하남시 신장동 531-1번지","indutype":"서적문구 - 문구용품","category":"other"},{"name":"하남자전거","tel":"031-793-2756","addr":"경기도 하남시 신장동 531-1번지","indutype":"레져용품 - 스포츠·레져용품","category":"other"}]},{"lat":"37.53901364","long":"127.20966909","imageIndex":17,"items":[{"name":"캐노피샵","tel":"031-699-1007","addr":"경기도 하남시 신장동 446-14번지 301호","indutype":"직물 - 카페트,커튼,천막,지물","category":"other"}]},{"lat":"37.53896195","long":"127.20831119","imageIndex":17,"items":[{"name":"캡틴골프","tel":"031-791-8545","addr":"경기도 하남시 신장동 444-7번지 1층","indutype":"레져용품 - 스포츠·레져용품","category":"other"}]},{"lat":"37.538864647","long":"127.21743053","imageIndex":17,"items":[{"name":"컴수리119","tel":"031-792-2220","addr":"경기도 하남시 신장동 528-5한신백송A103-102","indutype":"수리서비스 - 사무·통신기기수리","category":"other"}]},{"lat":"37.540956335","long":"127.21162063","imageIndex":17,"items":[{"name":"코렉스자전거","tel":"031-791-1769","addr":"경기도 하남시 신장동 387-13번지","indutype":"레져용품 - 스포츠·레져용품","category":"other"}]},{"lat":"37.538573168","long":"127.20909083","imageIndex":17,"items":[{"name":"코렉스자전거(신장점)","tel":"031-794-5470","addr":"경기도 하남시 신장동 442-2번지","indutype":"레져용품 - 스포츠·레져용품","category":"other"},{"name":"트윈벨","tel":"031-791-9046","addr":"경기도 하남시 신장동 442-2번지 2층","indutype":"의류 - 기타의류","category":"other"}]},{"lat":"37.538430942","long":"127.20798161","imageIndex":17,"items":[{"name":"코리아에어컨","tel":"02-495-3347","addr":"경기도 하남시 신장동 444-39번지","indutype":"용역 서비스 - 기타용역서비스","category":"other"}]},{"lat":"37.54159534","long":"127.22195306","imageIndex":17,"items":[{"name":"크린토피아하남대명점","tel":"031-796-6982","addr":"경기도 하남시 신장동 569대명상가201","indutype":"직물 - 기타직물","category":"other"}]},{"lat":"37.54015213","long":"127.20780529","imageIndex":17,"items":[{"name":"클리어크린","tel":"031-1661-1861","addr":"경기도 하남시 신장동 427-427번지","indutype":"용역 서비스 - 종합용역","category":"other"}]},{"lat":"37.537482585","long":"127.20931412","imageIndex":17,"items":[{"name":"태산배관","tel":"031-794-8071","addr":"경기도 하남시 신장동 437-5번지","indutype":"전기제품 - 냉열기기","category":"other"}]},{"lat":"37.540426129","long":"127.21589618","imageIndex":17,"items":[{"name":"토즈 멤버십라운지 신장센터","tel":"031-792-0956","addr":"경기도 하남시 신장동 524-4번지 제일빌딩","indutype":"용역 서비스 - 사무서비스","category":"other"},{"name":"허그어트리(Hug a tree)","tel":"031-792-0025","addr":"경기도 하남시 신장동 524-4번지 1층","indutype":"의류 - 정장","category":"other"}]},{"lat":"37.537017029","long":"127.20761568","imageIndex":17,"items":[{"name":"토토앤캔들","tel":"02-1111-1111","addr":"경기도 하남시 신장동 432-33번지 호정빌딩 1층 102호","indutype":"신변잡화 - 기타잡화","category":"other"}]},{"lat":"37.538901698","long":"127.2118412","imageIndex":17,"items":[{"name":"트레벨애견미용샵","tel":"031-795-8887","addr":"경기도 하남시 신장동 448-10번지 101호","indutype":"문화.취미 - 애완동물","category":"other"}]},{"lat":"37.539846561","long":"127.20736317","imageIndex":17,"items":[{"name":"팔라진","tel":"","addr":"경기도 하남시 신장동 427-181번지 402호","indutype":"주방용구 - 주방용구","category":"other"}]},{"lat":"37.540155335","long":"127.20594966","imageIndex":17,"items":[{"name":"팜므","tel":"031-795-1323","addr":"경기도 하남시 신장동 427-246번지","indutype":"의류 - 정장","category":"other"}]},{"lat":"37.537904628","long":"127.20492525","imageIndex":17,"items":[{"name":"팜스프링스","tel":"031-791-9919","addr":"경기도 하남시 신장동 427-168번지","indutype":"레져용품 - 스포츠·레져용품","category":"other"}]},{"lat":"37.541983041","long":"127.20670142","imageIndex":17,"items":[{"name":"팬시스쿨","tel":"031-793-5401","addr":"경기도 하남시 신장동 423-10번지","indutype":"서적문구 - 문구용품","category":"other"}]},{"lat":"37.542933844","long":"127.21423997","imageIndex":17,"items":[{"name":"펫 헤이븐","tel":"","addr":"경기도 하남시 신장동 560번지 에코타운 303동 1302호","indutype":"문화.취미 - 애완동물","category":"other"}]},{"lat":"37.538652694","long":"127.20478018","imageIndex":17,"items":[{"name":"포은사","tel":"031-796-4920","addr":"경기도 하남시 신장동 427-228번지","indutype":"기타 - 비영리/대상","category":"other"}]},{"lat":"37.538676283","long":"127.20678293","imageIndex":17,"items":[{"name":"폰모아","tel":"02-1577-7175","addr":"경기도 하남시 신장동 427-318번지","indutype":"사무통신 - 통신기기","category":"other"}]},{"lat":"37.538237991","long":"127.20492615","imageIndex":17,"items":[{"name":"풍기인견","tel":"031-792-2537","addr":"경기도 하남시 신장동 427-172번지 2층","indutype":"의류 - 정장","category":"other"},{"name":"한국협동조합","tel":"031-796-2411","addr":"경기도 하남시 신장동 427-172번지 신장시장 2층","indutype":"신변잡화 - 기타잡화","category":"other"}]},{"lat":"37.537515498","long":"127.20591988","imageIndex":17,"items":[{"name":"피에르가르뎅","tel":"031-796-2262","addr":"경기도 하남시 신장동 427-50번지","indutype":"레져용품 - 스포츠·레져용품","category":"other"}]},{"lat":"37.535488297","long":"127.21108494","imageIndex":17,"items":[{"name":"하나유통","tel":"031-796-1567","addr":"경기도 하남시 신장동 475-21번지","indutype":"유통업 영리 - 기타유통업","category":"other"}]},{"lat":"37.536982574","long":"127.20669912","imageIndex":17,"items":[{"name":"하남꽃백화점","tel":"031-791-6734","addr":"경기도 하남시 신장동 430-2번지","indutype":"문화.취미 - 화원","category":"other"}]},{"lat":"37.538847439","long":"127.21195419","imageIndex":17,"items":[{"name":"하남냉동","tel":"02-978-8284","addr":"경기도 하남시 신장동 455-1번지","indutype":"수리서비스 - 가정용품수리","category":"other"}]},{"lat":"37.540260248","long":"127.20780558","imageIndex":17,"items":[{"name":"하남냉동","tel":"031-794-2920","addr":"경기도 하남시 신장동 411-11","indutype":"전기제품 - 냉열기기","category":"other"}]},{"lat":"37.540843647","long":"127.21916739","imageIndex":17,"items":[{"name":"하남농협신장동지점","tel":"031-795-6622","addr":"경기도 하남시 신장동 97-19번지","indutype":"유통업 비영리 - 농,축협 직영매장","category":"other"}]},{"lat":"37.537180497","long":"127.20686938","imageIndex":17,"items":[{"name":"하남농협중앙지점","tel":"031-794-3462","addr":"경기도 하남시 신장동 430-42번지","indutype":"유통업 비영리 - 농,축협 직영매장","category":"other"}]},{"lat":"37.537101144","long":"127.20586218","imageIndex":17,"items":[{"name":"하남동부오토바이","tel":"031-792-2255","addr":"경기도 하남시 신장동 430-116번지","indutype":"수리서비스 - 레져용품수리","category":"other"}]},{"lat":"37.540711346","long":"127.21259303","imageIndex":17,"items":[{"name":"하남로타리클럽","tel":"031-791-6994","addr":"경기도 하남시 신장동 390-11번지","indutype":"기타 - 비영리/대상","category":"other"}]},{"lat":"37.536210595","long":"127.21022707","imageIndex":17,"items":[{"name":"하남부속","tel":"031-795-3414","addr":"경기도 하남시 신장동 473-1번지","indutype":"기타 - 기계공구","category":"other"}]},{"lat":"37.539040918","long":"127.21461368","imageIndex":17,"items":[{"name":"하남시보건소","tel":"031-790-6555","addr":"경기도 하남시 신장동 520번지","indutype":"기타의료기관 - 기타의료기관 및 기타","category":"other"},{"name":"하남시지방세인터넷","tel":"031-790-5650","addr":"경기도 하남시 신장동 520번지","indutype":"-","category":"other"},{"name":"하남시청/지방세ARS","tel":"031-790-5650","addr":"경기도 하남시 신장동 520번지","indutype":"-","category":"other"}]},{"lat":"37.536958799","long":"127.215083","imageIndex":17,"items":[{"name":"하남시약사회","tel":"031-794-7833","addr":"경기도 하남시 신장동 530-6번지","indutype":"기타 - 비영리/비대상","category":"other"}]},{"lat":"37.541624699","long":"127.21575249","imageIndex":17,"items":[{"name":"하남시종합사회복지관","tel":"031-790-2900","addr":"경기도 하남시 신장동 521-5번지","indutype":"기타 - 비영리/대상","category":"other"}]},{"lat":"37.546537198","long":"127.21953462","imageIndex":17,"items":[{"name":"하남시친환경사업소","tel":"031-790-5647","addr":"경기도 하남시 신장동 27번지","indutype":"용역 서비스 - 사무서비스","category":"other"}]},{"lat":"37.539705467","long":"127.20558637","imageIndex":17,"items":[{"name":"하남인쇄","tel":"031-792-3184","addr":"경기도 하남시 신장동 427-287번지","indutype":"서적문구 - 출판 및 인쇄물","category":"other"}]},{"lat":"37.53876556","long":"127.20725839","imageIndex":17,"items":[{"name":"하야로비","tel":"031-791-2762","addr":"경기도 하남시 신장동 427-361번지","indutype":"직물 - 침구·수예점","category":"other"}]},{"lat":"37.540791827","long":"127.20780704","imageIndex":17,"items":[{"name":"하이마트 서비스센타","tel":"","addr":"경기도 하남시 신장동 412번지","indutype":"용역 서비스 - 기타용역서비스","category":"other"}]},{"lat":"37.541957801","long":"127.21084268","imageIndex":17,"items":[{"name":"한강세탁","tel":"031-777-6733","addr":"경기도 하남시 신장동 561-2번지 에코2단지 상가 203호","indutype":"수리서비스 - 세탁소","category":"other"}]},{"lat":"37.538649584","long":"127.21174998","imageIndex":17,"items":[{"name":"한마음공조","tel":"031-795-8161","addr":"경기도 하남시 신장동 448-42번지 2층","indutype":"전기제품 - 냉열기기","category":"other"}]},{"lat":"37.541792141","long":"127.21281105","imageIndex":17,"items":[{"name":"한맥컴OA","tel":"02-2201-2782","addr":"경기도 하남시 신장동 381-43번지","indutype":"사무통신 - 사무용 OA기기","category":"other"}]},{"lat":"37.538712832","long":"127.21164832","imageIndex":17,"items":[{"name":"한송기획","tel":"031-794-2463","addr":"경기도 하남시 신장동 448-41번지","indutype":"서적문구 - 출판 및 인쇄물","category":"other"}]},{"lat":"37.537959432","long":"127.20970013","imageIndex":17,"items":[{"name":"한신디자인아트","tel":"031-792-4474","addr":"경기도 하남시 신장동 450-34번지","indutype":"용역 서비스 - 종합용역","category":"other"}]},{"lat":"37.539344822","long":"127.20573248","imageIndex":17,"items":[{"name":"행복통신","tel":"070-4025-8030","addr":"경기도 하남시 신장동 427-127번지","indutype":"사무통신 - 통신기기","category":"other"}]},{"lat":"37.538732154","long":"127.20573083","imageIndex":17,"items":[{"name":"헤라(Hera)","tel":"031-794-4485","addr":"경기도 하남시 신장동 427-381번지 101호","indutype":"의류 - 기타의류","category":"other"}]},{"lat":"37.548711468","long":"127.21294361","imageIndex":17,"items":[{"name":"헤펠레목공방 하남점","tel":"031-792-8809","addr":"경기도 하남시 신장동 298-2번지","indutype":"가구 - 일반가구","category":"other"}]},{"lat":"37.539510444","long":"127.21902776","imageIndex":17,"items":[{"name":"현대명품세탁소","tel":"031-793-8650","addr":"경기도 하남시 신장동 528번지 백조현대아파트 상가 116,117,118호","indutype":"수리서비스 - 세탁소","category":"other"},{"name":"현대전기","tel":"031-794-6807","addr":"경기도 하남시 신장동 528번지 현대상가 A-34","indutype":"건축자재 - 조명기구","category":"other"}]},{"lat":"37.536516952","long":"127.2152854","imageIndex":17,"items":[{"name":"현대지물포","tel":"031-792-3201","addr":"경기도 하남시 신장동 531-8번지","indutype":"직물 - 카페트,커튼,천막,지물","category":"other"}]},{"lat":"37.538014164","long":"127.20931558","imageIndex":17,"items":[{"name":"호영광고기획","tel":"","addr":"경기도 하남시 신장동 450-5번지","indutype":"유통업 영리 - 기타유통업","category":"other"}]},{"lat":"37.537816738","long":"127.20886246","imageIndex":17,"items":[{"name":"홍순자한복","tel":"031-794-7073","addr":"경기도 하남시 신장동 441-15번지","indutype":"의류 - 기타의류","category":"other"}]},{"lat":"37.53823933","long":"127.20936146","imageIndex":17,"items":[{"name":"홍승애풍기인견(하남점)","tel":"031-795-6699","addr":"경기도 하남시 신장동 442-26번지 1층","indutype":"의류 - 정장","category":"other"}]},{"lat":"37.537125871","long":"127.20719734","imageIndex":17,"items":[{"name":"황금당","tel":"031-792-3350","addr":"경기도 하남시 신장동 432-7번지","indutype":"신변잡화 - 시계","category":"other"}]}]