[{"lat":"37.684580589","long":"127.1659272","items":[{"name":"(주)공간유통","tel":"031-558-3679","addr":"경기도 남양주시 진접읍 내곡리 9-6번지","category":"신변잡화 - 기타잡화"}]},{"lat":"37.685386606","long":"127.16289069","items":[{"name":"(주)에이스메디칼","tel":"070-8239-2694","addr":"경기도 남양주시 진접읍 내곡리 124","category":"전기제품 - 기타전기제품"}]},{"lat":"37.686050686","long":"127.15811925","items":[{"name":"(주)이노밴티지","tel":"031-111-1111","addr":"경기도 남양주시 진접읍 내곡리 293-7번지 1층","category":"자동차정비 유지 - 윤활유 전문 판매"}]},{"lat":"37.680082885","long":"127.15381044","items":[{"name":"EO스포츠","tel":"031-111-1111","addr":"경기도 남양주시 진접읍 내곡리 700번지 B동","category":"레져용품 - 스포츠·레져용품"}]},{"lat":"37.686410188","long":"127.15878888","items":[{"name":"가건사","tel":"031-571-2457","addr":"경기도 남양주시 진접읍 내곡리 290-8번지","category":"용역 서비스 - 기타용역서비스"}]},{"lat":"37.680720362","long":"127.16233653","items":[{"name":"가림기획","tel":"","addr":"경기도 남양주시 진접읍 내곡리 67-3번지","category":"유통업 영리 - 기타유통업"}]},{"lat":"37.685298225","long":"127.16162077","items":[{"name":"가야침장","tel":"031-528-6807","addr":"경기도 남양주시 진접읍 내곡리 134-10번지","category":"직물 - 침구·수예점"},{"name":"현대가구","tel":"031-573-4284","addr":"경기도 남양주시 진접읍 내곡리 134-10번지 가동","category":"가구 - 일반가구"}]},{"lat":"37.671742202","long":"127.15203665","items":[{"name":"간판공장LED조명공장","tel":"02-1573-5005","addr":"경기도 남양주시 진접읍 내곡리 583-1번지","category":"건축자재 - 인테리어전문"},{"name":"우성그랜드","tel":"031-513-2234","addr":"경기도 남양주시 진접읍 내곡리 583-1번지","category":"수리서비스 - 가정용품수리"}]},{"lat":"37.687720954","long":"127.16226082","items":[{"name":"갈매상사1호","tel":"031-571-9985","addr":"경기도 남양주시 진접읍 내곡리 192-7번지","category":"건축자재 - 페인트"}]},{"lat":"37.686660651","long":"127.16014985","items":[{"name":"건영기업","tel":"031-571-5025","addr":"경기도 남양주시 진접읍 내곡리 138-10번지","category":"건축자재 - 기타건축자재"}]},{"lat":"37.68924393","long":"127.16200331","items":[{"name":"경보통상","tel":"031-529-7870","addr":"경기도 남양주시 진접읍 내곡리 245-4","category":"건축자재 - 기타건축자재"}]},{"lat":"37.67955161","long":"127.16047493","items":[{"name":"계명공예","tel":"031-529-1765","addr":"경기도 남양주시 진접읍 내곡리 84-7번지","category":"문화.취미 - 민예·공예품"},{"name":"주식회사 계명공예산업","tel":"031-529-1765","addr":"경기도 남양주시 진접읍 내곡리 84-7번지 계명공예 1동","category":"가구 - 일반가구"}]},{"lat":"37.67594059","long":"127.15908436","items":[{"name":"광동상사","tel":"","addr":"경기도 남양주시 진접읍 내곡리 454-1번지","category":"자동차정비 유지 - 자동차부품"}]},{"lat":"37.675914026","long":"127.15873291","items":[{"name":"광동상사","tel":"031-2242-9882","addr":"경기도 남양주시 진접읍 내곡리 453-1번지","category":"자동차정비 유지 - 자동차부품"}]},{"lat":"37.68494033","long":"127.1663928","items":[{"name":"국대종합상사","tel":"031-528-2848","addr":"경기도 남양주시 진접읍 내곡리 11-2번지","category":"가구 - 일반가구"}]},{"lat":"37.687387537","long":"127.16230545","items":[{"name":"국제농기계사","tel":"031-571-9268","addr":"경기도 남양주시 진접읍 내곡리 190-10","category":"농업 - 농기계"}]},{"lat":"37.688161196","long":"127.16316874","items":[{"name":"금강","tel":"031-528-8335","addr":"경기도 남양주시 진접읍 내곡리 182-1번지 나동","category":"유통업 영리 - 기타유통업"}]},{"lat":"37.675220613","long":"127.15848208","items":[{"name":"금강사","tel":"031-528-0590","addr":"경기도 남양주시 진접읍 내곡리 454-4번지","category":"자동차정비 유지 - 자동차부품"}]},{"lat":"37.689939057","long":"127.16097308","items":[{"name":"금산정밀","tel":"031-528-9539","addr":"경기도 남양주시 진접읍 내곡리 230-10번지","category":"기타 - 기계공구"}]},{"lat":"37.675717247","long":"127.1576443","items":[{"name":"금성포장","tel":"031-516-3080","addr":"경기도 남양주시 진접읍 내곡리 468-7","category":"유통업 영리 - 기타유통업"}]},{"lat":"37.686632135","long":"127.16126082","items":[{"name":"내곡종합건재","tel":"031-571-2524","addr":"경기도 남양주시 진접읍 내곡리 138-8번지","category":"건축자재 - 목재·석재·철물"},{"name":"삼성종합기계상사","tel":"031-528-4948","addr":"경기도 남양주시 진접읍 내곡리 138-8번지","category":"기타 - 기계공구"}]},{"lat":"37.680440311","long":"127.1628914","items":[{"name":"내추럴발란스","tel":"02-6315-5908","addr":"경기도 남양주시 진접읍 내곡리 64-1번지","category":"문화.취미 - 애완동물"}]},{"lat":"37.683499166","long":"127.15947432","items":[{"name":"대광후레임","tel":"031-529-9314","addr":"경기도 남양주시 진접읍 내곡리 373-2번지","category":"건축자재 - 기타건축자재"}]},{"lat":"37.676054287","long":"127.15481114","items":[{"name":"대성주방냉동","tel":"031-575-2218","addr":"경기도 남양주시 진접읍 내곡리 436-3","category":"주방용구 - 주방용구"},{"name":"홀리데이 남양주점","tel":"","addr":"경기도 남양주시 진접읍 내곡리 436-3번지 1층","category":"레져용품 - 스포츠·레져용품"}]},{"lat":"37.680770367","long":"127.15164662","items":[{"name":"대성창호","tel":"031-874-1890","addr":"경기도 남양주시 진접읍 내곡리 696-1번지","category":"용역 서비스 - 기타용역서비스"}]},{"lat":"37.685855551","long":"127.16256292","items":[{"name":"대성프라스틱","tel":"031-571-7461","addr":"경기도 남양주시 진접읍 내곡리 151","category":"유통업 영리 - 기타유통업"}]},{"lat":"37.677187843","long":"127.15609437","items":[{"name":"대영냉동","tel":"031-574-9353","addr":"경기도 남양주시 진접읍 내곡리 428-4번지","category":"수리서비스 - 기타수리서비스"}]},{"lat":"37.688720576","long":"127.16259174","items":[{"name":"대흥콤프레샤","tel":"031-566-0908","addr":"경기도 남양주시 진접읍 내곡리 185번지","category":"기타 - 기계공구"},{"name":"우성상사","tel":"031-575-6001","addr":"경기도 남양주시 진접읍 내곡리 185번지 더풍요","category":"기타 - 기계공구"},{"name":"정원가든","tel":"031-568-5589","addr":"경기도 남양주시 진접읍 내곡리 185번지","category":"일반휴게음식 - 일반한식"}]},{"lat":"37.673163331","long":"127.15392111","items":[{"name":"뎅뎅점프","tel":"","addr":"경기도 남양주시 진접읍 내곡리 571-17번지 1동","category":"문화.취미 - 애완동물"}]},{"lat":"37.690774166","long":"127.16303831","items":[{"name":"도원DNS","tel":"031-573-8783","addr":"경기도 남양주시 진접읍 내곡리 263-1, 272-24","category":"기타 - 기계공구"}]},{"lat":"37.686965018","long":"127.16161298","items":[{"name":"동보종합전기","tel":"031-573-1824","addr":"경기도 남양주시 진접읍 내곡리 140-3","category":"기타 - 기계공구"}]},{"lat":"37.681777484","long":"127.16672595","items":[{"name":"동서울storage","tel":"031-574-7601","addr":"경기도 남양주시 진접읍 내곡리 32-7번지","category":"용역 서비스 - 보관및 창고업"}]},{"lat":"37.684550214","long":"127.16177789","items":[{"name":"동양서비스","tel":"031-573-7972","addr":"경기도 남양주시 진접읍 내곡리 133-4번지","category":"전기제품 - 가전제품"}]},{"lat":"37.686052253","long":"127.16367437","items":[{"name":"동양엔진","tel":"02-3013-1460","addr":"경기도 남양주시 진접읍 내곡리 157번지","category":"자동차정비 유지 - 자동차부품"}]},{"lat":"37.685686537","long":"127.16095272","items":[{"name":"돼지네타이어","tel":"031-574-5441","addr":"경기도 남양주시 진접읍 내곡리 135-63번지","category":"자동차정비 유지 - 자동차시트·타이어"}]},{"lat":"37.6911885","long":"127.16311857","items":[{"name":"두성에너지","tel":"031-872-1243","addr":"경기도 남양주시 진접읍 내곡리 272-25번지","category":"건축자재 - 보일러·펌프·샷시"},{"name":"밤섬24편의점","tel":"031-572-4412","addr":"경기도 남양주시 진접읍 내곡리 272-25번지","category":"유통업 영리 - 슈퍼마켓"},{"name":"선진커머스","tel":"031-527-3031","addr":"경기도 남양주시 진접읍 내곡리 272-25번지 102호","category":"건축자재 - 목재·석재·철물"}]},{"lat":"37.680831956","long":"127.15281437","items":[{"name":"둥지레져 둥지좌대","tel":"02-553-9999","addr":"경기도 남양주시 진접읍 내곡리 704-1번지","category":"레져용품 - 스포츠·레져용품"}]},{"lat":"37.678602748","long":"127.16259272","items":[{"name":"디스크백","tel":"031-528-4658","addr":"경기도 남양주시 진접읍 내곡리 59번지","category":"건축자재 - 인테리어전문"}]},{"lat":"37.686774608","long":"127.16250821","items":[{"name":"디엔런게라지","tel":"031-529-8896","addr":"경기도 남양주시 진접읍 내곡리 147번지","category":"자동차정비 유지 - 자동차시트·타이어"}]},{"lat":"37.671021855","long":"127.15867734","items":[{"name":"라아","tel":"070-8889-9853","addr":"경기도 남양주시 진접읍 내곡리 531-8","category":"가구 - 일반가구"}]},{"lat":"37.67274323","long":"127.15127922","items":[{"name":"레이스랩","tel":"070-8777-7200","addr":"경기도 남양주시 진접읍 내곡리 592-1번지","category":"자동차정비 유지 - 자동차부품"}]},{"lat":"37.688748661","long":"127.16180952","items":[{"name":"마이엘(may aile)","tel":"031-575-3458","addr":"경기도 남양주시 진접읍 내곡리 194-4번지","category":"보건위생 - 미용재료"}]},{"lat":"37.690494992","long":"127.16294701","items":[{"name":"명당편의점","tel":"02-866-9300","addr":"경기도 남양주시 진접읍 내곡리 263-6번지","category":"유통업 영리 - 편 의 점"},{"name":"탱크밧데리","tel":"031-573-0042","addr":"경기도 남양주시 진접읍 내곡리 263-6번지","category":"자동차정비 유지 - 자동차부품"},{"name":"한미유통","tel":"031-573-0042","addr":"경기도 남양주시 진접읍 내곡리 263-6번지","category":"신변잡화 - 기타잡화"}]},{"lat":"37.690243583","long":"127.16231156","items":[{"name":"명성안료상사","tel":"031-529-3777","addr":"경기도 남양주시 진접읍 내곡리 256번지","category":"기타 - 기타 전문점"}]},{"lat":"37.689936396","long":"127.16294581","items":[{"name":"무궁화포장끈","tel":"031-567-3929","addr":"경기도 남양주시 진접읍 내곡리 264번지","category":"신변잡화 - 액세서리"}]},{"lat":"37.67533186","long":"127.15609056","items":[{"name":"미성제과기계","tel":"031-9977-6785","addr":"경기도 남양주시 진접읍 내곡리 445번지","category":"기타 - 기계공구"}]},{"lat":"37.679718544","long":"127.15687043","items":[{"name":"민정농원","tel":"031-000-0000","addr":"경기도 남양주시 진접읍 내곡리 406-4번지","category":"음료식품 - 농·축·수산품"}]},{"lat":"37.672445455","long":"127.15164134","items":[{"name":"믿음코킹","tel":"","addr":"경기도 남양주시 진접읍 내곡리 580-1번지","category":"용역 서비스 - 기타용역서비스"}]},{"lat":"37.679915323","long":"127.15095342","items":[{"name":"발샘","tel":"031-497-1960","addr":"경기도 남양주시 진접읍 내곡리 689번지","category":"레져용품 - 스포츠·레져용품"}]},{"lat":"37.690577015","long":"127.16225559","items":[{"name":"밤섬식당","tel":"031-574-6282","addr":"경기도 남양주시 진접읍 내곡리 259번지","category":"일반휴게음식 - 일반한식"}]},{"lat":"37.687468807","long":"127.16216958","items":[{"name":"배터리총판","tel":"031-573-4272","addr":"경기도 남양주시 진접읍 내곡리 190-5번지 1층","category":"자동차정비 유지 - 자동차부품"},{"name":"삼일베아링","tel":"031-572-4130","addr":"경기도 남양주시 진접읍 내곡리 190-5번지","category":"자동차정비 유지 - 자동차부품"},{"name":"생활용품","tel":"031-575-0784","addr":"경기도 남양주시 진접읍 내곡리 190-5번지 1층","category":"의류 - 내의판매"}]},{"lat":"37.67854784","long":"127.15644858","items":[{"name":"보령산업","tel":"031-529-0291","addr":"경기도 남양주시 진접읍 내곡리 404-2번지","category":"건축자재 - 기타건축자재"}]},{"lat":"37.67483199","long":"127.15245091","items":[{"name":"부강농기계","tel":"031-527-9277","addr":"경기도 남양주시 진접읍 내곡리 575-27번지","category":"농업 - 농기계"}]},{"lat":"37.668189676","long":"127.15417172","items":[{"name":"부림냉열","tel":"031-573-9779","addr":"경기도 남양주시 진접읍 내곡리 549-40","category":"전기제품 - 냉열기기"}]},{"lat":"37.687325555","long":"127.16150038","items":[{"name":"부성에너택","tel":"031-527-7485","addr":"경기도 남양주시 진접읍 내곡리 138-12","category":"회원제형태 - 기타3"},{"name":"주식회사 황소건설기계","tel":"031-573-8788","addr":"경기도 남양주시 진접읍 내곡리 138-12번지","category":"기타 - 기계공구"}]},{"lat":"37.678745933","long":"127.15653968","items":[{"name":"부일상사","tel":"031-574-4960","addr":"경기도 남양주시 진접읍 내곡리 405-9번지","category":"기타 - 기계공구"},{"name":"아크릴에이스","tel":"031-574-3433","addr":"경기도 남양주시 진접읍 내곡리 405-9번지","category":"가구 - 일반가구"}]},{"lat":"37.684415202","long":"127.15483952","items":[{"name":"브레인명상＆힐링센터","tel":"02-772-1785","addr":"경기도 남양주시 진접읍 내곡리 산50-1","category":"회원제형태 - 건강식품"}]},{"lat":"37.67258007","long":"127.152061","items":[{"name":"삼진공사","tel":"031-527-8118","addr":"경기도 남양주시 진접읍 내곡리 582-3번지","category":"자동차정비 유지 - 자동차부품"}]},{"lat":"37.67977412","long":"127.15570293","items":[{"name":"서울비니루농자재","tel":"031-573-3700","addr":"경기도 남양주시 진접읍 내곡리 387-4번지","category":"농업 - 기타농업관련"}]},{"lat":"37.672082696","long":"127.15351087","items":[{"name":"선진타이어","tel":"031-573-0952","addr":"경기도 남양주시 진접읍 내곡리 570-2번지","category":"자동차정비 유지 - 자동차시트·타이어"}]},{"lat":"37.689828465","long":"127.16280953","items":[{"name":"세븐일레븐내곡휴게소점","tel":"031-1577-0711","addr":"경기도 남양주시 진접읍 내곡리 265번지 1동","category":"유통업 영리 - 편 의 점"}]},{"lat":"37.672300283","long":"127.15244583","items":[{"name":"솔숲슈퍼","tel":"","addr":"경기도 남양주시 진접읍 내곡리 579-3번지 1층","category":"유통업 영리 - 슈퍼마켓"}]},{"lat":"37.687991104","long":"127.16236343","items":[{"name":"쇠뿔국밥&국시","tel":"070-4808-0518","addr":"경기도 남양주시 진접읍 내곡리 192-1번지 1층","category":"일반휴게음식 - 일반한식"},{"name":"장현낚시할인마트","tel":"031-571-4240","addr":"경기도 남양주시 진접읍 내곡리 192-1","category":"레져용품 - 스포츠·레져용품"},{"name":"진접블랙박스","tel":"031-512-4233","addr":"경기도 남양주시 진접읍 내곡리 192-1번지","category":"자동차정비 유지 - 자동차부품"}]},{"lat":"37.682327464","long":"127.15981195","items":[{"name":"수호창호","tel":"031-515-8536","addr":"경기도 남양주시 진접읍 내곡리 376-2번지","category":"건축자재 - 보일러·펌프·샷시"},{"name":"에드가","tel":"031-529-0330","addr":"경기도 남양주시 진접읍 내곡리 376-2번지","category":"가구 - 일반가구"}]},{"lat":"37.686219074","long":"127.16022828","items":[{"name":"신내카센타","tel":"031-528-6158","addr":"경기도 남양주시 진접읍 내곡리 135-9번지","category":"자동차정비 유지 - 자동차정비"}]},{"lat":"37.676328893","long":"127.15142238","items":[{"name":"아산전자","tel":"070-4131-2002","addr":"경기도 남양주시 진접읍 내곡리 622번지 가동","category":"전기제품 - 기타전기제품"}]},{"lat":"37.681048748","long":"127.1523727","items":[{"name":"아이엘지 글로벌","tel":"031-571-2253","addr":"경기도 남양주시 진접읍 내곡리 708-2번지","category":"가구 - 일반가구"}]},{"lat":"37.689721332","long":"127.1620837","items":[{"name":"안마을","tel":"031-571-7235","addr":"경기도 남양주시 진접읍 내곡리 251-3번지","category":"일반휴게음식 - 일반한식"}]},{"lat":"37.680526083","long":"127.15940005","items":[{"name":"알로이마린","tel":"031-574-4903","addr":"경기도 남양주시 진접읍 내곡리 377-1번지 나동","category":"건축자재 - 보일러·펌프·샷시"}]},{"lat":"37.678854541","long":"127.16294467","items":[{"name":"엔포츠","tel":"031-795-2973","addr":"경기도 남양주시 진접읍 내곡리 61","category":"레져용품 - 스포츠·레져용품"}]},{"lat":"37.670995931","long":"127.15783852","items":[{"name":"엘푸드시스템 주식회사","tel":"031-529-0788","addr":"경기도 남양주시 진접읍 내곡리 533-1번지","category":"음료식품 - 기타음료식품"}]},{"lat":"37.685830356","long":"127.16120244","items":[{"name":"오에이박스(OABOX)","tel":"070-8733-7849","addr":"경기도 남양주시 진접읍 내곡리 135-3번지 지층","category":"사무통신 - 사무용 OA기기"},{"name":"용가네기사식당","tel":"031-573-1133","addr":"경기도 남양주시 진접읍 내곡리 135-3번지","category":"일반휴게음식 - 일반한식"}]},{"lat":"37.678747097","long":"127.15564415","items":[{"name":"오쿠아(Oqua)","tel":"031-575-2706","addr":"경기도 남양주시 진접읍 내곡리 403-5번지","category":"문화.취미 - 수족관"}]},{"lat":"37.682914891","long":"127.15845281","items":[{"name":"우리아이","tel":"031-575-2279","addr":"경기도 남양주시 진접읍 내곡리 373-12번지 나동","category":"자동차정비 유지 - 자동차부품"}]},{"lat":"37.675052414","long":"127.15620334","items":[{"name":"우영엔프라/원격지","tel":"031-575-3856","addr":"경기도 남양주시 진접읍 내곡리 448번지","category":"기타 - 기타 전문점"}]},{"lat":"37.672804708","long":"127.15253752","items":[{"name":"우정콘테이너","tel":"031-529-5400","addr":"경기도 남양주시 진접읍 내곡리 580번지","category":"건축자재 - 기타건축자재"}]},{"lat":"37.678829792","long":"127.16125557","items":[{"name":"위드물류","tel":"051-963-3030","addr":"경기도 남양주시 진접읍 내곡리 79-1번지","category":"문화.취미 - 화원"}]},{"lat":"37.67241034","long":"127.15792081","items":[{"name":"임송가든","tel":"031-571-0161","addr":"경기도 남양주시 진접읍 내곡리 501-2번지","category":"일반휴게음식 - 일반한식"},{"name":"임송유원지","tel":"031-571-0161","addr":"경기도 남양주시 진접읍 내곡리 501-2번지","category":"음료식품 - 기타음료식품"},{"name":"임송캠프","tel":"031-571-0161","addr":"경기도 남양주시 진접읍 내곡리 501-2","category":"신변잡화 - 기타잡화"}]},{"lat":"37.683131272","long":"127.15833989","items":[{"name":"장승타이어","tel":"031-572-6874","addr":"경기도 남양주시 진접읍 내곡리 365-4","category":"자동차정비 유지 - 자동차시트·타이어"}]},{"lat":"37.681660088","long":"127.16030934","items":[{"name":"제일상사","tel":"","addr":"경기도 남양주시 진접읍 내곡리 93-7번지 주 1동","category":"전기제품 - 기타전기제품"}]},{"lat":"37.690387736","long":"127.16231187","items":[{"name":"종로천막공사","tel":"031-574-6226","addr":"경기도 남양주시 진접읍 내곡리 258","category":"직물 - 카페트,커튼,천막,지물"}]},{"lat":"37.68554999","long":"127.15517061","items":[{"name":"주식회사 게라지식스(GARAGE SIX)","tel":"070-4142-8097","addr":"경기도 남양주시 진접읍 내곡리 304번지","category":"가구 - 기타가구"}]},{"lat":"37.688991814","long":"127.1618894","items":[{"name":"주식회사 엠티아이","tel":"031-575-4446","addr":"경기도 남양주시 진접읍 내곡리 194-1번지 1층","category":"자동차정비 유지 - 카인테리어"}]},{"lat":"37.68444283","long":"127.1612335","items":[{"name":"주식회사 왕실돌침대","tel":"031-575-3142","addr":"경기도 남양주시 진접읍 내곡리 135-28번지","category":"가구 - 일반가구"}]},{"lat":"37.670770765","long":"127.15778138","items":[{"name":"주식회사 이건에프앤씨","tel":"031-529-5572","addr":"경기도 남양주시 진접읍 내곡리 532-18","category":"음료식품 - 기타음료식품"}]},{"lat":"37.682604457","long":"127.16153567","items":[{"name":"주식회사 한누리푸드","tel":"02-445-7777","addr":"경기도 남양주시 진접읍 내곡리 100-17번지","category":"음료식품 - 기타음료식품"}]},{"lat":"37.678439651","long":"127.15650504","items":[{"name":"준콜렉션","tel":"031-572-9726","addr":"경기도 남양주시 진접읍 내곡리 404-13번지","category":"신변잡화 - 가방"},{"name":"풀스나인","tel":"031-877-4321","addr":"경기도 남양주시 진접읍 내곡리 404-13번지","category":"용역 서비스 - 기타용역서비스"}]},{"lat":"37.68244341","long":"127.16069643","items":[{"name":"중고가구백화점","tel":"031-574-7282","addr":"경기도 남양주시 진접읍 내곡리 99-6","category":"가구 - 일반가구"},{"name":"한아에스에스","tel":"031-572-4136","addr":"경기도 남양주시 진접읍 내곡리 99-6번지","category":"농업 - 농기계"}]},{"lat":"37.680080142","long":"127.16273192","items":[{"name":"지엔엠 물류","tel":"","addr":"경기도 남양주시 진접읍 내곡리 64번지","category":"음료식품 - 기타음료식품"}]},{"lat":"37.681715563","long":"127.16589826","items":[{"name":"진유유통","tel":"031-527-7844","addr":"경기도 남양주시 진접읍 내곡리 29-2번지","category":"의류 - 정장"}]},{"lat":"37.681546741","long":"127.15745236","items":[{"name":"징크지붕(주)","tel":"031-567-0421","addr":"경기도 남양주시 진접읍 내곡리 384-2번지","category":"건축자재 - 기타건축자재"}]},{"lat":"37.669968758","long":"127.15789306","items":[{"name":"짜세레이싱","tel":"031-527-5201","addr":"경기도 남양주시 진접읍 내곡리 533-130번지","category":"자동차정비 유지 - 자동차부품"}]},{"lat":"37.690748044","long":"127.16236933","items":[{"name":"천일콤퓨레샤","tel":"031-572-7408","addr":"경기도 남양주시 진접읍 내곡리 260-2번지","category":"기타 - 기타 전문점"}]},{"lat":"37.685138227","long":"127.16661997","items":[{"name":"청우목공기계","tel":"031-571-1771","addr":"경기도 남양주시 진접읍 내곡리 12번지","category":"기타 - 기계공구"}]},{"lat":"37.6888567","long":"127.16186644","items":[{"name":"칠성세차장","tel":"031-575-2522","addr":"경기도 남양주시 진접읍 내곡리 194-3번지","category":"자동차정비 유지 - 세차장"}]},{"lat":"37.690910109","long":"127.16244904","items":[{"name":"카스전자저울(남양주점)","tel":"031-575-5578","addr":"경기도 남양주시 진접읍 내곡리 261-2번지","category":"기타 - 기계공구"}]},{"lat":"37.684913647","long":"127.16614333","items":[{"name":"커피스토리","tel":"","addr":"경기도 남양주시 진접읍 내곡리 9-5번지","category":"음료식품 - 기타음료식품"}]},{"lat":"37.690019321","long":"127.16158548","items":[{"name":"컴포트","tel":"070-4121-2741","addr":"경기도 남양주시 진접읍 내곡리 252-11번지 컴포트","category":"사무통신 - 컴퓨터"}]},{"lat":"37.679716027","long":"127.15181456","items":[{"name":"타이어 마트","tel":"031-235-0038","addr":"경기도 남양주시 진접읍 내곡리 690번지","category":"자동차정비 유지 - 자동차시트·타이어"}]},{"lat":"37.688244276","long":"127.16169507","items":[{"name":"태양옛날장식","tel":"031-571-6583","addr":"경기도 남양주시 진접읍 내곡리 195-5번지 1호","category":"건축자재 - 목재·석재·철물"}]},{"lat":"37.690269828","long":"127.16288984","items":[{"name":"트윈스OA","tel":"031-527-9675","addr":"경기도 남양주시 진접읍 내곡리 263-5번지 (4호)","category":"사무통신 - 기타 사무용품"}]},{"lat":"37.680577034","long":"127.16172407","items":[{"name":"트윈스래빗","tel":"031-575-7466","addr":"경기도 남양주시 진접읍 내곡리 72번지","category":"전기제품 - 가전제품"}]},{"lat":"37.680964035","long":"127.16203097","items":[{"name":"폴리텍","tel":"031-575-2302","addr":"경기도 남양주시 진접읍 내곡리 68번지","category":"유통업 영리 - 기타유통업"}]},{"lat":"37.689161185","long":"127.16322758","items":[{"name":"하늘창블라인드","tel":"070-8231-1108","addr":"경기도 남양주시 진접읍 내곡리 271-10번지","category":"직물 - 카페트,커튼,천막,지물"}]},{"lat":"37.67446498","long":"127.15055719","items":[{"name":"하우스도어","tel":"031-573-0747","addr":"경기도 남양주시 진접읍 내곡리 603-1번지 1층","category":"건축자재 - 기타건축자재"}]},{"lat":"37.679963616","long":"127.1554766","items":[{"name":"한국자동차진단보증(주)장안센터","tel":"031-3411-0611","addr":"경기도 남양주시 진접읍 내곡리 387-2 38/","category":"자동차정비 유지 - 자동차정비"},{"name":"한국자동차진단보증(주)장안센터","tel":"02-2246-1125","addr":"경기도 남양주시 진접읍 내곡리 387-2 38/","category":"자동차정비 유지 - 자동차정비"}]},{"lat":"37.690378956","long":"127.16214179","items":[{"name":"한끼만두~우리동네밥집","tel":"031-571-8135","addr":"경기도 남양주시 진접읍 내곡리 255번지 1층","category":"일반휴게음식 - 일반한식"}]},{"lat":"37.677135602","long":"127.16153536","items":[{"name":"한빈-디자인앤플랜","tel":"070-7765-6556","addr":"경기도 남양주시 진접읍 내곡리 487","category":"용역 서비스 - 기타용역서비스"}]},{"lat":"37.675245901","long":"127.15287115","items":[{"name":"핫독연기견학교","tel":"","addr":"경기도 남양주시 진접읍 내곡리 619-2번지","category":"문화.취미 - 애완동물"}]},{"lat":"37.689081634","long":"127.16209367","items":[{"name":"해남대장간","tel":"031-527-3439","addr":"경기도 남양주시 진접읍 내곡리 246-5번지","category":"음료식품 - 기타음료식품"}]},{"lat":"37.686860053","long":"127.15925464","items":[{"name":"현대B&M","tel":"031-571-6927","addr":"경기도 남양주시 진접읍 내곡리 210-16 36","category":"회원제형태 - 기타4"}]}]