[{"lat":"37.4409387","long":"127.1507637","items":[{"name":"BHC치킨성남중앙동점","tel":"031-747-9282","addr":"경기도 성남시 중원구 중앙동 657번지","category":""}]},{"lat":"37.4396658","long":"127.1455182","items":[{"name":"PL파크랜드학생복","tel":"031-741-8550","addr":"경기도 성남시 중원구 중앙동 1177번지","category":""}]},{"lat":"37.4430231","long":"127.1554574","items":[{"name":"SS헤어클럽","tel":"031-731-9993","addr":"경기도 성남시 중원구 중앙동 181번지","category":""}]},{"lat":"37.4415223","long":"127.1593981","items":[{"name":"㈜사나푸드 해오름도서관점","tel":"031-732-7792","addr":"경기도 성남시 중원구 중앙동 712번지","category":""}]},{"lat":"37.4410214","long":"127.149487","items":[{"name":"㈜진로마트 중동점","tel":"031-731-7011","addr":"경기도 성남시 중원구 중앙동 703번지","category":""}]},{"lat":"37.4433575","long":"127.1546784","items":[{"name":"감동헤어","tel":"031-736-0288","addr":"경기도 성남시 중원구 중앙동 173번지","category":""}]},{"lat":"37.4427189","long":"127.1538183","items":[{"name":"경기방아간","tel":"031-734-0893","addr":"경기도 성남시 중원구 중앙동 252번지","category":""}]},{"lat":"37.4389179","long":"127.1455733","items":[{"name":"경성상회","tel":"031-743-4687","addr":"경기도 성남시 중원구 중앙동 1353번지","category":""}]},{"lat":"37.4424936","long":"127.1537952","items":[{"name":"고기시장","tel":"031-745-2432","addr":"경기도 성남시 중원구 중앙동 369번지","category":""}]},{"lat":"37.439468","long":"127.1451223","items":[{"name":"곤지약국","tel":"031-746-4703","addr":"경기도 성남시 중원구 중앙동 1196번지","category":""}]},{"lat":"37.4421391","long":"127.1562127","items":[{"name":"광준정육점","tel":"031-608-3658","addr":"경기도 성남시 중원구 중앙동 2029번지","category":""}]},{"lat":"37.4389996","long":"127.1450423","items":[{"name":"그랜드안경","tel":"031-741-8926","addr":"경기도 성남시 중원구 중앙동 1288번지","category":""}]},{"lat":"37.4439954","long":"127.1560357","items":[{"name":"김창숙 부띠끄","tel":"031-731-8924","addr":"경기도 성남시 중원구 중앙동 47번지","category":""}]},{"lat":"37.4433294","long":"127.1554807","items":[{"name":"남매슈퍼","tel":"031-745-9032","addr":"경기도 성남시 중원구 중앙동 133번지","category":""}]},{"lat":"37.4398544","long":"127.1459592","items":[{"name":"노블헤어팀","tel":"031-735-1399","addr":"경기도 성남시 중원구 중앙동 1152번지","category":""}]},{"lat":"37.4428003","long":"127.1535133","items":[{"name":"다비치안경 성남 중동점","tel":"031-736-1001","addr":"경기도 성남시 중원구 중앙동 307번지","category":""},{"name":"오다헤어","tel":"031-734-8886","addr":"경기도 성남시 중원구 중앙동 307번지","category":""}]},{"lat":"37.4397736","long":"127.1457896","items":[{"name":"대왕카스테라","tel":"","addr":"경기도 성남시 중원구 중앙동 1160번지","category":""},{"name":"성남편의점","tel":"031-733-6528","addr":"경기도 성남시 중원구 중앙동 1160번지","category":""}]},{"lat":"37.4409681","long":"127.1488767","items":[{"name":"더원월드(THE ONE WORLD)","tel":"031-753-3419","addr":"경기도 성남시 중원구 중앙동 776번지","category":""}]},{"lat":"37.4427194","long":"127.1534002","items":[{"name":"돈마마","tel":"031-731-2410","addr":"경기도 성남시 중원구 중앙동 317번지","category":""}]},{"lat":"37.4424652","long":"127.1549252","items":[{"name":"돌굴삽겹살","tel":"031-741-1525","addr":"경기도 성남시 중원구 중앙동 2267번지","category":""}]},{"lat":"37.4420529","long":"127.1532406","items":[{"name":"동성각","tel":"031-744-9456","addr":"경기도 성남시 중원구 중앙동 405번지","category":""}]},{"lat":"37.4400252","long":"127.1463437","items":[{"name":"동양체육사","tel":"031-748-1758","addr":"경기도 성남시 중원구 중앙동 1031번지","category":""}]},{"lat":"37.4393329","long":"127.1450656","items":[{"name":"동재약국","tel":"031-744-4247","addr":"경기도 성남시 중원구 중앙동 1198번지","category":""}]},{"lat":"37.4427985","long":"127.1549259","items":[{"name":"맛있는술집","tel":"031-747-7598","addr":"경기도 성남시 중원구 중앙동 257번지","category":""}]},{"lat":"37.442582","long":"127.1551288","items":[{"name":"매일한우명가","tel":"031-745-9095","addr":"경기도 성남시 중원구 중앙동 2066번지","category":""}]},{"lat":"37.4401956","long":"127.1470108","items":[{"name":"매취랑","tel":"031-745-7430","addr":"경기도 성남시 중원구 중앙동 1010번지","category":""}]},{"lat":"37.4416367","long":"127.1545732","items":[{"name":"보람공판장","tel":"031-745-3685","addr":"경기도 성남시 중원구 중앙동 2241번지","category":""}]},{"lat":"37.4430777","long":"127.1550394","items":[{"name":"보물촌 꺼먹돼지","tel":"031-732-6404","addr":"경기도 성남시 중원구 중앙동 196번지","category":""},{"name":"보물촌꺼먹돼지 중앙점","tel":"031-732-6404","addr":"경기도 성남시 중원구 중앙동 196번지","category":""}]},{"lat":"37.4428536","long":"127.1541237","items":[{"name":"부엉이돈가스 단대오거리점","tel":"031-732-1214","addr":"경기도 성남시 중원구 중앙동 236번지","category":""}]},{"lat":"37.4423313","long":"127.1538966","items":[{"name":"산들매운탕","tel":"031-758-0241","addr":"경기도 성남시 중원구 중앙동 371번지","category":""}]},{"lat":"37.4430782","long":"127.1546213","items":[{"name":"삼미왕뚜껑","tel":"031-731-9449","addr":"경기도 성남시 중원구 중앙동 213번지","category":""}]},{"lat":"37.4439147","long":"127.1557644","items":[{"name":"삼영상사","tel":"031-721-0665","addr":"경기도 성남시 중원구 중앙동 65번지","category":""},{"name":"싱싱야채청과","tel":"","addr":"경기도 성남시 중원구 중앙동 65번지","category":""}]},{"lat":"37.4421114","long":"127.156789","items":[{"name":"새옥성이용원","tel":"031-749-7220","addr":"경기도 성남시 중원구 중앙동 1930번지","category":""}]},{"lat":"37.4431941","long":"127.1555934","items":[{"name":"서울김밥","tel":"031-602-8616","addr":"경기도 성남시 중원구 중앙동 135번지","category":""}]},{"lat":"37.4406872","long":"127.1502096","items":[{"name":"성남25마트","tel":"031-734-9246","addr":"경기도 성남시 중원구 중앙동 730번지","category":""}]},{"lat":"37.44147","long":"127.151036","items":[{"name":"소라미용실","tel":"031-749-0966","addr":"경기도 성남시 중원구 중앙동 500번지","category":""}]},{"lat":"37.4419113","long":"127.1511499","items":[{"name":"솜사탕","tel":"","addr":"경기도 성남시 중원구 중앙동 1번지","category":""},{"name":"제이니","tel":"","addr":"경기도 성남시 중원구 중앙동 1번지","category":""}]},{"lat":"37.442411","long":"127.1550155","items":[{"name":"송원이발관","tel":"","addr":"경기도 성남시 중원구 중앙동 2266번지","category":""}]},{"lat":"37.4418028","long":"127.1514547","items":[{"name":"수도모범이발관","tel":"031-745-2767","addr":"경기도 성남시 중원구 중앙동 471번지","category":""}]},{"lat":"37.442665","long":"127.1536826","items":[{"name":"순수국밥","tel":"031-733-4464","addr":"경기도 성남시 중원구 중앙동 310번지","category":""}]},{"lat":"37.4397196","long":"127.1456765","items":[{"name":"스쿨룩스","tel":"031-732-9691","addr":"경기도 성남시 중원구 중앙동 1168번지","category":""},{"name":"청개구리과일집","tel":"","addr":"경기도 성남시 중원구 중앙동 1168번지","category":""}]},{"lat":"37.4427997","long":"127.153988","items":[{"name":"시골밥상","tel":"031-733-8852","addr":"경기도 성남시 중원구 중앙동 243번지","category":""}]},{"lat":"37.4431669","long":"127.1557063","items":[{"name":"신마왕떡볶이","tel":"031-747-3641","addr":"경기도 성남시 중원구 중앙동 129번지","category":""}]},{"lat":"37.4394949","long":"127.1452128","items":[{"name":"신용문구완구","tel":"031-736-4433","addr":"경기도 성남시 중원구 중앙동 1191번지","category":""}]},{"lat":"37.4430249","long":"127.1540675","items":[{"name":"아메리퀴드 성남점","tel":"031-732-4979","addr":"경기도 성남시 중원구 중앙동 238번지","category":""}]},{"lat":"37.4433029","long":"127.155119","items":[{"name":"어전식당","tel":"031-741-0963","addr":"경기도 성남시 중원구 중앙동 153번지","category":""}]},{"lat":"37.4421607","long":"127.1534895","items":[{"name":"억대식당","tel":"","addr":"경기도 성남시 중원구 중앙동 388번지","category":""}]},{"lat":"37.4420816","long":"127.1519073","items":[{"name":"엘이디 전기조명","tel":"031-746-1114","addr":"경기도 성남시 중원구 중앙동 443번지","category":""}]},{"lat":"37.441945","long":"127.1530144","items":[{"name":"영마트","tel":"031-744-3066","addr":"경기도 성남시 중원구 중앙동 415번지","category":""}]},{"lat":"37.4422743","long":"127.1562356","items":[{"name":"월드마트(진미점)","tel":"031-734-3045","addr":"경기도 성남시 중원구 중앙동 2019번지","category":""}]},{"lat":"37.4360765","long":"127.1482345","items":[{"name":"유클리드제일학원","tel":"031-746-9121","addr":"경기도 성남시 중원구 중앙동 577번지 중앙힐스테이트2차","category":""},{"name":"크리아트성남중앙미술학원","tel":"031-627-1117","addr":"경기도 성남시 중원구 중앙동 577번지 중앙동힐스테이트2차","category":""},{"name":"하모니마트 중앙동점","tel":"031-734-1144","addr":"경기도 성남시 중원구 중앙동 577번지 중앙동힐스테이트2차","category":""}]},{"lat":"37.4427994","long":"127.1542931","items":[{"name":"은정이발관","tel":"031-748-7832","addr":"경기도 성남시 중원구 중앙동 281번지","category":""}]},{"lat":"37.4396115","long":"127.1456763","items":[{"name":"이모네","tel":"031-748-5363","addr":"경기도 성남시 중원구 중앙동 1173번지","category":""}]},{"lat":"37.4435283","long":"127.1549273","items":[{"name":"이브자리 성남중동지점","tel":"031-743-3004","addr":"경기도 성남시 중원구 중앙동 149번지","category":""}]},{"lat":"37.443663","long":"127.1552892","items":[{"name":"이안경나라","tel":"031-734-8585","addr":"경기도 성남시 중원구 중앙동 95번지","category":""}]},{"lat":"37.4415252","long":"127.1571833","items":[{"name":"이천농산","tel":"031-747-2958","addr":"경기도 성남시 중원구 중앙동 1867번지","category":""}]},{"lat":"37.4411925","long":"127.1495438","items":[{"name":"인쇄와타올","tel":"031-749-0148","addr":"경기도 성남시 중원구 중앙동 701번지","category":""}]},{"lat":"37.4441933","long":"127.1563412","items":[{"name":"인한의원","tel":"031-732-1075","addr":"경기도 성남시 중원구 중앙동 30번지","category":""}]},{"lat":"37.442333","long":"127.1526197","items":[{"name":"일등갈비","tel":"031-734-9771","addr":"경기도 성남시 중원구 중앙동 361번지","category":""}]},{"lat":"37.4434385","long":"127.1547577","items":[{"name":"정관정단대오거리홍삼매장","tel":"031-744-0389","addr":"경기도 성남시 중원구 중앙동 161번지","category":""}]},{"lat":"37.442468","long":"127.152733","items":[{"name":"제이오댄스 학원","tel":"","addr":"경기도 성남시 중원구 중앙동 352번지","category":""}]},{"lat":"37.4425205","long":"127.1539535","items":[{"name":"제주식당","tel":"031-736-7310","addr":"경기도 성남시 중원구 중앙동 304번지","category":""}]},{"lat":"37.4423568","long":"127.1550945","items":[{"name":"중동왕족발","tel":"031-744-5224","addr":"경기도 성남시 중원구 중앙동 2265번지","category":""}]},{"lat":"37.4395847","long":"127.1454615","items":[{"name":"쵸코츄츄","tel":"031-749-8788","addr":"경기도 성남시 중원구 중앙동 1182번지","category":""}]},{"lat":"37.4423305","long":"127.1545633","items":[{"name":"충남세탁소 중앙","tel":"031-734-9928","addr":"경기도 성남시 중원구 중앙동 2288번지","category":""}]},{"lat":"37.4427168","long":"127.1554003","items":[{"name":"탑플러스보습학원","tel":"031-732-1009","addr":"경기도 성남시 중원구 중앙동 2039번지","category":""}]},{"lat":"37.4436627","long":"127.1555378","items":[{"name":"파리바게뜨 성남중동점","tel":"031-732-8295","addr":"경기도 성남시 중원구 중앙동 83번지","category":""}]},{"lat":"37.4415227","long":"127.1520983","items":[{"name":"포천집","tel":"031-732-6766","addr":"경기도 성남시 중원구 중앙동 585번지","category":""}]},{"lat":"37.4427707","long":"127.1555925","items":[{"name":"피자마루(중앙동점)","tel":"031-736-1082","addr":"경기도 성남시 중원구 중앙동 2009번지","category":""}]},{"lat":"37.4403034","long":"127.1472031","items":[{"name":"한누리간호조무사학원","tel":"","addr":"경기도 성남시 중원구 중앙동 1005번지","category":""},{"name":"한누리요양보호사교육원","tel":"","addr":"경기도 성남시 중원구 중앙동 1005번지","category":""}]},{"lat":"37.439106","long":"127.1464889","items":[{"name":"한우마을명신","tel":"031-741-7625","addr":"경기도 성남시 중원구 중앙동 1303번지","category":""}]},{"lat":"37.4412981","long":"127.1516006","items":[{"name":"한일중고가전랜드","tel":"031-735-1555","addr":"경기도 성남시 중원구 중앙동 612번지","category":""}]},{"lat":"37.441332","long":"127.1533183","items":[{"name":"형제식품 중앙점","tel":"031-741-3228","addr":"경기도 성남시 중원구 중앙동 2398번지","category":""}]}]