[{"lat":"37.156139733","long":"127.07796874","imageIndex":13,"items":[{"name":"(주)에이블리츠","tel":"031-372-0023","addr":"경기도 오산시 오산동 919-17번지 지층 201호","indutype":"레저업소 - 수 영 장","category":"leisure"},{"name":"리밸런스 휘트니스","tel":"031-376-3389","addr":"경기도 오산시 오산동 919-17번지 3층 301,302호","indutype":"레저업소 - 헬스클럽","category":"leisure"},{"name":"서브마린/(주)에이블리츠","tel":"031-372-0023","addr":"경기도 오산시 오산동 919-17번지","indutype":"레저업소 - 수 영 장","category":"leisure"},{"name":"중앙프라자","tel":"031-376-3389","addr":"경기도 오산시 오산동 919-17번지","indutype":"레저업소 - 헬스클럽","category":"leisure"}]},{"lat":"37.149279501","long":"127.06828148","imageIndex":13,"items":[{"name":"777교포활동실","tel":"","addr":"경기도 오산시 오산동 874-4번지 2층","indutype":"레저업소 - 기타레져업소","category":"leisure"}]},{"lat":"37.14433289","long":"127.0680296","imageIndex":13,"items":[{"name":"PC토랑","tel":"070-7666-8567","addr":"경기도 오산시 오산동 882-1번지 명신빌딩 2층","indutype":"레저업소 - 기타레져업소","category":"leisure"},{"name":"명신볼링클럽","tel":"031-374-1212","addr":"경기도 오산시 오산동 882-1번지","indutype":"레저업소 - 볼 링 장","category":"leisure"},{"name":"베스트PC","tel":"02-222-2222","addr":"경기도 오산시 오산동 882-1번지 명신예식홀 2층 202호","indutype":"레저업소 - 기타레져업소","category":"leisure"},{"name":"포시즌노래연습장","tel":"031-375-5678","addr":"경기도 오산시 오산동 882-1번지 3층","indutype":"레저업소 - 노 래 방","category":"leisure"}]},{"lat":"37.149311425","long":"127.07536177","imageIndex":13,"items":[{"name":"pc토랑오산시청점","tel":"","addr":"경기도 오산시 오산동 924-3번지 장동빌딩 5층","indutype":"레저업소 - 기타레져업소","category":"leisure"},{"name":"고스트캐슬PC방(오산시청점)","tel":"031-0000-0000","addr":"경기도 오산시 오산동 924-3번지 유길빌딩 5층","indutype":"레저업소 - 기타레져업소","category":"leisure"},{"name":"에스비에스 당구클럽(SBS 당구클럽)","tel":"031-374-5502","addr":"경기도 오산시 오산동 924-3번지 유길빌딩 6층","indutype":"레저업소 - 당 구 장","category":"leisure"},{"name":"피시(PC)토랑 오산시청점","tel":"070-5565-3291","addr":"경기도 오산시 오산동 924-3번지 장동빌딩 5층","indutype":"레저업소 - 기타레져업소","category":"leisure"}]},{"lat":"37.14711702","long":"127.06822334","imageIndex":13,"items":[{"name":"개그개그pc방","tel":"031-376-8003","addr":"경기도 오산시 오산동 879-12번지","indutype":"레저업소 - 기타레져업소","category":"leisure"}]},{"lat":"37.150666775","long":"127.06889053","imageIndex":13,"items":[{"name":"골든노래방","tel":"031-375-8331","addr":"경기도 오산시 오산동 856-13번지","indutype":"레저업소 - 노 래 방","category":"leisure"}]},{"lat":"37.152087269","long":"127.07434005","imageIndex":13,"items":[{"name":"골프존비발디","tel":"031-374-7070","addr":"경기도 오산시 오산동 268번지 3층","indutype":"레저업소 - 스크린골프","category":"leisure"}]},{"lat":"37.153450055","long":"127.0705815","imageIndex":13,"items":[{"name":"공원당구장","tel":"031-378-7752","addr":"경기도 오산시 오산동 316-23번지","indutype":"레저업소 - 당 구 장","category":"leisure"},{"name":"열린노래연습장","tel":"031-377-4799","addr":"경기도 오산시 오산동 316-23번지","indutype":"레저업소 - 노 래 방","category":"leisure"}]},{"lat":"37.150582576","long":"127.07424858","imageIndex":13,"items":[{"name":"노랑버스키즈방방","tel":"031-375-8838","addr":"경기도 오산시 오산동 260-1번지 청강빌딩 201호","indutype":"레저업소 - 기타레져업소","category":"leisure"},{"name":"오산노래방","tel":"031-372-3482","addr":"경기도 오산시 오산동 260-1번지 청강빌딩 202호","indutype":"레저업소 - 노 래 방","category":"leisure"},{"name":"오산생활탁구장","tel":"031-372-4666","addr":"경기도 오산시 오산동 260-1번지 청강빌딩 301호","indutype":"레저업소 - 기타레져업소","category":"leisure"}]},{"lat":"37.148558663","long":"127.06828086","imageIndex":13,"items":[{"name":"뉴뉴아미노래연습장","tel":"031-378-8856","addr":"경기도 오산시 오산동 875-2번지 3층","indutype":"레저업소 - 노 래 방","category":"leisure"}]},{"lat":"37.138278133","long":"127.06750669","imageIndex":13,"items":[{"name":"대명스크린골프존","tel":"031-373-2616","addr":"경기도 오산시 오산동 789-2번지 4층 오산스포렉스","indutype":"레저업소 - 스크린골프","category":"leisure"},{"name":"오산스포렉스","tel":"031-372-5722","addr":"경기도 오산시 오산동 789-2번지","indutype":"레저업소 - 골프연습장","category":"leisure"},{"name":"주식회사 오산골프클럽","tel":"031-372-5722","addr":"경기도 오산시 오산동 789-2번지 2층","indutype":"레저업소 - 골프연습장","category":"leisure"}]},{"lat":"37.149644418","long":"127.0760037","imageIndex":13,"items":[{"name":"드림노래연습장","tel":"031-377-2080","addr":"경기도 오산시 오산동 925-12번지 거성프라자 202호","indutype":"레저업소 - 노 래 방","category":"leisure"},{"name":"드림노래연습장","tel":"031-378-2414","addr":"경기도 오산시 오산동 925-12번지 거성프라자 2층 202호","indutype":"레저업소 - 노 래 방","category":"leisure"},{"name":"라이또 PC방","tel":"","addr":"경기도 오산시 오산동 925-12번지 거성프라자 201호","indutype":"레저업소 - 기타레져업소","category":"leisure"},{"name":"피지에이-골프 아카데미","tel":"031-372-7999","addr":"경기도 오산시 오산동 925-12번지 거성프라자 701,702호","indutype":"레저업소 - 골프연습장","category":"leisure"}]},{"lat":"37.156636775","long":"127.07561642","imageIndex":13,"items":[{"name":"락큐노래연습장","tel":"031-375-6001","addr":"경기도 오산시 오산동 82-5번지 101호","indutype":"레저업소 - 노 래 방","category":"leisure"}]},{"lat":"37.153387219","long":"127.07016493","imageIndex":13,"items":[{"name":"로얄노래연습장","tel":"031-375-5049","addr":"경기도 오산시 오산동 313-1번지","indutype":"레저업소 - 노 래 방","category":"leisure"}]},{"lat":"37.149257753","long":"127.0747201","imageIndex":13,"items":[{"name":"롯데노래방","tel":"031-378-4473","addr":"경기도 오산시 오산동 925-3번지 화성프라자 203호","indutype":"레저업소 - 노 래 방","category":"leisure"},{"name":"샹떼PC방 오산시청점","tel":"","addr":"경기도 오산시 오산동 925-3번지 화성프라자 6층 601호","indutype":"레저업소 - 기타레져업소","category":"leisure"},{"name":"큐당구장","tel":"031-377-7351","addr":"경기도 오산시 오산동 925-3번지 화성프라자 302호","indutype":"레저업소 - 당 구 장","category":"leisure"},{"name":"힐링","tel":"031-377-7794","addr":"경기도 오산시 오산동 925-3번지 화성프라자 303호","indutype":"레저업소 - 헬스클럽","category":"leisure"}]},{"lat":"37.151168236","long":"127.0742829","imageIndex":13,"items":[{"name":"마루스크린골프","tel":"031-377-2205","addr":"경기도 오산시 오산동 262-7번지 외2필지","indutype":"레저업소 - 스크린골프","category":"leisure"}]},{"lat":"37.150333494","long":"127.06869888","imageIndex":13,"items":[{"name":"맥스복싱짐오산관","tel":"031-376-6314","addr":"경기도 오산시 오산동 859-5번지 3층","indutype":"레저업소 - 헬스클럽","category":"leisure"}]},{"lat":"37.148915675","long":"127.07419073","imageIndex":13,"items":[{"name":"명성노래연습장","tel":"031-677-3144","addr":"경기도 오산시 오산동 910-11번지 덕화빌딩 지하1층","indutype":"레저업소 - 노 래 방","category":"leisure"}]},{"lat":"37.149672214","long":"127.07475426","imageIndex":13,"items":[{"name":"밀크노래방","tel":"031-372-6085","addr":"경기도 오산시 오산동 925-1번지 운암프라자3차 202호","indutype":"레저업소 - 노 래 방","category":"leisure"},{"name":"밀크노래연습장","tel":"031-372-6085","addr":"경기도 오산시 오산동 925-1번지 운암프라자3차 202호","indutype":"레저업소 - 노 래 방","category":"leisure"}]},{"lat":"37.149194979","long":"127.07422476","imageIndex":13,"items":[{"name":"바나나노래연습장","tel":"031-376-0307","addr":"경기도 오산시 오산동 910-9번지 2층","indutype":"레저업소 - 노 래 방","category":"leisure"}]},{"lat":"37.148978374","long":"127.07480989","imageIndex":13,"items":[{"name":"빅토리짐","tel":"031-372-9488","addr":"경기도 오산시 오산동 925-5번지 월드타워 7층","indutype":"레저업소 - 헬스클럽","category":"leisure"},{"name":"왕눈이노래연습장","tel":"031-375-3381","addr":"경기도 오산시 오산동 925-5번지 월드타워 201호","indutype":"레저업소 - 노 래 방","category":"leisure"}]},{"lat":"37.157196535","long":"127.07378198","imageIndex":13,"items":[{"name":"사단법인 오산스포츠클럽","tel":"031-378-1907","addr":"경기도 오산시 오산동 49번지","indutype":"레저업소 - 헬스클럽","category":"leisure"},{"name":"사단법인 오산스포츠클럽","tel":"031-378-0086","addr":"경기도 오산시 오산동 49번지","indutype":"레저업소 - 기타레져업소","category":"leisure"},{"name":"사단법인 오산스포츠클럽","tel":"031-378-0086","addr":"경기도 오산시 오산동 49번지 오산종합운동장 내","indutype":"레저업소 - 기타레져업소","category":"leisure"}]},{"lat":"37.150640049","long":"127.06833894","imageIndex":13,"items":[{"name":"샵노래연습장","tel":"031-373-2199","addr":"경기도 오산시 오산동 857-20번지","indutype":"레저업소 - 노 래 방","category":"leisure"}]},{"lat":"37.148974747","long":"127.06530955","imageIndex":13,"items":[{"name":"쉬리노래연습장","tel":"031-375-8235","addr":"경기도 오산시 오산동 609-54번지 1층","indutype":"레저업소 - 노 래 방","category":"leisure"},{"name":"쉬리노래연습장","tel":"031-375-2801","addr":"경기도 오산시 오산동 609-54번지","indutype":"레저업소 - 노 래 방","category":"leisure"}]},{"lat":"37.149419157","long":"127.07600348","imageIndex":13,"items":[{"name":"스카이 당구장","tel":"031-378-9715","addr":"경기도 오산시 오산동 925-11번지 한지프라자 501동 502호","indutype":"레저업소 - 당 구 장","category":"leisure"}]},{"lat":"37.149311273","long":"127.07560941","imageIndex":13,"items":[{"name":"스카이노래연습장","tel":"031-665-2824","addr":"경기도 오산시 오산동 924-5번지 코아프라자 6층 601호","indutype":"레저업소 - 노 래 방","category":"leisure"}]},{"lat":"37.149590749","long":"127.07536203","imageIndex":13,"items":[{"name":"스트라이크존 경기 오산구장","tel":"031-465-8765","addr":"경기도 오산시 오산동 924-1번지 거성그린프라자 2층 8호","indutype":"레저업소 - 기타레져업소","category":"leisure"},{"name":"지엔락펍","tel":"031-465-5324","addr":"경기도 오산시 오산동 924-1번지 거성그린프라자 122호 208호","indutype":"레저업소 - 볼 링 장","category":"leisure"}]},{"lat":"37.156339685","long":"127.07519961","imageIndex":13,"items":[{"name":"에이원피시존","tel":"02-222-2222","addr":"경기도 오산시 오산동 79-2번지 2층","indutype":"레저업소 - 기타레져업소","category":"leisure"}]},{"lat":"37.145360238","long":"127.06774909","imageIndex":13,"items":[{"name":"역정당구장","tel":"031-377-3265","addr":"경기도 오산시 오산동 881-13번지 3층","indutype":"레저업소 - 당 구 장","category":"leisure"}]},{"lat":"37.153387594","long":"127.06950077","imageIndex":13,"items":[{"name":"열린노래연습장","tel":"031-377-4799","addr":"경기도 오산시 오산동 433-10번지","indutype":"레저업소 - 노 래 방","category":"leisure"}]},{"lat":"37.149891706","long":"127.06919378","imageIndex":13,"items":[{"name":"오색당구장","tel":"031-663-0447","addr":"경기도 오산시 오산동 861-1번지 2층","indutype":"레저업소 - 당 구 장","category":"leisure"}]},{"lat":"37.144062545","long":"127.06808565","imageIndex":13,"items":[{"name":"우정스크린골프연습장","tel":"031-111-1111","addr":"경기도 오산시 오산동 882-2번지 탑프라자 202호","indutype":"레저업소 - 스크린골프","category":"leisure"}]},{"lat":"37.1565015","long":"127.07580767","imageIndex":13,"items":[{"name":"운암당구클럽","tel":"031-373-5245","addr":"경기도 오산시 오산동 911-25번지 2층","indutype":"레저업소 - 당 구 장","category":"leisure"}]},{"lat":"37.155448155","long":"127.07436572","imageIndex":13,"items":[{"name":"이로운친구PC방","tel":"070-8222-3018","addr":"경기도 오산시 오산동 74-18번지 2층","indutype":"레저업소 - 기타레져업소","category":"leisure"}]},{"lat":"37.149951844","long":"127.07424799","imageIndex":13,"items":[{"name":"진당구장","tel":"031-378-1466","addr":"경기도 오산시 오산동 910-3번지 상진프라자 2층","indutype":"레저업소 - 당 구 장","category":"leisure"}]},{"lat":"37.149726596","long":"127.07422526","imageIndex":13,"items":[{"name":"채플린노래연습장","tel":"031-377-9007","addr":"경기도 오산시 오산동 910-5번지 월하빌딩 지하1층","indutype":"레저업소 - 노 래 방","category":"leisure"},{"name":"피크바이짐오산점","tel":"031-378-8890","addr":"경기도 오산시 오산동 910-5번지 월하빌딩 4층 401호","indutype":"레저업소 - 헬스클럽","category":"leisure"}]},{"lat":"37.149110468","long":"127.06422905","imageIndex":13,"items":[{"name":"축제노래방","tel":"031-372-7389","addr":"경기도 오산시 오산동 612-1번지","indutype":"레저업소 - 노 래 방","category":"leisure"}]},{"lat":"37.149396456","long":"127.06860802","imageIndex":13,"items":[{"name":"크로바","tel":"031-663-8881","addr":"경기도 오산시 오산동 873-1번지 로타리클럽 2층 201호","indutype":"레저업소 - 헬스클럽","category":"leisure"}]},{"lat":"37.157087353","long":"127.07552679","imageIndex":13,"items":[{"name":"투펏스크린","tel":"031-274-2045","addr":"경기도 오산시 오산동 81-1번지 1층","indutype":"레저업소 - 스크린골프","category":"leisure"}]},{"lat":"37.148951123","long":"127.07517006","imageIndex":13,"items":[{"name":"피에스타 PC","tel":"","addr":"경기도 오산시 오산동 925-6번지 오산그린프라자 5층","indutype":"레저업소 - 기타레져업소","category":"leisure"}]},{"lat":"37.148360452","long":"127.06824692","imageIndex":13,"items":[{"name":"향기운동요법","tel":"070-4001-6708","addr":"경기도 오산시 오산동 875-8번지","indutype":"레저업소 - 헬스클럽","category":"leisure"}]},{"lat":"37.148950889","long":"127.07555278","imageIndex":13,"items":[{"name":"헌터PC오산본점","tel":"070-2377-0917","addr":"경기도 오산시 오산동 925-13번지 웰리스타워 4층 403,404호","indutype":"레저업소 - 기타레져업소","category":"leisure"}]}]