[{"lat":"37.691765472","long":"126.72232694","imageIndex":4,"items":[{"name":"(신)헝그리웍","tel":"031-923-5282","addr":"경기도 고양시 일산서구 가좌동 461-14번지","indutype":"일반휴게음식 - 중국식","category":"restaurant"},{"name":"샤브칼국수만두전골","tel":"031-921-1966","addr":"경기도 고양시 일산서구 가좌동 461-14번지","indutype":"일반휴게음식 - 일반한식","category":"restaurant"},{"name":"오늘통닭","tel":"031-923-1977","addr":"경기도 고양시 일산서구 가좌동 461-14번지","indutype":"일반휴게음식 - 일반한식","category":"restaurant"},{"name":"호재래","tel":"031-913-8983","addr":"경기도 고양시 일산서구 가좌동 461-14번지","indutype":"일반휴게음식 - 일반한식","category":"restaurant"}]},{"lat":"37.684901715","long":"126.72298765","imageIndex":4,"items":[{"name":"(하모)참장어","tel":"031-922-7570","addr":"경기도 고양시 일산서구 가좌동 237-1번지","indutype":"일반휴게음식 - 일반한식","category":"restaurant"}]},{"lat":"37.68590018","long":"126.71855116","imageIndex":4,"items":[{"name":"3.3생(  )삼겹","tel":"031-000-0000","addr":"경기도 고양시 일산서구 가좌동 397-2번지","indutype":"일반휴게음식 - 일반한식","category":"restaurant"},{"name":"미야김밥","tel":"031-921-9222","addr":"경기도 고양시 일산서구 가좌동 397-2번지","indutype":"일반휴게음식 - 일반한식","category":"restaurant"}]},{"lat":"37.687904817","long":"126.72421212","imageIndex":4,"items":[{"name":"가자오리농장","tel":"031-925-9005","addr":"경기도 고양시 일산서구 가좌동 161-4번지","indutype":"일반휴게음식 - 일반한식","category":"restaurant"}]},{"lat":"37.702404672","long":"126.72565466","imageIndex":4,"items":[{"name":"가좌오리숯불갈비","tel":"031-922-7288","addr":"경기도 고양시 일산서구 가좌동 36-5번지","indutype":"일반휴게음식 - 일반한식","category":"restaurant"}]},{"lat":"37.685567565","long":"126.71885852","imageIndex":4,"items":[{"name":"가좌장군돼지부속","tel":"031-923-9295","addr":"경기도 고양시 일산서구 가좌동 395번지","indutype":"일반휴게음식 - 일반한식","category":"restaurant"}]},{"lat":"37.685956638","long":"126.71954859","imageIndex":4,"items":[{"name":"개화기싸롱","tel":"031-925-5687","addr":"경기도 고양시 일산서구 가좌동 392-26번지","indutype":"일반휴게음식 - 주점","category":"restaurant"},{"name":"별미감자탕","tel":"031-921-6678","addr":"경기도 고양시 일산서구 가좌동 392-26번지","indutype":"일반휴게음식 - 일반한식","category":"restaurant"}]},{"lat":"37.686044934","long":"126.71880002","imageIndex":4,"items":[{"name":"고기잘굽는 동동이네","tel":"031-9147-3333","addr":"경기도 고양시 일산서구 가좌동 392-18번지","indutype":"일반휴게음식 - 일반한식","category":"restaurant"}]},{"lat":"37.685685437","long":"126.72293936","imageIndex":4,"items":[{"name":"고바우식당","tel":"031-923-1541","addr":"경기도 고양시 일산서구 가좌동 364-5번지","indutype":"일반휴게음식 - 일반한식","category":"restaurant"},{"name":"대대로수제갈비","tel":"031-919-9293","addr":"경기도 고양시 일산서구 가좌동 364-5번지","indutype":"일반휴게음식 - 일반한식","category":"restaurant"}]},{"lat":"37.685765338","long":"126.72244023","imageIndex":4,"items":[{"name":"공 갤러리 카페","tel":"031-827-9288","addr":"경기도 고양시 일산서구 가좌동 364-6번지","indutype":"일반휴게음식 - 서양음식","category":"restaurant"}]},{"lat":"37.684845637","long":"126.7221376","imageIndex":4,"items":[{"name":"굼터","tel":"031-915-6438","addr":"경기도 고양시 일산서구 가좌동 346-6번지","indutype":"일반휴게음식 - 일반한식","category":"restaurant"},{"name":"왕의커피","tel":"031-914-8801","addr":"경기도 고양시 일산서구 가좌동 346-6번지","indutype":"일반휴게음식 - 서양음식","category":"restaurant"},{"name":"천장어","tel":"031-912-2221","addr":"경기도 고양시 일산서구 가좌동 346-6번지","indutype":"일반휴게음식 - 일반한식","category":"restaurant"}]},{"lat":"37.685651103","long":"126.71987853","imageIndex":4,"items":[{"name":"굽네치킨일산가좌점","tel":"031-922-8294","addr":"경기도 고양시 일산서구 가좌동","indutype":"일반휴게음식 - 주점","category":"restaurant"},{"name":"본죽가좌점","tel":"031-922-6233","addr":"경기도 고양시 일산서구 가좌동 392-22번지","indutype":"일반휴게음식 - 일반한식","category":"restaurant"},{"name":"에이치(H)","tel":"070-4649-1101","addr":"경기도 고양시 일산서구 가좌동 392-22번지","indutype":"일반휴게음식 - 서양음식","category":"restaurant"},{"name":"와우한잔","tel":"031-914-0450","addr":"경기도 고양시 일산서구 가좌동 392-22번지","indutype":"일반휴게음식 - 주점","category":"restaurant"},{"name":"피자마루일산가좌점","tel":"031-923-1082","addr":"경기도 고양시 일산서구 가좌동 392-22번지","indutype":"일반휴게음식 - 서양음식","category":"restaurant"}]},{"lat":"37.685336341","long":"126.7201178","imageIndex":4,"items":[{"name":"꼬레랑옛날통닭","tel":"031-923-5900","addr":"경기도 고양시 일산서구 가좌동 308-1번지","indutype":"일반휴게음식 - 스넥","category":"restaurant"},{"name":"스시현","tel":"031-918-1717","addr":"경기도 고양시 일산서구 가좌동 308-1번지","indutype":"일반휴게음식 - 일식·회집","category":"restaurant"}]},{"lat":"37.693151156","long":"126.72157341","imageIndex":4,"items":[{"name":"남촌오리","tel":"031-923-7046","addr":"경기도 고양시 일산서구 가좌동 492-2번지","indutype":"일반휴게음식 - 일반한식","category":"restaurant"}]},{"lat":"37.690876489","long":"126.72357743","imageIndex":4,"items":[{"name":"냥떼목장","tel":"","addr":"경기도 고양시 일산서구 가좌동 135-5번지","indutype":"일반휴게음식 - 서양음식","category":"restaurant"}]},{"lat":"37.686044333","long":"126.71855061","imageIndex":4,"items":[{"name":"더족발","tel":"031-921-7778","addr":"경기도 고양시 일산서구 가좌동 397-4번지","indutype":"일반휴게음식 - 일반한식","category":"restaurant"},{"name":"왕대포차","tel":"","addr":"경기도 고양시 일산서구 가좌동 397-4번지","indutype":"일반휴게음식 - 일반한식","category":"restaurant"}]},{"lat":"37.688183738","long":"126.72405236","imageIndex":4,"items":[{"name":"돈치돈치두루치기 가좌점","tel":"070-8835-2181","addr":"경기도 고양시 일산서구 가좌동 161-1번지","indutype":"일반휴게음식 - 일반한식","category":"restaurant"},{"name":"커피신조","tel":"031-911-3305","addr":"경기도 고양시 일산서구 가좌동 161-1번지","indutype":"일반휴게음식 - 서양음식","category":"restaurant"},{"name":"호연아구찜","tel":"031-7580-1537","addr":"경기도 고양시 일산서구 가좌동 161-1번지","indutype":"일반휴게음식 - 일반한식","category":"restaurant"}]},{"lat":"37.692124259","long":"126.72165665","imageIndex":4,"items":[{"name":"동네화로","tel":"031-923-1717","addr":"경기도 고양시 일산서구 가좌동 462-4번지","indutype":"일반휴게음식 - 주점","category":"restaurant"},{"name":"쭈꾸미명가","tel":"031-923-3020","addr":"경기도 고양시 일산서구 가좌동 462-4번지","indutype":"일반휴게음식 - 일반한식","category":"restaurant"}]},{"lat":"37.694708004","long":"126.72460618","imageIndex":4,"items":[{"name":"두신마을","tel":"031-923-8893","addr":"경기도 고양시 일산서구 가좌동 91-1번지","indutype":"일반휴게음식 - 일반한식","category":"restaurant"}]},{"lat":"37.693600647","long":"126.7137144","imageIndex":4,"items":[{"name":"로커스 치킨","tel":"031-923-1245","addr":"경기도 고양시 일산서구 가좌동 648-14번지","indutype":"일반휴게음식 - 스넥","category":"restaurant"}]},{"lat":"37.687378426","long":"126.71882895","imageIndex":4,"items":[{"name":"롯데리아일산가좌점","tel":"031-921-0775","addr":"경기도 고양시 일산서구 가좌동 405-10번지","indutype":"일반휴게음식 - 서양음식","category":"restaurant"}]},{"lat":"37.699814624","long":"126.71632093","imageIndex":4,"items":[{"name":"마니산산채","tel":"032-937-8712","addr":"경기도 고양시 일산서구 가좌동 582번지","indutype":"일반휴게음식 - 일반한식","category":"restaurant"}]},{"lat":"37.694041122","long":"126.72074236","imageIndex":4,"items":[{"name":"마루밥상","tel":"","addr":"경기도 고양시 일산서구 가좌동 490-1번지","indutype":"일반휴게음식 - 일반한식","category":"restaurant"}]},{"lat":"37.686956233","long":"126.71935206","imageIndex":4,"items":[{"name":"맘스터치 일산가좌점","tel":"031-922-2252","addr":"경기도 고양시 일산서구 가좌동 390-11번지","indutype":"일반휴게음식 - 서양음식","category":"restaurant"},{"name":"오만족","tel":"031-923-2848","addr":"경기도 고양시 일산서구 가좌동 390-11번지","indutype":"일반휴게음식 - 스넥","category":"restaurant"}]},{"lat":"37.685542336","long":"126.71960685","imageIndex":4,"items":[{"name":"먹고가 고기대장","tel":"031-922-1048","addr":"경기도 고양시 일산서구 가좌동 393-3번지","indutype":"일반휴게음식 - 일반한식","category":"restaurant"},{"name":"오시오(OCO)치킨","tel":"02-1544-3886","addr":"경기도 고양시 일산서구 가좌동 393-3번지","indutype":"일반휴게음식 - 스넥","category":"restaurant"}]},{"lat":"37.684927909","long":"126.72263611","imageIndex":4,"items":[{"name":"명륜진사갈비 일산가좌점","tel":"031-922-4004","addr":"경기도 고양시 일산서구 가좌동 344-6번지","indutype":"일반휴게음식 - 일반한식","category":"restaurant"}]},{"lat":"37.690400941","long":"126.72440686","imageIndex":4,"items":[{"name":"미스터 순대국","tel":"031-911-5253","addr":"경기도 고양시 일산서구 가좌동 145-1번지","indutype":"일반휴게음식 - 일반한식","category":"restaurant"},{"name":"사부자 제주흑돼지","tel":"02-994-2201","addr":"경기도 고양시 일산서구 가좌동 145-1번지","indutype":"일반휴게음식 - 일반한식","category":"restaurant"}]},{"lat":"37.684907759","long":"126.72174058","imageIndex":4,"items":[{"name":"박자매분식","tel":"031-921-4634","addr":"경기도 고양시 일산서구 가좌동 346-1번지","indutype":"일반휴게음식 - 스넥","category":"restaurant"},{"name":"오후의마들렌","tel":"031-1111-1111","addr":"경기도 고양시 일산서구 가좌동 346-1번지","indutype":"일반휴게음식 - 일반한식","category":"restaurant"},{"name":"휴","tel":"031-923-0895","addr":"경기도 고양시 일산서구 가좌동 346-1번지","indutype":"일반휴게음식 - 주점","category":"restaurant"}]},{"lat":"37.685713435","long":"126.71957219","imageIndex":4,"items":[{"name":"부어치킨 일산가좌점","tel":"070-7529-8843","addr":"경기도 고양시 일산서구 가좌동 393-4번지","indutype":"일반휴게음식 - 스넥","category":"restaurant"},{"name":"오달매즉석떡뽁기전문점","tel":"031-925-5431","addr":"경기도 고양시 일산서구 가좌동 393-4번지","indutype":"일반휴게음식 - 일반한식","category":"restaurant"}]},{"lat":"37.684067654","long":"126.71707305","imageIndex":4,"items":[{"name":"비비큐","tel":"031-918-9500","addr":"경기도 고양시 일산서구 가좌동 772-1번지","indutype":"일반휴게음식 - 일반한식","category":"restaurant"},{"name":"황금콩짜장","tel":"031-923-8911","addr":"경기도 고양시 일산서구 가좌동 772-1번지","indutype":"일반휴게음식 - 일반한식","category":"restaurant"}]},{"lat":"37.68510006","long":"126.72304359","imageIndex":4,"items":[{"name":"뽕's","tel":"031-911-5663","addr":"경기도 고양시 일산서구 가좌동 237-5번지","indutype":"일반휴게음식 - 중국식","category":"restaurant"},{"name":"지푸라기 동태한마리","tel":"031-911-3690","addr":"경기도 고양시 일산서구 가좌동 237-5번지","indutype":"일반휴게음식 - 일반한식","category":"restaurant"},{"name":"지푸라기 동태한마리","tel":"031-911-3690","addr":"경기도 고양시 일산서구 가좌동 237-5번지","indutype":"일반휴게음식 - 일반한식","category":"restaurant"}]},{"lat":"37.691962953","long":"126.72202007","imageIndex":4,"items":[{"name":"사과나무횟집","tel":"","addr":"경기도 고양시 일산서구 가좌동 461-15번지","indutype":"일반휴게음식 - 일식·회집","category":"restaurant"}]},{"lat":"37.686181876","long":"126.72332295","imageIndex":4,"items":[{"name":"서정돌솥순대국","tel":"031-923-1238","addr":"경기도 고양시 일산서구 가좌동 201-2번지","indutype":"일반휴게음식 - 일반한식","category":"restaurant"}]},{"lat":"37.692348117","long":"126.72107757","imageIndex":4,"items":[{"name":"소담","tel":"031-1111-1111","addr":"경기도 고양시 일산서구 가좌동 458-12번지","indutype":"일반휴게음식 - 일반한식","category":"restaurant"}]},{"lat":"37.69095943","long":"126.72057263","imageIndex":4,"items":[{"name":"손맛고을 가좌점","tel":"070-4151-7272","addr":"경기도 고양시 일산서구 가좌동 1087번지","indutype":"일반휴게음식 - 일반한식","category":"restaurant"}]},{"lat":"37.685237399","long":"126.72018619","imageIndex":4,"items":[{"name":"송포설렁탕","tel":"","addr":"경기도 고양시 일산서구 가좌동 308-1번지","indutype":"일반휴게음식 - 일반한식","category":"restaurant"},{"name":"진시황","tel":"031-923-8088","addr":"경기도 고양시 일산서구 가좌동 308-1번지","indutype":"일반휴게음식 - 중국식","category":"restaurant"}]},{"lat":"37.684851759","long":"126.71718341","imageIndex":4,"items":[{"name":"스마일명품꽈배기","tel":"031-970-4165","addr":"경기도 고양시 일산서구 가좌동 1090번지","indutype":"일반휴게음식 - 스넥","category":"restaurant"}]},{"lat":"37.68534982","long":"126.72198832","imageIndex":4,"items":[{"name":"스몰하노이","tel":"031-915-1584","addr":"경기도 고양시 일산서구 가좌동 360-1번지","indutype":"일반휴게음식 - 일반한식","category":"restaurant"}]},{"lat":"37.685431904","long":"126.72240748","imageIndex":4,"items":[{"name":"시골진순대국","tel":"031-925-1170","addr":"경기도 고양시 일산서구 가좌동 362-1번지","indutype":"일반휴게음식 - 일반한식","category":"restaurant"},{"name":"칸칸","tel":"070-8866-9098","addr":"경기도 고양시 일산서구 가좌동 362-1번지","indutype":"일반휴게음식 - 스넥","category":"restaurant"}]},{"lat":"37.6894285","long":"126.72465992","imageIndex":4,"items":[{"name":"시루향기 (가좌점)","tel":"031-922-0701","addr":"경기도 고양시 일산서구 가좌동 158-8번지","indutype":"일반휴게음식 - 일반한식","category":"restaurant"}]},{"lat":"37.685344725","long":"126.71985702","imageIndex":4,"items":[{"name":"엉터리해장국 일산가좌점","tel":"031-913-3374","addr":"경기도 고양시 일산서구 가좌동 308-11번지","indutype":"일반휴게음식 - 일반한식","category":"restaurant"},{"name":"풍미가든","tel":"031-915-3367","addr":"경기도 고양시 일산서구 가좌동 308-11번지","indutype":"일반휴게음식 - 일반한식","category":"restaurant"}]},{"lat":"37.694121326","long":"126.71663763","imageIndex":4,"items":[{"name":"여원","tel":"031-923-3782","addr":"경기도 고양시 일산서구 가좌동 662번지","indutype":"일반휴게음식 - 일반한식","category":"restaurant"}]},{"lat":"37.691568851","long":"126.72299661","imageIndex":4,"items":[{"name":"영자네곱창","tel":"031-923-9204","addr":"경기도 고양시 일산서구 가좌동 461-27번지","indutype":"일반휴게음식 - 일반한식","category":"restaurant"},{"name":"옛날가마솥통닭","tel":"031-912-1140","addr":"경기도 고양시 일산서구 가좌동 461-27번지","indutype":"일반휴게음식 - 일반한식","category":"restaurant"}]},{"lat":"37.686990279","long":"126.71852432","imageIndex":4,"items":[{"name":"영희네김밥","tel":"031-922-2230","addr":"경기도 고양시 일산서구 가좌동 398-2번지","indutype":"일반휴게음식 - 일반한식","category":"restaurant"}]},{"lat":"37.686128282","long":"126.71974067","imageIndex":4,"items":[{"name":"오뚜기분식","tel":"031-921-8882","addr":"경기도 고양시 일산서구 가좌동 392-3번지","indutype":"일반휴게음식 - 일반한식","category":"restaurant"},{"name":"이디야커피 (가좌마을점)","tel":"031-925-1012","addr":"경기도 고양시 일산서구 가좌동 392-3번지","indutype":"일반휴게음식 - 서양음식","category":"restaurant"},{"name":"피자스쿨","tel":"031-922-4566","addr":"경기도 고양시 일산서구 가좌동 392-3번지","indutype":"일반휴게음식 - 서양음식","category":"restaurant"}]},{"lat":"37.691236467","long":"126.72340602","imageIndex":4,"items":[{"name":"올라인","tel":"070-5104-8808","addr":"경기도 고양시 일산서구 가좌동 134-2번지","indutype":"일반휴게음식 - 서양음식","category":"restaurant"}]},{"lat":"37.691929412","long":"126.71929911","imageIndex":4,"items":[{"name":"완도맛집","tel":"031-922-7870","addr":"경기도 고양시 일산서구 가좌동 453-4번지","indutype":"일반휴게음식 - 일반한식","category":"restaurant"}]},{"lat":"37.689211548","long":"126.71682657","imageIndex":4,"items":[{"name":"왕순이주먹밥김밥","tel":"031-925-3399","addr":"경기도 고양시 일산서구 가좌동 718-22번지","indutype":"일반휴게음식 - 일반한식","category":"restaurant"},{"name":"콩볶는집","tel":"031-111-1111","addr":"경기도 고양시 일산서구 가좌동 718-22번지","indutype":"일반휴게음식 - 서양음식","category":"restaurant"}]},{"lat":"37.69476305","long":"126.72502549","imageIndex":4,"items":[{"name":"왕십리식당","tel":"031-923-8700","addr":"경기도 고양시 일산서구 가좌동 91-9번지","indutype":"일반휴게음식 - 일반한식","category":"restaurant"}]},{"lat":"37.69240071","long":"126.72046513","imageIndex":4,"items":[{"name":"우돈닭","tel":"031-922-8285","addr":"경기도 고양시 일산서구 가좌동 465-6번지","indutype":"일반휴게음식 - 일반한식","category":"restaurant"}]},{"lat":"37.684849989","long":"126.72018766","imageIndex":4,"items":[{"name":"우리소곱창","tel":"031-923-9289","addr":"경기도 고양시 일산서구 가좌동 997-4번지","indutype":"일반휴게음식 - 일반한식","category":"restaurant"},{"name":"지브릭커피","tel":"031-919-5396","addr":"경기도 고양시 일산서구 가좌동 997-4번지","indutype":"일반휴게음식 - 서양음식","category":"restaurant"}]},{"lat":"37.70067575","long":"126.72604663","imageIndex":4,"items":[{"name":"웰빙부페식당","tel":"031-000-0000","addr":"경기도 고양시 일산서구 가좌동 886-2번지","indutype":"일반휴게음식 - 일반한식","category":"restaurant"}]},{"lat":"37.694323799","long":"126.72215856","imageIndex":4,"items":[{"name":"음송골평창송어","tel":"031-923-0366","addr":"경기도 고양시 일산서구 가좌동 493-25번지","indutype":"일반휴게음식 - 일반한식","category":"restaurant"}]},{"lat":"37.690212329","long":"126.72465699","imageIndex":4,"items":[{"name":"일산국수","tel":"031-923-9274","addr":"경기도 고양시 일산서구 가좌동 144-4번지","indutype":"일반휴게음식 - 일반한식","category":"restaurant"}]},{"lat":"37.684238128","long":"126.72051875","imageIndex":4,"items":[{"name":"작은정원(가좌점)","tel":"031-921-3341","addr":"경기도 고양시 일산서구 가좌동 307-10번지","indutype":"일반휴게음식 - 일반한식","category":"restaurant"}]},{"lat":"37.694100871","long":"126.71935887","imageIndex":4,"items":[{"name":"장원","tel":"031-923-0337","addr":"경기도 고양시 일산서구 가좌동 485-3번지","indutype":"일반휴게음식 - 일반한식","category":"restaurant"}]},{"lat":"37.685128033","long":"126.71966511","imageIndex":4,"items":[{"name":"전주팔미콩나물국밥","tel":"031-922-8689","addr":"경기도 고양시 일산서구 가좌동 997-2번지","indutype":"일반휴게음식 - 일반한식","category":"restaurant"}]},{"lat":"37.685514767","long":"126.7231554","imageIndex":4,"items":[{"name":"전통의정부부대찌개","tel":"031-922-8859","addr":"경기도 고양시 일산서구 가좌동 202-18번지","indutype":"일반휴게음식 - 일반한식","category":"restaurant"}]},{"lat":"37.689324239","long":"126.71871949","imageIndex":4,"items":[{"name":"정떡볶이와김밥","tel":"031-923-8558","addr":"경기도 고양시 일산서구 가좌동 1088번지","indutype":"일반휴게음식 - 스넥","category":"restaurant"}]},{"lat":"37.692427005","long":"126.7201589","imageIndex":4,"items":[{"name":"좋은날","tel":"031-911-1811","addr":"경기도 고양시 일산서구 가좌동 455-1번지","indutype":"일반휴게음식 - 서양음식","category":"restaurant"}]},{"lat":"37.685323197","long":"126.72215848","imageIndex":4,"items":[{"name":"짝태엔왕노가리","tel":"070-8869-1168","addr":"경기도 고양시 일산서구 가좌동 361-12번지","indutype":"일반휴게음식 - 일반한식","category":"restaurant"}]},{"lat":"37.685764955","long":"126.71851766","imageIndex":4,"items":[{"name":"처갓집양념치킨","tel":"031-921-9248","addr":"경기도 고양시 일산서구 가좌동 397-6번지","indutype":"일반휴게음식 - 스넥","category":"restaurant"}]},{"lat":"37.687261685","long":"126.71898811","imageIndex":4,"items":[{"name":"친친","tel":"031-923-7759","addr":"경기도 고양시 일산서구 가좌동 405-6번지","indutype":"일반휴게음식 - 일반한식","category":"restaurant"},{"name":"커피에반하다","tel":"031-919-3731","addr":"경기도 고양시 일산서구 가좌동 405-6번지","indutype":"일반휴게음식 - 서양음식","category":"restaurant"}]},{"lat":"37.684790121","long":"126.72152563","imageIndex":4,"items":[{"name":"카페에이플러스(카페A+)","tel":"031-915-9562","addr":"경기도 고양시 일산서구 가좌동 352-1번지","indutype":"일반휴게음식 - 서양음식","category":"restaurant"}]},{"lat":"37.686711038","long":"126.71854806","imageIndex":4,"items":[{"name":"커피드림","tel":"031-921-4544","addr":"경기도 고양시 일산서구 가좌동 398-10번지","indutype":"일반휴게음식 - 서양음식","category":"restaurant"}]},{"lat":"37.68821344","long":"126.71763535","imageIndex":4,"items":[{"name":"코피코피","tel":"031-913-4440","addr":"경기도 고양시 일산서구 가좌동 404번지","indutype":"일반휴게음식 - 일반한식","category":"restaurant"}]},{"lat":"37.686713248","long":"126.71946636","imageIndex":4,"items":[{"name":"킹부대찌개 테이크아웃 본점","tel":"031-921-3937","addr":"경기도 고양시 일산서구 가좌동 392-17번지","indutype":"일반휴게음식 - 일반한식","category":"restaurant"}]},{"lat":"37.685595848","long":"126.71937991","imageIndex":4,"items":[{"name":"풀하우스","tel":"031-912-4520","addr":"경기도 고양시 일산서구 가좌동 394-11번지","indutype":"일반휴게음식 - 일반한식","category":"restaurant"}]},{"lat":"37.682179109","long":"126.72227235","imageIndex":4,"items":[{"name":"피시앤와규","tel":"031-925-0799","addr":"경기도 고양시 일산서구 가좌동 1006-4번지","indutype":"일반휴게음식 - 일반한식","category":"restaurant"}]},{"lat":"37.68637774","long":"126.71857201","imageIndex":4,"items":[{"name":"피카(FIKA)","tel":"031-939-8364","addr":"경기도 고양시 일산서구 가좌동 397-1번지","indutype":"일반휴게음식 - 서양음식","category":"restaurant"}]},{"lat":"37.686207533","long":"126.72274467","imageIndex":4,"items":[{"name":"해랑","tel":"031-111-1111","addr":"경기도 고양시 일산서구 가좌동 198번지","indutype":"일반휴게음식 - 서양음식","category":"restaurant"}]}]