[{"lat":"37.43322121","long":"127.2419181","items":[{"name":"(주)동림수산","tel":"031-767-3738","addr":"경기도 광주시 회덕동 213-4번지","category":"음료식품 - 농·축·수산품"},{"name":"참치가게","tel":"031-767-3738","addr":"경기도 광주시 회덕동 213-4번지 1층","category":"음료식품 - 농·축·수산품"}]},{"lat":"37.42997099","long":"127.2407327","items":[{"name":"(주)명성디자인","tel":"031-766-7178","addr":"경기도 광주시 회덕동 259-1번지 2층","category":"건축자재 - 인테리어전문"},{"name":"명성부란자","tel":"031-765-8711","addr":"경기도 광주시 회덕동 259-1번지","category":"자동차정비 유지 - 자동차부품"}]},{"lat":"37.43294325","long":"127.2412506","items":[{"name":"(주)우진디앤티","tel":"031-762-3788","addr":"경기도 광주시 회덕동 233-1번지","category":"의류 - 기타의류"},{"name":"(주)유림통상","tel":"031-764-0552","addr":"경기도 광주시 회덕동 233-1번지","category":"레져용품 - 스포츠·레져용품"},{"name":"주식회사 우진디앤티","tel":"032-762-3788","addr":"경기도 광주시 회덕동 233-1번지","category":"의류 - 기타의류"}]},{"lat":"37.43016855","long":"127.241061","items":[{"name":"(주)인성피앤디","tel":"031-764-8187","addr":"경기도 광주시 회덕동 250-4번지","category":"음료식품 - 기타음료식품"}]},{"lat":"37.4292235","long":"127.2405609","items":[{"name":"(주)창작","tel":"031-763-0246","addr":"경기도 광주시 회덕동 242-7번지","category":"자동차정비 유지 - 카인테리어"},{"name":"카사인","tel":"031-333-3048","addr":"경기도 광주시 회덕동 242-7번지 카사인 2층","category":"기타 - 기타 전문점"}]},{"lat":"37.42647117","long":"127.2426761","items":[{"name":"10day 커피숍","tel":"031-797-7336","addr":"경기도 광주시 회덕동 274-1번지","category":"일반휴게음식 - 서양음식"},{"name":"지니헤어","tel":"031-767-5055","addr":"경기도 광주시 회덕동 274-1번지","category":"보건위생 - 미용원"},{"name":"코리아태비태권도","tel":"031-797-2777","addr":"경기도 광주시 회덕동 274-1번지 2층","category":"학원 - 예·체능계학원"}]},{"lat":"37.43280393","long":"127.2433065","items":[{"name":"B엔B","tel":"031-763-1183","addr":"경기도 광주시 회덕동 196-2번지","category":"가구 - 일반가구"}]},{"lat":"37.43164112","long":"127.2435626","items":[{"name":"GS25회덕타운점","tel":"","addr":"경기도 광주시 회덕동 205번지 골든빌 103동 1층상가","category":"유통업 영리 - 편 의 점"}]},{"lat":"37.43083608","long":"127.2406677","items":[{"name":"JD퍼니처","tel":"070-7783-9919","addr":"경기도 광주시 회덕동 249번지","category":"가구 - 일반가구"}]},{"lat":"37.43133462","long":"127.2436407","items":[{"name":"SJ(에스제이유통)","tel":"","addr":"경기도 광주시 회덕동 205-2번지 골든빌","category":"음료식품 - 농·축·수산품"}]},{"lat":"37.42894082","long":"127.2466383","items":[{"name":"경기씨스템","tel":"031-761-8028","addr":"경기도 광주시 회덕동 375번지","category":"용역 서비스 - 기타용역서비스"}]},{"lat":"37.42861449","long":"127.2432027","items":[{"name":"경덕재주간보호센터경안점","tel":"031-798-7977","addr":"경기도 광주시 회덕동 315번지 1층","category":"기타의료기관 - 기타의료기관 및 기타"},{"name":"칼의부활성동","tel":"031-111-1111","addr":"경기도 광주시 회덕동 315번지 혜아빌 203호","category":"수리서비스 - 기타수리서비스"}]},{"lat":"37.4345816","long":"127.2419789","items":[{"name":"경호폴딩","tel":"031-797-2355","addr":"경기도 광주시 회덕동 221-3번지","category":"건축자재 - 기타건축자재"}]},{"lat":"37.42722007","long":"127.2421475","items":[{"name":"공구이야기","tel":"031-766-2209","addr":"경기도 광주시 회덕동 271-5번지 신주빌딩 105호","category":"기타 - 기계공구"},{"name":"통돌이삼겹살","tel":"031-768-9600","addr":"경기도 광주시 회덕동 271-5번지 신주빌딩 103호","category":"일반휴게음식 - 일반한식"},{"name":"푸른약국","tel":"031-798-0326","addr":"경기도 광주시 회덕동 271-5번지 신주빌딩 104호","category":"약국 - 약국"},{"name":"회덕메디칼의원","tel":"031-761-4183","addr":"경기도 광주시 회덕동 271-5번지","category":"의원 - 의원"},{"name":"회덕포차","tel":"031-769-6879","addr":"경기도 광주시 회덕동 271-5번지 신주빌딩 1층","category":"일반휴게음식 - 일반한식"}]},{"lat":"37.42864142","long":"127.2476429","items":[{"name":"광고생각","tel":"031-764-7770","addr":"경기도 광주시 회덕동 381-2번지","category":"용역 서비스 - 종합용역"}]},{"lat":"37.42691323","long":"127.2423951","items":[{"name":"광주종합설비","tel":"031-764-0004","addr":"경기도 광주시 회덕동 272-1번지","category":"용역 서비스 - 기타용역서비스"},{"name":"돌쇠해장국","tel":"031-765-8549","addr":"경기도 광주시 회덕동 272-1번지","category":"일반휴게음식 - 일반한식"},{"name":"복복당구장","tel":"031-763-5572","addr":"경기도 광주시 회덕동 272-1번지 회덕빌딩 2층","category":"레저업소 - 당 구 장"},{"name":"오렌지파스칼보습학원","tel":"031-769-5337","addr":"경기도 광주시 회덕동 272-1번지 회덕빌딩 2층","category":"학원 - 기타 교육기관"},{"name":"프로카오디오","tel":"031-761-3382","addr":"경기도 광주시 회덕동 272-1번지","category":"자동차정비 유지 - 자동차부품"},{"name":"헤어갤러리","tel":"031-766-7330","addr":"경기도 광주시 회덕동 272-1번지","category":"보건위생 - 미용원"}]},{"lat":"37.42608393","long":"127.2425845","items":[{"name":"굽네치킨 회덕점","tel":"031-797-9293","addr":"경기도 광주시 회덕동 274-5번지","category":"일반휴게음식 - 스넥"},{"name":"콘서트노래연습장","tel":"031-767-3685","addr":"경기도 광주시 회덕동 274-5번지","category":"레저업소 - 노 래 방"},{"name":"콘서트노래연습장","tel":"031-767-3685","addr":"경기도 광주시 회덕동 274-5번지","category":"레저업소 - 노 래 방"},{"name":"풍천장어","tel":"031-767-0577","addr":"경기도 광주시 회덕동 274-5번지","category":"일반휴게음식 - 일반한식"}]},{"lat":"37.4289753","long":"127.2473954","items":[{"name":"그릿","tel":"031-797-9049","addr":"경기도 광주시 회덕동 385번지 1층","category":"일반휴게음식 - 서양음식"},{"name":"봉봉디자인","tel":"031-763-0607","addr":"경기도 광주시 회덕동 385번지 1층 104호","category":"서적문구 - 출판 및 인쇄물"},{"name":"튼튼태권도장","tel":"031-000-0000","addr":"경기도 광주시 회덕동 385번지","category":"학원 - 예·체능계학원"}]},{"lat":"37.42716381","long":"127.2432319","items":[{"name":"나무꼴","tel":"070-8822-5025","addr":"경기도 광주시 회덕동 304번지","category":"가구 - 일반가구"}]},{"lat":"37.4274691","long":"127.2437526","items":[{"name":"노블헤어칼라","tel":"031-768-4019","addr":"경기도 광주시 회덕동 309-1번지","category":"보건위생 - 미용원"},{"name":"바른학원","tel":"031-761-7661","addr":"경기도 광주시 회덕동 309-1번지 센트럴빌딩 2층","category":"학원 - 보습학원"},{"name":"회덕서울치과의원","tel":"031-763-2823","addr":"경기도 광주시 회덕동 309-1번지","category":"의원 - 치과의원"}]},{"lat":"37.43844244","long":"127.244172","items":[{"name":"녹차화장품","tel":"031-731-2275","addr":"경기도 광주시 회덕동 156-70번지","category":"보건위생 - 화장품"}]},{"lat":"37.42794213","long":"127.2415284","items":[{"name":"농민아울렛","tel":"031-768-7077","addr":"경기도 광주시 회덕동 271-1번지 103호","category":"신변잡화 - 기타잡화"},{"name":"시진한의원","tel":"031-767-2494","addr":"경기도 광주시 회덕동 271-1번지","category":"의원 - 한의원"},{"name":"여수동갈매기살","tel":"031-763-8868","addr":"경기도 광주시 회덕동 271-1번지","category":"일반휴게음식 - 일반한식"},{"name":"파리바게뜨(회덕점)","tel":"031-762-0682","addr":"경기도 광주시 회덕동 271-1번지","category":"음료식품 - 제과점"}]},{"lat":"37.43022377","long":"127.2492863","items":[{"name":"누리테크(로이포스)","tel":"031-722-4040","addr":"경기도 광주시 회덕동 441번지 회덕동대주파크빌 상가동 201호","category":"사무통신 - 기타 사무용품"}]},{"lat":"37.43641846","long":"127.242561","items":[{"name":"다예푸드","tel":"031-764-2123","addr":"경기도 광주시 회덕동 159번지","category":"음료식품 - 기타음료식품"},{"name":"정푸드","tel":"031-764-2123","addr":"경기도 광주시 회덕동 159번지","category":"음료식품 - 기타음료식품"}]},{"lat":"37.43419355","long":"127.2422827","items":[{"name":"대경상사","tel":"031-767-0314","addr":"경기도 광주시 회덕동 219-4번지","category":"자동차정비 유지 - 카인테리어"}]},{"lat":"37.4338012","long":"127.2446994","items":[{"name":"대봉건해산물","tel":"031-768-4450","addr":"경기도 광주시 회덕동 192-4번지","category":"음료식품 - 농·축·수산품"}]},{"lat":"37.43182136","long":"127.2390777","items":[{"name":"대유위니아서비스","tel":"031-266-9588","addr":"경기도 광주시 회덕동 246-1번지 주원타운 121동 302호","category":"수리서비스 - 가정용품수리"}]},{"lat":"37.42955541","long":"127.241285","items":[{"name":"더샵헤어(The # hair)","tel":"031-763-9413","addr":"경기도 광주시 회덕동 265-2번지","category":"보건위생 - 미용원"},{"name":"세븐일레븐광주소울점","tel":"","addr":"경기도 광주시 회덕동 265-2번지","category":"유통업 영리 - 편 의 점"},{"name":"스피드셀프 coin빨래방","tel":"02-000-0000","addr":"경기도 광주시 회덕동 265-2번지 102호","category":"수리서비스 - 세탁소"},{"name":"천연사랑I(l love natural)","tel":"031-797-4035","addr":"경기도 광주시 회덕동 265-2번지 303호","category":"신변잡화 - 기타잡화"}]},{"lat":"37.43100883","long":"127.2398886","items":[{"name":"도나수","tel":"","addr":"경기도 광주시 회덕동 246-1번지 주원타운 109동 4층 1호","category":"신변잡화 - 액세서리"}]},{"lat":"37.42653206","long":"127.2437496","items":[{"name":"도도앤패리스","tel":"070-8223-3813","addr":"경기도 광주시 회덕동 276-5번지 장미빌라 101호","category":"용역 서비스 - 종합용역"}]},{"lat":"37.42827618","long":"127.2456194","items":[{"name":"동양택크린","tel":"031-768-7201","addr":"경기도 광주시 회덕동 370번지","category":"건축자재 - 보일러·펌프·샷시"}]},{"lat":"37.4275585","long":"127.2440918","items":[{"name":"라이팅월드","tel":"031-761-4815","addr":"경기도 광주시 회덕동 299번지 1층","category":"건축자재 - 조명기구"},{"name":"제이폭스 플랜비","tel":"031-763-7477","addr":"경기도 광주시 회덕동 299번지 103호 104호","category":"보건위생 - 미용원"},{"name":"풍년갈비","tel":"031-763-9595","addr":"경기도 광주시 회덕동 299번지 1층 107,108호","category":"일반휴게음식 - 일반한식"},{"name":"플레이노래연습장","tel":"031-767-5256","addr":"경기도 광주시 회덕동 299번지 2층","category":"레저업소 - 노 래 방"},{"name":"피에스타PC방","tel":"","addr":"경기도 광주시 회덕동 299번지 201호","category":"레저업소 - 기타레져업소"}]},{"lat":"37.42925318","long":"127.2480855","items":[{"name":"루마썬팅 제이앤씨(JNC)","tel":"031-764-0441","addr":"경기도 광주시 회덕동 384-2번지","category":"자동차정비 유지 - 자동차부품"}]},{"lat":"37.43447167","long":"127.2428711","items":[{"name":"만년생옻칠방","tel":"031-768-5278","addr":"경기도 광주시 회덕동 219-2번지 B동","category":"문화.취미 - 민예·공예품"}]},{"lat":"37.43075157","long":"127.2423621","items":[{"name":"명문부엌가구","tel":"031-765-4244","addr":"경기도 광주시 회덕동 329-1번지","category":"주방용구 - 주방용구"}]},{"lat":"37.43027801","long":"127.2403947","items":[{"name":"명성광고디자인","tel":"031-769-5219","addr":"경기도 광주시 회덕동 250-15번지","category":"서적문구 - 출판 및 인쇄물"},{"name":"창작디자인","tel":"031-798-9123","addr":"경기도 광주시 회덕동 250-15","category":"용역 서비스 - 종합용역"}]},{"lat":"37.42760807","long":"127.2418663","items":[{"name":"밀목떡방앗간","tel":"031-766-0291","addr":"경기도 광주시 회덕동 271-9번지","category":"음료식품 - 기타음료식품"},{"name":"한세마트내 생선코너","tel":"031-765-1485","addr":"경기도 광주시 회덕동 271-9번지","category":"음료식품 - 농·축·수산품"}]},{"lat":"37.43722108","long":"127.242202","items":[{"name":"바른골프","tel":"0331-797-3048","addr":"경기도 광주시 회덕동 151-2번지 현대빌리지","category":"회원제형태 - 레져업소"}]},{"lat":"37.43038462","long":"127.2411408","items":[{"name":"본생태키즈","tel":"031-769-1250","addr":"경기도 광주시 회덕동 251-3번지","category":"가구 - 일반가구"}]},{"lat":"37.43180472","long":"127.2428626","items":[{"name":"블루 스포츠","tel":"","addr":"경기도 광주시 회덕동 207-5번지 리더스빌","category":"학원 - 기타 교육기관"}]},{"lat":"37.4315513","long":"127.2434267","items":[{"name":"뽀송홈케어","tel":"","addr":"경기도 광주시 회덕동 205-6번지 미리내타운 101동 201호","category":"용역 서비스 - 종합용역"}]},{"lat":"37.4305254","long":"127.2428134","items":[{"name":"삼원유통","tel":"031-797-6053","addr":"경기도 광주시 회덕동 332-7번지","category":"음료식품 - 정육점"},{"name":"한양케미칼","tel":"","addr":"경기도 광주시 회덕동 332-7번지","category":"직물 - 기타직물"}]},{"lat":"37.43369062","long":"127.2414789","items":[{"name":"새한고속관광(주)","tel":"031-764-8625","addr":"경기도 광주시 회덕동 227-18번지","category":"여행 - 고속버스"}]},{"lat":"37.42633614","long":"127.2426192","items":[{"name":"샘물마트","tel":"031-762-2195","addr":"경기도 광주시 회덕동 274-4 274-1","category":"유통업 영리 - 슈퍼마켓"}]},{"lat":"37.4292212","long":"127.241702","items":[{"name":"생생보리밥","tel":"031-765-7733","addr":"경기도 광주시 회덕동 328-3번지","category":"일반휴게음식 - 일반한식"}]},{"lat":"37.42905351","long":"127.2487853","items":[{"name":"서울광고","tel":"031-765-0845","addr":"경기도 광주시 회덕동 382번지","category":"용역 서비스 - 종합용역"},{"name":"에스에이치조경(주)","tel":"031-769-3595","addr":"경기도 광주시 회덕동 382번지 B-5호","category":"건축자재 - 인테리어전문"},{"name":"컴피아","tel":"031-766-1728","addr":"경기도 광주시 회덕동 382번지 A동 101호","category":"용역 서비스 - 소프트웨어"}]},{"lat":"37.42861216","long":"127.2443438","items":[{"name":"서울상사","tel":"031-323-4072","addr":"경기도 광주시 회덕동 310-4번지","category":"의류 - 정장"}]},{"lat":"37.44085633","long":"127.2401118","items":[{"name":"성남에어컨","tel":"070-7527-9879","addr":"경기도 광주시 회덕동 산76번지","category":"전기제품 - 가전제품"}]},{"lat":"37.43580787","long":"127.2415308","items":[{"name":"세븐일레븐경기광주회덕점","tel":"031-1577-0711","addr":"경기도 광주시 회덕동 142-3번지 1층","category":"유통업 영리 - 편 의 점"}]},{"lat":"37.43548056","long":"127.2429874","items":[{"name":"스팀보이","tel":"","addr":"경기도 광주시 회덕동 170-9번지 진흥타운 A동 202호","category":"자동차정비 유지 - 세차장"}]},{"lat":"37.42722417","long":"127.2445653","items":[{"name":"시골집옹심이메밀칼국수","tel":"031-797-1544","addr":"경기도 광주시 회덕동 298-1번지","category":"일반휴게음식 - 일반한식"},{"name":"전설의치킨","tel":"031-797-9248","addr":"경기도 광주시 회덕동 298-1번지 1층","category":"일반휴게음식 - 스넥"},{"name":"컬(curl)","tel":"031-797-5260","addr":"경기도 광주시 회덕동 298-1번지 2층","category":"가구 - 일반가구"}]},{"lat":"37.42964204","long":"127.2473976","items":[{"name":"신신메디케어","tel":"031-8864-2479","addr":"경기도 광주시 회덕동 361-1번지","category":"수리서비스 - 기타수리서비스"}]},{"lat":"37.42996926","long":"127.246009","items":[{"name":"썬마트","tel":"031-762-4144","addr":"경기도 광주시 회덕동 355번지","category":"유통업 영리 - 슈퍼마켓"}]},{"lat":"37.43063881","long":"127.2401925","items":[{"name":"아라's 영어공부방","tel":"","addr":"경기도 광주시 회덕동 246-1번지 주원타운 103동 401호","category":"학원 - 기타 교육기관"}]},{"lat":"37.42736458","long":"127.2419785","items":[{"name":"앤조이팻","tel":"031-764-4478","addr":"경기도 광주시 회덕동 271-2번지","category":"문화.취미 - 애완동물"}]},{"lat":"37.43619578","long":"127.2500629","items":[{"name":"에이치엔에스(HNS)","tel":"","addr":"경기도 광주시 회덕동 173-43번지","category":"주방용구 - 주방용구"}]},{"lat":"37.43063595","long":"127.2460337","items":[{"name":"엔 케이스","tel":"02-1111-1111","addr":"경기도 광주시 회덕동 354-1번지","category":"가구 - 일반가구"}]},{"lat":"37.42805964","long":"127.2413368","items":[{"name":"엠앤에스(M&S) 헤어스토리","tel":"031-797-2227","addr":"경기도 광주시 회덕동 271-12번지 1층","category":"보건위생 - 미용원"},{"name":"화덕에통째로구운족발 광주회덕점","tel":"031-764-8555","addr":"경기도 광주시 회덕동 271-12번지 1층","category":"일반휴게음식 - 일반한식"}]},{"lat":"37.42902994","long":"127.2471132","items":[{"name":"연세우유경기광주보급소","tel":"031-762-4192","addr":"경기도 광주시 회덕동 377번지","category":"음료식품 - 기타음료식품"},{"name":"홈브리즈","tel":"031-761-7807","addr":"경기도 광주시 회덕동 377번지","category":"직물 - 옷감·직물"}]},{"lat":"37.43255637","long":"127.2409782","items":[{"name":"오션사운드","tel":"031-798-2278","addr":"경기도 광주시 회덕동 235-35번지 굿모닝하우스","category":"전기제품 - 가전제품"}]},{"lat":"37.42584402","long":"127.2453517","items":[{"name":"옷이날개","tel":"070-4102-9174","addr":"경기도 광주시 회덕동 282-1번지 상록파크타운 104동 401호","category":"의류 - 정장"}]},{"lat":"37.42944641","long":"127.2461429","items":[{"name":"우리정보통신","tel":"031-765-8476","addr":"경기도 광주시 회덕동 362-13번지","category":"사무통신 - 통신기기"}]},{"lat":"37.43008308","long":"127.2476137","items":[{"name":"우승정보통신","tel":"031-769-2259","addr":"경기도 광주시 회덕동 388-2번지 초원빌라 202호","category":"사무통신 - 통신기기"}]},{"lat":"37.42927617","long":"127.2412502","items":[{"name":"유로코피자","tel":"031-767-1828","addr":"경기도 광주시 회덕동 264-3번지 1층","category":"일반휴게음식 - 서양음식"},{"name":"이마트24 광주회덕점","tel":"","addr":"경기도 광주시 회덕동 264-3번지 1층 101,102호","category":"유통업 영리 - 편 의 점"}]},{"lat":"37.42792463","long":"127.2456973","items":[{"name":"이수에너텍","tel":"031-798-2548","addr":"경기도 광주시 회덕동 295-3번지 벽산블루밍아파트","category":"수리서비스 - 기타수리서비스"}]},{"lat":"37.42963682","long":"127.245556","items":[{"name":"전국 에어컨 토탈 매니아","tel":"","addr":"경기도 광주시 회덕동 350번지 용천맨션 101호","category":"용역 서비스 - 기타용역서비스"}]},{"lat":"37.42869468","long":"127.2480272","items":[{"name":"제이비테크","tel":"031-767-5360","addr":"경기도 광주시 회덕동 381-4번지 (행정타운로95,1층)","category":"사무통신 - 컴퓨터"}]},{"lat":"37.42744705","long":"127.2457184","items":[{"name":"종합상사","tel":"02-0000-0000","addr":"경기도 광주시 회덕동 295-3번지 벽산블루밍아파트","category":"문화.취미 - 화랑"}]},{"lat":"37.43325183","long":"127.2445847","items":[{"name":"주식회사케이엠에스","tel":"031-746-1006","addr":"경기도 광주시 회덕동 195-5번지","category":"기타 - 기계공구"}]},{"lat":"37.43274748","long":"127.2444813","items":[{"name":"캔들소소","tel":"","addr":"경기도 광주시 회덕동 195-27번지 다원베르빌","category":"신변잡화 - 기타잡화"}]},{"lat":"37.43244024","long":"127.2404807","items":[{"name":"코스켐(KOSCHEM)","tel":"031-767-1620","addr":"경기도 광주시 회덕동 235-7번지","category":"유통업 영리 - 기타유통업"}]},{"lat":"37.43233425","long":"127.2394183","items":[{"name":"태경강화자동문","tel":"031-798-4947","addr":"경기도 광주시 회덕동 237-1번지 굿데이빌","category":"수리서비스 - 기타수리서비스"}]},{"lat":"37.42783371","long":"127.241675","items":[{"name":"통통한치킨","tel":"031-761-8157","addr":"경기도 광주시 회덕동 271-22번지","category":"일반휴게음식 - 주점"}]},{"lat":"37.4361926","long":"127.2428653","items":[{"name":"포시즌","tel":"031-767-7506","addr":"경기도 광주시 회덕동 161-2번지 스타파크뷰 102동 401호","category":"용역 서비스 - 기타용역서비스"}]},{"lat":"37.42813645","long":"127.2434497","items":[{"name":"푸르네광주","tel":"031-767-1503","addr":"경기도 광주시 회덕동 309-4번지 에덴하우스 402호","category":"농업 - 비료,사료,종자"}]},{"lat":"37.43427862","long":"127.2447574","items":[{"name":"필라우대","tel":"02-3442-2457","addr":"경기도 광주시 회덕동 193번지","category":"건축자재 - 인테리어전문"}]},{"lat":"37.43028198","long":"127.2472867","items":[{"name":"하이진 (Hygene)","tel":"070-4127-8042","addr":"경기도 광주시 회덕동 357번지 황제쉐르빌 4층 402호","category":"서적문구 - 과학기자재"}]},{"lat":"37.43819241","long":"127.2430638","items":[{"name":"한양 강화 유리문-자동문","tel":"031-742-2030","addr":"경기도 광주시 회덕동 155-3번지 헤라빌 401호","category":"수리서비스 - 기타수리서비스"}]},{"lat":"37.43189312","long":"127.243699","items":[{"name":"함바식당","tel":"070-4221-9531","addr":"경기도 광주시 회덕동 198번지","category":"일반휴게음식 - 일반한식"}]},{"lat":"37.43066643","long":"127.2487228","items":[{"name":"헤바붙임머리","tel":"031-388-0078","addr":"경기도 광주시 회덕동 390-10번지","category":"보건위생 - 미용재료"}]},{"lat":"37.42950441","long":"127.2485948","items":[{"name":"혁진","tel":"","addr":"경기도 광주시 회덕동 441번지 회덕동대주파크빌","category":"의류 - 정장"}]},{"lat":"37.43603046","long":"127.2428422","items":[{"name":"회덕골가든","tel":"031-762-4883","addr":"경기도 광주시 회덕동 161번지 스타파크뷰","category":"일반휴게음식 - 일반한식"}]},{"lat":"37.43960858","long":"127.2422774","items":[{"name":"회덕생고기전문점","tel":"","addr":"경기도 광주시 회덕동 127-2번지 1층","category":"일반휴게음식 - 일반한식"}]}]