[{"lat":"37.142193541","long":"127.03267481","imageIndex":17,"items":[{"name":"(주) 터프넷","tel":"031-111-1111","addr":"경기도 오산시 벌음동 335번지","indutype":"농업 - 비료,사료,종자","category":"other"}]},{"lat":"37.138363218","long":"127.03594845","imageIndex":17,"items":[{"name":"GS25오산발안로점","tel":"","addr":"경기도 오산시 벌음동 129-3번지 가동 일부호 (도로기준 첫번째,두번째 호실)","indutype":"유통업 영리 - 편 의 점","category":"other"},{"name":"삼성볼트","tel":"031-372-8306","addr":"경기도 오산시 벌음동 129-3번지","indutype":"기타 - 기계공구","category":"other"},{"name":"에스지티기술(주)","tel":"031-378-8550","addr":"경기도 오산시 벌음동 129-3번지 중앙스틸(주) 가동 2층 2호","indutype":"용역 서비스 - 기타용역서비스","category":"other"}]},{"lat":"37.140668738","long":"127.03988873","imageIndex":17,"items":[{"name":"가람화원","tel":"031-375-6447","addr":"경기도 오산시 벌음동 189-16번지","indutype":"문화.취미 - 화원","category":"other"},{"name":"세림현수막공장","tel":"031-377-9005","addr":"경기도 오산시 벌음동 189-16번지","indutype":"용역 서비스 - 종합용역","category":"other"},{"name":"홍익광고기획","tel":"070-7726-6767","addr":"경기도 오산시 벌음동 189-16번지","indutype":"건축자재 - 인테리어전문","category":"other"}]},{"lat":"37.136867655","long":"127.03530629","imageIndex":17,"items":[{"name":"격동상사","tel":"031-278-0999","addr":"경기도 오산시 벌음동 134-18번지","indutype":"의류 - 기타의류","category":"other"},{"name":"수경","tel":"031-375-2065","addr":"경기도 오산시 벌음동 134-18번지","indutype":"레져용품 - 스포츠·레져용품","category":"other"},{"name":"오산유통","tel":"070-8783-3573","addr":"경기도 오산시 벌음동 134-18번지","indutype":"의류 - 내의판매","category":"other"},{"name":"장현보세무회계사무소","tel":"031-375-3939","addr":"경기도 오산시 벌음동 134-18번지","indutype":"용역 서비스 - 법률회계서비스(개인)","category":"other"}]},{"lat":"37.138254672","long":"127.03742277","imageIndex":17,"items":[{"name":"금속창호","tel":"031-000-0000","addr":"경기도 오산시 벌음동 131-5번지 1층","indutype":"건축자재 - 기타건축자재","category":"other"}]},{"lat":"37.13933593","long":"127.03742326","imageIndex":17,"items":[{"name":"늘푸른종묘","tel":"031-372-1757","addr":"경기도 오산시 벌음동 116-2번지 1호","indutype":"유통업 영리 - 기타유통업","category":"other"},{"name":"세븐일레븐오산벌음점","tel":"031-1577-0711","addr":"경기도 오산시 벌음동 116-2번지","indutype":"유통업 영리 - 편 의 점","category":"other"}]},{"lat":"37.139146824","long":"127.03702925","imageIndex":17,"items":[{"name":"더바스","tel":"031-258-9651","addr":"경기도 오산시 벌음동 120-3번지 1층 일부","indutype":"건축자재 - 건축용 요업제품","category":"other"},{"name":"신우타일상사","tel":"031-373-0703","addr":"경기도 오산시 벌음동 120-3번지","indutype":"건축자재 - 건축용 요업제품","category":"other"},{"name":"에이앤디(AND)전자저울","tel":"031-376-7896","addr":"경기도 오산시 벌음동 120-3번지 1층","indutype":"주방용구 - 주방용구","category":"other"}]},{"lat":"37.138723425","long":"127.03670267","imageIndex":17,"items":[{"name":"동성모터사","tel":"031-374-4444","addr":"경기도 오산시 벌음동 130-5번지","indutype":"수리서비스 - 기타수리서비스","category":"other"}]},{"lat":"37.139696669","long":"127.03630918","imageIndex":17,"items":[{"name":"명성환경","tel":"031-524-9001","addr":"경기도 오산시 벌음동 125번지 외2필지","indutype":"용역 서비스 - 종합용역","category":"other"}]},{"lat":"37.142948745","long":"127.03873053","imageIndex":17,"items":[{"name":"서동정밀","tel":"031-377-4245","addr":"경기도 오산시 벌음동 43-15번지","indutype":"기타 - 기계공구","category":"other"}]},{"lat":"37.136615115","long":"127.03619528","imageIndex":17,"items":[{"name":"세븐일레븐오산벌음삼거리점","tel":"031-1577-0711","addr":"경기도 오산시 벌음동 138-3번지","indutype":"유통업 영리 - 편 의 점","category":"other"},{"name":"정진 기프트","tel":"031-378-9772","addr":"경기도 오산시 벌음동 138-3번지 가동","indutype":"유통업 영리 - 기타유통업","category":"other"}]},{"lat":"37.137281692","long":"127.03689336","imageIndex":17,"items":[{"name":"솔로몬가구산업","tel":"031-372-2203","addr":"경기도 오산시 벌음동 140-3번지","indutype":"가구 - 일반가구","category":"other"},{"name":"이조사무용가구산업","tel":"031-375-0536","addr":"경기도 오산시 벌음동 140-3번지","indutype":"가구 - 일반가구","category":"other"}]},{"lat":"37.140452345","long":"127.04033883","imageIndex":17,"items":[{"name":"전오전기조명","tel":"031-373-8481","addr":"경기도 오산시 벌음동 189-4번지","indutype":"건축자재 - 조명기구","category":"other"}]},{"lat":"37.142417161","long":"127.03861773","imageIndex":17,"items":[{"name":"지엠종합전기조명","tel":"031-374-5173","addr":"경기도 오산시 벌음동 50번지","indutype":"전기제품 - 기타전기제품","category":"other"},{"name":"코리아나기획","tel":"031-372-2161","addr":"경기도 오산시 벌음동 50번지","indutype":"용역 서비스 - 종합용역","category":"other"}]},{"lat":"37.136416884","long":"127.0361952","imageIndex":17,"items":[{"name":"태평양공구철물(벌음점)","tel":"031-376-0140","addr":"경기도 오산시 벌음동 140-2번지","indutype":"기타 - 기계공구","category":"other"},{"name":"태평양공구철물벌음점","tel":"031-376-0140","addr":"경기도 오산시 벌음동 140-2번지","indutype":"기타 - 기계공구","category":"other"},{"name":"토탈낚시","tel":"031-372-6187","addr":"경기도 오산시 벌음동 140-2번지","indutype":"레져용품 - 스포츠·레져용품","category":"other"},{"name":"하나로꽃화원","tel":"031-377-4944","addr":"경기도 오산시 벌음동 140-2번지","indutype":"문화.취미 - 화원","category":"other"}]},{"lat":"37.140560212","long":"127.04114925","imageIndex":9,"items":[{"name":"GS 참존주유소","tel":"031-372-0108","addr":"경기도 오산시 벌음동 189-5번지","indutype":"연료판매점 - GS주유소","category":"oil"}]},{"lat":"37.138335887","long":"127.03700638","imageIndex":9,"items":[{"name":"거창주유소","tel":"031-378-5689","addr":"경기도 오산시 벌음동 131-4번지","indutype":"연료판매점 - 현대정유(오일뱅크)","category":"oil"}]},{"lat":"37.138363218","long":"127.03594845","imageIndex":0,"items":[{"name":"next one/주식회사 넥스트원플러스","tel":"031-377-4949","addr":"경기도 오산시 벌음동 129-3번지","indutype":"자동차정비 유지 - 자동차정비","category":"car"},{"name":"경훈전자","tel":"031-668-8068","addr":"경기도 오산시 벌음동 129-3번지 가동 105,105호","indutype":"자동차정비 유지 - 자동차부품","category":"car"},{"name":"주식회사 다솜컴퍼니","tel":"031-374-1110","addr":"경기도 오산시 벌음동 129-3번지","indutype":"자동차정비 유지 - 세차장","category":"car"},{"name":"퍼펙트자동차용품","tel":"031-375-2979","addr":"경기도 오산시 벌음동 129-3번지","indutype":"자동차정비 유지 - 카인테리어","category":"car"}]},{"lat":"37.141840484","long":"127.03863997","imageIndex":0,"items":[{"name":"광성부분정비공업사","tel":"031-375-6450","addr":"경기도 오산시 벌음동 51-1번지","indutype":"자동차정비 유지 - 자동차정비","category":"car"}]},{"lat":"37.140668738","long":"127.03988873","imageIndex":0,"items":[{"name":"서동카센타","tel":"031-372-7921","addr":"경기도 오산시 벌음동 189-16번지","indutype":"자동차정비 유지 - 자동차정비","category":"car"}]},{"lat":"37.138696186","long":"127.03742297","imageIndex":0,"items":[{"name":"서부정비코너","tel":"031-374-6886","addr":"경기도 오산시 벌음동 167-14번지","indutype":"자동차정비 유지 - 자동차정비","category":"car"}]},{"lat":"37.140560212","long":"127.04114925","imageIndex":0,"items":[{"name":"영모터스","tel":"","addr":"경기도 오산시 벌음동 189-5번지","indutype":"자동차정비 유지 - 자동차정비","category":"car"}]},{"lat":"37.136867655","long":"127.03530629","imageIndex":0,"items":[{"name":"오산블랙박스","tel":"031-372-6667","addr":"경기도 오산시 벌음동 134-18번지 1층 103호","indutype":"자동차정비 유지 - 자동차부품","category":"car"}]},{"lat":"37.140254804","long":"127.03808772","imageIndex":0,"items":[{"name":"제이와이전자","tel":"","addr":"경기도 오산시 벌음동 107-1번지 1층 102호","indutype":"자동차정비 유지 - 자동차부품","category":"car"}]},{"lat":"37.143084021","long":"127.03833665","imageIndex":0,"items":[{"name":"주식회사 신이수네트웍스","tel":"031-377-5153","addr":"경기도 오산시 벌음동 38번지","indutype":"자동차정비 유지 - 윤활유 전문 판매","category":"car"}]},{"lat":"37.142472984","long":"127.0322022","imageIndex":4,"items":[{"name":"금이야옥이야","tel":"031-374-0403","addr":"경기도 오산시 벌음동 318-4번지","indutype":"일반휴게음식 - 일반한식","category":"restaurant"}]},{"lat":"37.138696186","long":"127.03742297","imageIndex":4,"items":[{"name":"기찬교동반점","tel":"031-376-1128","addr":"경기도 오산시 벌음동 167-14번지 카맨샵 B동 101호","indutype":"일반휴게음식 - 중국식","category":"restaurant"}]},{"lat":"37.136416884","long":"127.0361952","imageIndex":4,"items":[{"name":"남춘식당","tel":"031-376-3441","addr":"경기도 오산시 벌음동 140-2번지 1층 일부호","indutype":"일반휴게음식 - 일반한식","category":"restaurant"}]},{"lat":"37.140254804","long":"127.03808772","imageIndex":4,"items":[{"name":"노블카페","tel":"031-377-8007","addr":"경기도 오산시 벌음동 107-1번지 1층","indutype":"일반휴게음식 - 서양음식","category":"restaurant"}]},{"lat":"37.141526953","long":"127.03192045","imageIndex":4,"items":[{"name":"돌담시골보리밥","tel":"031-377-6525","addr":"경기도 오산시 벌음동 339번지","indutype":"일반휴게음식 - 일반한식","category":"restaurant"}]},{"lat":"37.139035582","long":"127.0465283","imageIndex":4,"items":[{"name":"바오","tel":"031-374-4749","addr":"경기도 오산시 벌음동 288번지 1층","indutype":"일반휴게음식 - 서양음식","category":"restaurant"}]},{"lat":"37.140201435","long":"127.03566787","imageIndex":4,"items":[{"name":"사랑채","tel":"031-373-6546","addr":"경기도 오산시 벌음동 123번지","indutype":"일반휴게음식 - 일반한식","category":"restaurant"}]},{"lat":"37.136867655","long":"127.03530629","imageIndex":4,"items":[{"name":"연탄직화초벌구이","tel":"031-372-0777","addr":"경기도 오산시 벌음동 134-18번지","indutype":"일반휴게음식 - 일반한식","category":"restaurant"}]},{"lat":"37.138254672","long":"127.03742277","imageIndex":4,"items":[{"name":"우리식당","tel":"031-376-9796","addr":"경기도 오산시 벌음동 131-5번지 1층","indutype":"일반휴게음식 - 일반한식","category":"restaurant"}]},{"lat":"37.140668738","long":"127.03988873","imageIndex":4,"items":[{"name":"은행나무순대국","tel":"031-377-9295","addr":"경기도 오산시 벌음동 189-16번지 1층","indutype":"일반휴게음식 - 일반한식","category":"restaurant"}]},{"lat":"37.141588736","long":"127.03678274","imageIndex":4,"items":[{"name":"인","tel":"031-375-0410","addr":"경기도 오산시 벌음동 54-1번지","indutype":"일반휴게음식 - 일반한식","category":"restaurant"}]},{"lat":"37.140479595","long":"127.03964103","imageIndex":4,"items":[{"name":"장군보쌈","tel":"031-375-3359","addr":"경기도 오산시 벌음동 185-1번지 1층","indutype":"일반휴게음식 - 일반한식","category":"restaurant"}]},{"lat":"37.139146824","long":"127.03702925","imageIndex":4,"items":[{"name":"전주집","tel":"031-377-6808","addr":"경기도 오산시 벌음동 120-3번지 1층","indutype":"일반휴게음식 - 일반한식","category":"restaurant"}]},{"lat":"37.141561775","long":"127.03653511","imageIndex":4,"items":[{"name":"정담채","tel":"031-374-7708","addr":"경기도 오산시 벌음동 54-3번지 1층","indutype":"일반휴게음식 - 일반한식","category":"restaurant"}]},{"lat":"37.141642656","long":"127.03727799","imageIndex":4,"items":[{"name":"코기조은집","tel":"031-373-7792","addr":"경기도 오산시 벌음동 54-2번지 주윤빌딩 1층","indutype":"일반휴게음식 - 일반한식","category":"restaurant"}]},{"lat":"37.141084084","long":"127.03700761","imageIndex":4,"items":[{"name":"호아빈오산점","tel":"031-374-0369","addr":"경기도 오산시 벌음동 97번지 1층","indutype":"일반휴게음식 - 서양음식","category":"restaurant"}]},{"lat":"37.142418081","long":"127.03542121","imageIndex":16,"items":[{"name":"리틀램어린이집[아이행복]","tel":"031-376-0691","addr":"경기도 오산시 벌음동 329번지","indutype":"학원 - 유아원","category":"study"}]},{"lat":"37.142364947","long":"127.03184199","imageIndex":5,"items":[{"name":"산장모텔","tel":"031-373-1431","addr":"경기도 오산시 벌음동 318-2번지","indutype":"숙박업 - 여관/기타숙박업","category":"hotel"}]},{"lat":"37.141698091","long":"127.03216813","imageIndex":5,"items":[{"name":"썬모텔","tel":"031-376-6101","addr":"경기도 오산시 벌음동 337-1번지","indutype":"숙박업 - 여관/기타숙박업","category":"hotel"}]},{"lat":"37.138254672","long":"127.03742277","imageIndex":5,"items":[{"name":"초원파크","tel":"031-376-2257","addr":"경기도 오산시 벌음동 131-5번지","indutype":"숙박업 - 여관/기타숙박업","category":"hotel"}]},{"lat":"37.13972437","long":"127.03384436","imageIndex":5,"items":[{"name":"초콜릿","tel":"031-377-5960","addr":"경기도 오산시 벌음동 348-3번지 베이스모텔","indutype":"숙박업 - 여관/기타숙박업","category":"hotel"}]},{"lat":"37.142227798","long":"127.03909036","imageIndex":7,"items":[{"name":"차상유통","tel":"031-611-8381","addr":"경기도 오산시 벌음동 49번지 2층","indutype":"음료식품 - 농·축·수산품","category":"food"}]},{"lat":"37.140668738","long":"127.03988873","imageIndex":13,"items":[{"name":"한가람치과기공소","tel":"031-373-7337","addr":"경기도 오산시 벌음동 189-16번지","indutype":"보건위생 - 의료용품","category":"beauty"}]},{"lat":"37.136867655","long":"127.03530629","imageIndex":13,"items":[{"name":"휴 힐링","tel":"031-377-4576","addr":"경기도 오산시 벌음동 134-18번지 2층 206-210호","indutype":"보건위생 - 화장품","category":"beauty"}]}]