[{"lat":"37.774396469","long":"126.78884636","imageIndex":17,"items":[{"name":"(주)누리달","tel":"031-949-5894","addr":"경기도 파주시 월롱면 영태리 527-9번지","indutype":"가구 - 일반가구","category":"other"}]},{"lat":"37.76292468","long":"126.79745903","imageIndex":17,"items":[{"name":"(주)디자인핸즈","tel":"031-944-4993","addr":"경기도 파주시 월롱면 영태리 360-8","indutype":"용역 서비스 - 종합용역","category":"other"}]},{"lat":"37.768618777","long":"126.80812322","imageIndex":17,"items":[{"name":"(주)엘제이케이","tel":"031-997-8636","addr":"경기도 파주시 월롱면 영태리 232-1번지","indutype":"신변잡화 - 기타잡화","category":"other"}]},{"lat":"37.776811062","long":"126.78887345","imageIndex":17,"items":[{"name":"1004","tel":"070-8899-0406","addr":"경기도 파주시 월롱면 영태리 580-9번지","indutype":"유통업 영리 - 편 의 점","category":"other"},{"name":"현대프라자","tel":"031-946-5049","addr":"경기도 파주시 월롱면 영태리 580-9","indutype":"의류 - 정장","category":"other"}]},{"lat":"37.765308832","long":"126.80604367","imageIndex":17,"items":[{"name":"Backstage풀굿","tel":"031-947-0908","addr":"경기도 파주시 월롱면 영태리 283번지","indutype":"용역 서비스 - 기타용역서비스","category":"other"}]},{"lat":"37.771953572","long":"126.79312103","imageIndex":17,"items":[{"name":"DOKY","tel":"031-942-1216","addr":"경기도 파주시 월롱면 영태리 195-2번지","indutype":"의류 - 정장","category":"other"}]},{"lat":"37.782089602","long":"126.78831336","imageIndex":17,"items":[{"name":"GS25파주통일점","tel":"","addr":"경기도 파주시 월롱면 영태리 613-3번지","indutype":"유통업 영리 - 편 의 점","category":"other"}]},{"lat":"37.780008918","long":"126.7885918","imageIndex":17,"items":[{"name":"KORSA 스크린골프","tel":"031-942-0751","addr":"경기도 파주시 월롱면 영태리 618-2번지","indutype":"레져용품 - 골프용품 전문점","category":"other"}]},{"lat":"37.764780294","long":"126.79726097","imageIndex":17,"items":[{"name":"LS라이팅","tel":"031-957-9079","addr":"경기도 파주시 월롱면 영태리 342번지","indutype":"건축자재 - 조명기구","category":"other"},{"name":"하나로유통","tel":"031-948-9598","addr":"경기도 파주시 월롱면 영태리 342번지","indutype":"유통업 영리 - 기타유통업","category":"other"}]},{"lat":"37.77061967","long":"126.79795984","imageIndex":17,"items":[{"name":"MBM가구","tel":"031-944-8975","addr":"경기도 파주시 월롱면 영태리 460-2번지","indutype":"가구 - 일반가구","category":"other"}]},{"lat":"37.772169296","long":"126.78784262","imageIndex":17,"items":[{"name":"S&아크릴광고자재","tel":"031-943-9600","addr":"경기도 파주시 월롱면 영태리 515-2번지","indutype":"용역 서비스 - 종합용역","category":"other"}]},{"lat":"37.78319768","long":"126.78826475","imageIndex":17,"items":[{"name":"SC산업","tel":"031-946-0482","addr":"경기도 파주시 월롱면 영태리 781-3번지","indutype":"건축자재 - 기타건축자재","category":"other"},{"name":"선철가설","tel":"031-946-0482","addr":"경기도 파주시 월롱면 영태리 781-3","indutype":"건축자재 - 기타건축자재","category":"other"}]},{"lat":"37.79122903","long":"126.78548273","imageIndex":17,"items":[{"name":"거성에어컨","tel":"070-3337-7675","addr":"경기도 파주시 월롱면 영태리 815번지","indutype":"전기제품 - 가전제품","category":"other"}]},{"lat":"37.771036521","long":"126.78917384","imageIndex":17,"items":[{"name":"고릴라캠핑(파주)","tel":"031-946-6898","addr":"경기도 파주시 월롱면 영태리 505-7번지","indutype":"레져용품 - 스포츠·레져용품","category":"other"}]},{"lat":"37.768426363","long":"126.79567329","imageIndex":17,"items":[{"name":"국제상사","tel":"02-467-7233","addr":"경기도 파주시 월롱면 영태리 388-34번지","indutype":"의류 - 정장","category":"other"}]},{"lat":"37.780478765","long":"126.79436829","imageIndex":17,"items":[{"name":"깔끔이네","tel":"031-946-9421","addr":"경기도 파주시 월롱면 영태리 117-5번지","indutype":"신변잡화 - 기타잡화","category":"other"}]},{"lat":"37.781422803","long":"126.79326455","imageIndex":17,"items":[{"name":"다연테크 고양점","tel":"031-943-0305","addr":"경기도 파주시 월롱면 영태리 106-1번지","indutype":"전기제품 - 기타전기제품","category":"other"}]},{"lat":"37.772948803","long":"126.79042821","imageIndex":17,"items":[{"name":"대성천막차바닥","tel":"031-953-8811","addr":"경기도 파주시 월롱면 영태리 523-8번지","indutype":"직물 - 카페트,커튼,천막,지물","category":"other"}]},{"lat":"37.772673887","long":"126.78787521","imageIndex":17,"items":[{"name":"동서조경종묘주식회사","tel":"031-949-5764","addr":"경기도 파주시 월롱면 영태리 511-1번지","indutype":"용역 서비스 - 기타용역서비스","category":"other"},{"name":"제일ENG","tel":"031-948-0675","addr":"경기도 파주시 월롱면 영태리 511-1번지","indutype":"전기제품 - 기타전기제품","category":"other"}]},{"lat":"37.776640644","long":"126.78929392","imageIndex":17,"items":[{"name":"동양유압호스","tel":"031-941-8678","addr":"경기도 파주시 월롱면 영태리 588-1번지","indutype":"기타 - 기계공구","category":"other"}]},{"lat":"37.778313778","long":"126.79284198","imageIndex":17,"items":[{"name":"두영벤딩","tel":"031-944-5522","addr":"경기도 파주시 월롱면 영태리 141-5","indutype":"용역 서비스 - 기타용역서비스","category":"other"}]},{"lat":"37.764170116","long":"126.79868127","imageIndex":17,"items":[{"name":"랄라(lalla)","tel":"031-111-1111","addr":"경기도 파주시 월롱면 영태리 344-1번지","indutype":"의류 - 아동의류","category":"other"}]},{"lat":"37.773477155","long":"126.78865606","imageIndex":17,"items":[{"name":"범영포장","tel":"031-949-3846","addr":"경기도 파주시 월롱면 영태리 514-7","indutype":"신변잡화 - 기타잡화","category":"other"}]},{"lat":"37.770632541","long":"126.79502019","imageIndex":17,"items":[{"name":"베스트 락 시스템","tel":"","addr":"경기도 파주시 월롱면 영태리 476-11번지","indutype":"가구 - 일반가구","category":"other"}]},{"lat":"37.79161792","long":"126.78628766","imageIndex":17,"items":[{"name":"삼성CNC","tel":"031-944-7835","addr":"경기도 파주시 월롱면 영태리 812-19번지","indutype":"기타 - 기계공구","category":"other"}]},{"lat":"37.763232108","long":"126.79809371","imageIndex":17,"items":[{"name":"삼양코맥스","tel":"031-942-5455","addr":"경기도 파주시 월롱면 영태리 359번지","indutype":"건축자재 - 기타건축자재","category":"other"}]},{"lat":"37.78203222","long":"126.79145792","imageIndex":17,"items":[{"name":"새롬기업","tel":"031-5236-3153","addr":"경기도 파주시 월롱면 영태리 101-22번지","indutype":"전기제품 - 가전제품","category":"other"}]},{"lat":"37.772114534","long":"126.78745688","imageIndex":17,"items":[{"name":"성호동력","tel":"031-944-1088","addr":"경기도 파주시 월롱면 영태리 511-5번지","indutype":"기타 - 기계공구","category":"other"},{"name":"주안페인트상사","tel":"031-939-6588","addr":"경기도 파주시 월롱면 영태리 511-5번지","indutype":"건축자재 - 페인트","category":"other"},{"name":"효성ENG","tel":"031-945-8044","addr":"경기도 파주시 월롱면 영태리 511-5번지","indutype":"기타 - 기계공구","category":"other"}]},{"lat":"37.777171543","long":"126.78892917","imageIndex":17,"items":[{"name":"세기정보통신","tel":"070-8956-2781","addr":"경기도 파주시 월롱면 영태리 580-6번지","indutype":"전기제품 - 가전제품","category":"other"}]},{"lat":"37.774036194","long":"126.78890415","imageIndex":17,"items":[{"name":"세븐일레븐파주여고점","tel":"","addr":"경기도 파주시 월롱면 영태리 527-3번지","indutype":"유통업 영리 - 편 의 점","category":"other"}]},{"lat":"37.769256946","long":"126.79664704","imageIndex":17,"items":[{"name":"수진코리아","tel":"031-949-4581","addr":"경기도 파주시 월롱면 영태리 461-5번지","indutype":"문화.취미 - 애완동물","category":"other"}]},{"lat":"37.778479251","long":"126.79470309","imageIndex":17,"items":[{"name":"신성특수여객","tel":"031-949-4435","addr":"경기도 파주시 월롱면 영태리 154-1번지","indutype":"용역 서비스 - 가례서비스업","category":"other"}]},{"lat":"37.77156394","long":"126.78690232","imageIndex":17,"items":[{"name":"아주기계","tel":"031-949-6750","addr":"경기도 파주시 월롱면 영태리 510","indutype":"기타 - 기계공구","category":"other"},{"name":"한진모타","tel":"031-949-4382","addr":"경기도 파주시 월롱면 영태리 510번지","indutype":"수리서비스 - 기타수리서비스","category":"other"}]},{"lat":"37.766002735","long":"126.80082122","imageIndex":17,"items":[{"name":"우주디자인.이화디자인","tel":"031-111-1111","addr":"경기도 파주시 월롱면 영태리 434-8번지","indutype":"가구 - 일반가구","category":"other"}]},{"lat":"37.777675843","long":"126.79381997","imageIndex":17,"items":[{"name":"유성사","tel":"031-944-1869","addr":"경기도 파주시 월롱면 영태리 151-18","indutype":"수리서비스 - 세탁소","category":"other"}]},{"lat":"37.777389549","long":"126.79495587","imageIndex":17,"items":[{"name":"이화메디컬","tel":"02-2274-2801","addr":"경기도 파주시 월롱면 영태리 162-5번지","indutype":"서적문구 - 과학기자재","category":"other"}]},{"lat":"37.769227685","long":"126.80587439","imageIndex":17,"items":[{"name":"장원광고기획","tel":"031-941-7811","addr":"경기도 파주시 월롱면 영태리 975-14번지","indutype":"건축자재 - 인테리어전문","category":"other"}]},{"lat":"37.77947298","long":"126.80143158","imageIndex":17,"items":[{"name":"조인플라워","tel":"031-903-8456","addr":"경기도 파주시 월롱면 영태리 857번지","indutype":"문화.취미 - 화원","category":"other"}]},{"lat":"37.76914542","long":"126.79470656","imageIndex":17,"items":[{"name":"주식회사 경기수도건설","tel":"031-958-0002","addr":"경기도 파주시 월롱면 영태리 383-27번지","indutype":"용역 서비스 - 기타용역서비스","category":"other"}]},{"lat":"37.764342827","long":"126.79956601","imageIndex":17,"items":[{"name":"주식회사단련테크","tel":"031-946-0176","addr":"경기도 파주시 월롱면 영태리 348","indutype":"기타 - 기계공구","category":"other"}]},{"lat":"37.7828914","long":"126.78828833","imageIndex":17,"items":[{"name":"지케이","tel":"031-1599-7099","addr":"경기도 파주시 월롱면 영태리 767-5,767-2,768-1,769-4번지","indutype":"가구 - 기타가구","category":"other"}]},{"lat":"37.778923495","long":"126.7912057","imageIndex":17,"items":[{"name":"천지","tel":"031-941-0149","addr":"경기도 파주시 월롱면 영태리 134-10번지","indutype":"건축자재 - 기타건축자재","category":"other"},{"name":"크린아트피아","tel":"031-942-9233","addr":"경기도 파주시 월롱면 영태리 134-10번지","indutype":"용역 서비스 - 종합용역","category":"other"}]},{"lat":"37.780120037","long":"126.81126007","imageIndex":17,"items":[{"name":"철문지게차","tel":"031-949-1532","addr":"경기도 파주시 월롱면 영태리 7번지","indutype":"기타 - 기계공구","category":"other"}]},{"lat":"37.782030976","long":"126.79076547","imageIndex":17,"items":[{"name":"탑에어","tel":"031-941-4495","addr":"경기도 파주시 월롱면 영태리 100-16번지","indutype":"용역 서비스 - 기타용역서비스","category":"other"}]},{"lat":"37.771702334","long":"126.78868388","imageIndex":17,"items":[{"name":"파주금촌콘크리트","tel":"031-957-6942","addr":"경기도 파주시 월롱면 영태리 508번지","indutype":"건축자재 - 기타건축자재","category":"other"},{"name":"파주콘크리트산업","tel":"031-957-6942","addr":"경기도 파주시 월롱면 영태리 508번지","indutype":"건축자재 - 기타건축자재","category":"other"}]},{"lat":"37.772756729","long":"126.78883974","imageIndex":17,"items":[{"name":"파주보람장례식장","tel":"031-947-9444","addr":"경기도 파주시 월롱면 영태리 520-10번지","indutype":"용역 서비스 - 가례서비스업","category":"other"}]},{"lat":"37.771228529","long":"126.79072824","imageIndex":17,"items":[{"name":"하나로종합주방","tel":"031-945-5858","addr":"경기도 파주시 월롱면 영태리 494-5번지","indutype":"주방용구 - 주방용구","category":"other"}]},{"lat":"37.779169148","long":"126.79254443","imageIndex":17,"items":[{"name":"한진산업(주)","tel":"031-941-0124","addr":"경기도 파주시 월롱면 영태리 121-2번지","indutype":"신변잡화 - 기타잡화","category":"other"}]},{"lat":"37.771256476","long":"126.7912389","imageIndex":17,"items":[{"name":"화암인터내셔널 주식회사","tel":"031-945-1358","addr":"경기도 파주시 월롱면 영태리 493-6번지","indutype":"신변잡화 - 기타잡화","category":"other"}]},{"lat":"37.784146","long":"126.78954477","imageIndex":17,"items":[{"name":"화진농자재","tel":"031-945-1285","addr":"경기도 파주시 월롱면 영태리 780-1번지","indutype":"농업 - 농기계","category":"other"}]}]