[{"lat":"37.140396914","long":"127.49812509","items":[{"name":"노승산 우무실마을 영농조합법인","tel":"031-641-5600","addr":"경기도 이천시 설성면 수산리 383-1번지","category":"학원 - 기타 교육기관"}]},{"lat":"37.128766728","long":"127.50615162","items":[{"name":"노승산식당","tel":"031-643-0116","addr":"경기도 이천시 설성면 수산리 89-3번지","category":"일반휴게음식 - 일반한식"},{"name":"달작소","tel":"031-1111-1111","addr":"경기도 이천시 설성면 수산리 89-3번지","category":"일반휴게음식 - 서양음식"}]},{"lat":"37.141041691","long":"127.49907472","items":[{"name":"농업회사법인우리들식품(주)","tel":"031-000-0000","addr":"경기도 이천시 설성면 수산리 377-9번지 1층","category":"음료식품 - 기타음료식품"}]},{"lat":"37.136982678","long":"127.49795653","items":[{"name":"대일가스","tel":"031-641-1482","addr":"경기도 이천시 설성면 수산리 406-9번지 1층","category":"연료판매점 - LPG 취급점"}]},{"lat":"37.141653815","long":"127.49921378","items":[{"name":"수산정육점","tel":"031-641-6623","addr":"경기도 이천시 설성면 수산리 375-3번지","category":"음료식품 - 정육점"},{"name":"정육점식당우무실한우","tel":"031-641-6623","addr":"경기도 이천시 설성면 수산리 375-3번지","category":"일반휴게음식 - 일반한식"}]},{"lat":"37.147729096","long":"127.50081806","items":[{"name":"순이네딸기","tel":"070-7018-5392","addr":"경기도 이천시 설성면 수산리 738-1,738-2","category":"음료식품 - 농·축·수산품"}]},{"lat":"37.139292969","long":"127.49924337","items":[{"name":"스타일상사","tel":"031-643-1666","addr":"경기도 이천시 설성면 수산리 387-4.2","category":"자동차정비 유지 - 자동차부품"}]},{"lat":"37.129987849","long":"127.50290747","items":[{"name":"인더마운틴","tel":"070-4710-5521","addr":"경기도 이천시 설성면 수산리 95-30번지","category":"음료식품 - 제과점"}]},{"lat":"37.134066035","long":"127.49296326","items":[{"name":"제일축산","tel":"031-721-8023","addr":"경기도 이천시 설성면 수산리 467-11번지","category":"음료식품 - 농·축·수산품"}]},{"lat":"37.144292894","long":"127.51218611","items":[{"name":"주식회사 덕원상사","tel":"031-643-7191","addr":"경기도 이천시 설성면 수산리 27-4번지","category":"자동차정비 유지 - 자동차시트·타이어"}]},{"lat":"37.148676974","long":"127.5089062","items":[{"name":"흥성","tel":"031-643-9368","addr":"경기도 이천시 설성면 수산리 2-2번지","category":"음료식품 - 정육점"}]}]