[{"lat":"37.42730228","long":"127.2415942","imageIndex":8,"items":[{"name":"광주탑치과의원","tel":"031-8028-8828","addr":"경기도 광주시 탄벌동 278-3번지 2층","indutype":"의원 - 치과의원","category":"medical"}]},{"lat":"37.41599978","long":"127.247918","imageIndex":8,"items":[{"name":"굿모닝약국","tel":"031-764-7178","addr":"경기도 광주시 탄벌동 41-18번지","indutype":"약국 - 약국","category":"medical"}]},{"lat":"37.41686062","long":"127.2498977","imageIndex":8,"items":[{"name":"굿복지약국","tel":"031-762-3939","addr":"경기도 광주시 탄벌동 18-1번지 노인복지회관 1층","indutype":"약국 - 약국","category":"medical"}]},{"lat":"37.41558946","long":"127.250255","imageIndex":8,"items":[{"name":"서울우리치과","tel":"031-767-2827","addr":"경기도 광주시 탄벌동 44-2번지 세양빌딩 301호","indutype":"의원 - 치과의원","category":"medical"},{"name":"톡톡경희한의원","tel":"031-767-0075","addr":"경기도 광주시 탄벌동 44-2번지 세양빌딩 2층 202호","indutype":"의원 - 한의원","category":"medical"},{"name":"푸른내과의원","tel":"031-768-8074","addr":"경기도 광주시 탄벌동 44-2번지","indutype":"의원 - 의원","category":"medical"}]},{"lat":"37.41539065","long":"127.2505367","imageIndex":8,"items":[{"name":"소통부부한의원","tel":"031-797-5075","addr":"경기도 광주시 탄벌동 44-5번지 KJ빌딩","indutype":"의원 - 한의원","category":"medical"}]},{"lat":"37.41911265","long":"127.2457818","imageIndex":8,"items":[{"name":"송정 종합동물병원","tel":"031-767-7975","addr":"경기도 광주시 탄벌동 140번지 태경빌딩 1층 좌1호","indutype":"기타의료기관 - 동물병원","category":"medical"}]},{"lat":"37.41519226","long":"127.2506152","imageIndex":8,"items":[{"name":"추미애가정의학과의원","tel":"031-763-4684","addr":"경기도 광주시 탄벌동 53-2.4","indutype":"의원 - 의원","category":"medical"}]},{"lat":"37.4151111","long":"127.2506488","imageIndex":8,"items":[{"name":"큰사랑약국","tel":"031-797-7952","addr":"경기도 광주시 탄벌동 53-4번지","indutype":"약국 - 약국","category":"medical"}]},{"lat":"37.41714111","long":"127.2493338","imageIndex":8,"items":[{"name":"태강한의원","tel":"031-768-8844","addr":"경기도 광주시 탄벌동 18-2번지 3층","indutype":"의원 - 한의원","category":"medical"}]},{"lat":"37.42700434","long":"127.2418983","imageIndex":8,"items":[{"name":"회덕한의원","tel":"031-766-1075","addr":"경기도 광주시 탄벌동 274-23번지","indutype":"의원 - 한의원","category":"medical"}]}]