[{"lat":"37.18027468","long":"127.11688797","items":[{"name":"3030 영어","tel":"","addr":"경기도 화성시 목동 365번지 호반베르디움센트럴포레 1918동 302호","category":"학원 - 기타 교육기관"},{"name":"3030영어","tel":"02-1111-1111","addr":"경기도 화성시 목동 365번지 호반베르디움센트럴포레 1918동 302호","category":"학원 - 기타 교육기관"},{"name":"3030영어","tel":"","addr":"경기도 화성시 목동 365번지 호반베르디움센트럴포레 1902동 1103호","category":"학원 - 기타 교육기관"},{"name":"GS25동탄포레점","tel":"","addr":"경기도 화성시 목동 365번지 호반베르디움센트럴포레 부출입구상가 1930동 104~105호","category":"유통업 영리 - 편 의 점"},{"name":"e해법수학 호반 센트럴포레점","tel":"031-000-0000","addr":"경기도 화성시 목동 365번지 호반베르디움센트럴포레 1918동 203호","category":"학원 - 기타 교육기관"},{"name":"개인과외","tel":"","addr":"경기도 화성시 목동 365번지 호반베르디움센트럴포레 1911동 201호","category":"학원 - 기타 교육기관"},{"name":"개인과외(소리사랑 피아노)","tel":"031-8043-4366","addr":"경기도 화성시 목동 365번지 호반베르디움센트럴포레 1918동 833호","category":"학원 - 예·체능계학원"},{"name":"개인과외교습","tel":"031-284-5904","addr":"경기도 화성시 목동 365번지 호반베르디움센트럴포레 1918동 104호","category":"학원 - 기타 교육기관"},{"name":"공터영어동탄2목동센터","tel":"070-4312-4678","addr":"경기도 화성시 목동 365번지 호반베르디움센트럴포레 1920동 201호","category":"학원 - 기타 교육기관"},{"name":"김동석개인과외교습","tel":"031-204-9903","addr":"경기도 화성시 목동 365번지 호반베르디움센트럴포레 1919동 804호","category":"학원 - 기타 교육기관"},{"name":"더반뷰티","tel":"","addr":"경기도 화성시 목동 365번지 호반베르디움센트럴포레 1920동 1801호","category":"보건위생 - 화장품"},{"name":"라온","tel":"","addr":"경기도 화성시 목동 365번지 호반베르디움센트럴포레 1911동 15층 02호","category":"의류 - 기타의류"},{"name":"럭키블라썸","tel":"031-8043-7956","addr":"경기도 화성시 목동 365번지 호반베르디움센트럴포레 1912동 1002호","category":"신변잡화 - 기타잡화"},{"name":"리드앤톡영어도서관","tel":"","addr":"경기도 화성시 목동 365번지 호반베르디움센트럴포레 1905동 101호","category":"학원 - 기타 교육기관"},{"name":"리아어린이집[아이행복]","tel":"031-372-2150","addr":"경기도 화성시 목동 365번지 호반베르디움센트럴포레 관리동","category":"학원 - 유아원"},{"name":"리움아트공작소","tel":"","addr":"경기도 화성시 목동 365번지 호반베르디움센트럴포레 1905동 101호","category":"학원 - 기타 교육기관"},{"name":"변미진개인과외","tel":"","addr":"경기도 화성시 목동 365번지 호반베르디움센트럴포레 1909동 304호","category":"학원 - 기타 교육기관"},{"name":"빛나라어린이집[아이행복]","tel":"031-372-7586","addr":"경기도 화성시 목동 365번지 호반베르디움센트럴포레 1920동 102호","category":"학원 - 유아원"},{"name":"사랑가득어린이집[아이행복]","tel":"031-375-7568","addr":"경기도 화성시 목동 365번지 호반베르디움센트럴포레 1911동 101호","category":"학원 - 유아원"},{"name":"선데이투피엠","tel":"","addr":"경기도 화성시 목동 365번지 호반베르디움센트럴포레 1911동 13층 1301호","category":"의류 - 정장"},{"name":"수인냉열","tel":"","addr":"경기도 화성시 목동 365번지 호반베르디움센트럴포레 1904동 702호","category":"용역 서비스 - 기타용역서비스"},{"name":"오감키즈","tel":"","addr":"경기도 화성시 목동 365번지 호반베르디움센트럴포레 1922동 11층 1101호","category":"학원 - 기타 교육기관"},{"name":"윤쌤수학","tel":"","addr":"경기도 화성시 목동 365번지 호반베르디움센트럴포레 1907동 1002호","category":"학원 - 기타 교육기관"},{"name":"지투(G2)영어중국어","tel":"","addr":"경기도 화성시 목동 365번지 호반베르디움센트럴포레 1907동 1002호","category":"학원 - 기타 교육기관"},{"name":"칸잉글리시아카데미","tel":"070-8031-4038","addr":"경기도 화성시 목동 365번지 호반베르디움센트럴포레 1920동 103호","category":"학원 - 기타 교육기관"},{"name":"크리아트호반원","tel":"","addr":"경기도 화성시 목동 365번지 호반베르디움센트럴포레 1911동 1902호","category":"학원 - 기타 교육기관"},{"name":"펀펀스텔라 영어","tel":"","addr":"경기도 화성시 목동 365번지 호반베르디움센트럴포레 1915동 403호","category":"학원 - 기타 교육기관"},{"name":"하나영 피아노","tel":"","addr":"경기도 화성시 목동 365번지 호반베르디움센트럴포레 1021동 104호","category":"학원 - 예·체능계학원"},{"name":"호반다온어린이집[아이행복]","tel":"031-378-1239","addr":"경기도 화성시 목동 365번지 호반베르디움센트럴포레 1913동 1층 03호","category":"학원 - 유아원"},{"name":"호반베르디움센트럴포레임주차대표회의","tel":"031-373-7215","addr":"경기도 화성시 목동 365번지 호반베르디움센트럴포레","category":"용역 서비스 - 사무서비스"},{"name":"호반아이꿈어린이집[아이행복]","tel":"031-377-6292","addr":"경기도 화성시 목동 365번지 호반베르디움센트럴포레 1907동 101호","category":"학원 - 유아원"},{"name":"호반아이뜰어린이집[아이행복]","tel":"031-8050-4534","addr":"경기도 화성시 목동 365번지 호반베르디움센트럴포레 1906동 101호","category":"학원 - 유아원"},{"name":"화성더엠","tel":"","addr":"경기도 화성시 목동 365번지 호반베르디움센트럴포레 1911동 2504호","category":"직물 - 침구·수예점"}]},{"lat":"37.19194213","long":"127.12688426","items":[{"name":"3030영어 동탄목리2러닝센터","tel":"","addr":"경기도 화성시 목동 118-17번지 e편한세상동탄 2111동 902호","category":"학원 - 기타 교육기관"},{"name":"e편한세상플레이마미어린이집[아이행복]","tel":"031-374-6577","addr":"경기도 화성시 목동 118-17번지 e편한세상동탄","category":"학원 - 유아원"},{"name":"p2p 영어","tel":"","addr":"경기도 화성시 목동 118-17번지 e편한세상동탄 2106동 303호","category":"학원 - 기타 교육기관"},{"name":"개인과외","tel":"","addr":"경기도 화성시 목동 118-17번지 e편한세상동탄 2109동 404호","category":"학원 - 기타 교육기관"},{"name":"김용단 개인과외","tel":"02-335-4300","addr":"경기도 화성시 목동 118-17번지 e편한세상동탄 2107동 101호","category":"학원 - 기타 교육기관"},{"name":"꿈꾸는 도화지미술","tel":"","addr":"경기도 화성시 목동 118-17번지 e편한세상동탄 2102동 603호","category":"학원 - 기타 교육기관"},{"name":"네일,더이뻐","tel":"","addr":"경기도 화성시 목동 118-17번지 e편한세상동탄 2층 208호","category":"보건위생 - 피부미용실"},{"name":"더비엔나음악학원","tel":"031-111-1111","addr":"경기도 화성시 목동 118-17번지 e편한세상동탄 상가동 203-206호","category":"학원 - 예·체능계학원"},{"name":"동탄목동하연과학교습소","tel":"031-8055-3779","addr":"경기도 화성시 목동 118-17번지 e편한세상동탄 상가동 2층 207호","category":"학원 - 보습학원"},{"name":"모모아트 스튜디오","tel":"031-000-0000","addr":"경기도 화성시 목동 118-17번지 e편한세상 동탄 202호","category":"학원 - 예·체능계학원"},{"name":"뮤엠영어","tel":"","addr":"경기도 화성시 목동 118-17번지 e편한세상동탄 상가동 209호","category":"학원 - 외국어학원"},{"name":"미앤숙","tel":"031-373-3570","addr":"경기도 화성시 목동 118-17번지 e편한세상동탄 2114동 104호","category":"보건위생 - 기타대인서비스"},{"name":"베로베로","tel":"","addr":"경기도 화성시 목동 118-17번지 e편한세상동탄 2111동 405호","category":"신변잡화 - 기타잡화"},{"name":"별별그림 창작소","tel":"","addr":"경기도 화성시 목동 118-17번지 e편한세상동탄 2101동 205호","category":"학원 - 기타 교육기관"},{"name":"새롬어린이집[아이행복]","tel":"070-4383-1114","addr":"경기도 화성시 목동 118-17번지 e편한세상동탄 2110동 104호","category":"학원 - 유아원"},{"name":"샘클린","tel":"","addr":"경기도 화성시 목동 118-17번지 e편한세상동탄 2114동 301호","category":"용역 서비스 - 종합용역"},{"name":"스튜디오로이(STUDIO ROEY)","tel":"","addr":"경기도 화성시 목동 118-17번지 e편한세상동탄 2111동 2005호","category":"가구 - 기타가구"},{"name":"어번영어","tel":"031-8015-1933","addr":"경기도 화성시 목동 118-17번지 e편한세상동탄 2105동 201호","category":"학원 - 기타 교육기관"},{"name":"어번영어(Urban English)","tel":"","addr":"경기도 화성시 목동 118-17번지 e편한세상동탄 2105동 201호","category":"학원 - 기타 교육기관"},{"name":"오 필라테스(Oh Pilates)","tel":"034-8043-7930","addr":"경기도 화성시 목동 118-17번지 e편한세상동탄 2107동 203호","category":"레저업소 - 헬스클럽"},{"name":"이편한세상동탄아파트 입주자대표회의","tel":"031-378-8767","addr":"경기도 화성시 목동 118-17번지 e편한세상동탄","category":"레저업소 - 헬스클럽"},{"name":"임희도개인과외","tel":"","addr":"경기도 화성시 목동 118-17번지 e편한세상동탄 2107동 2102호","category":"학원 - 기타 교육기관"},{"name":"토론하는 아이들","tel":"","addr":"경기도 화성시 목동 118-17번지 e편한세상동탄 2109동 1903호","category":"학원 - 기타 교육기관"},{"name":"하얀 크리닝","tel":"02-3448-3399","addr":"경기도 화성시 목동 118-17번지 e편한세상동탄 상가동 2층 201호","category":"수리서비스 - 세탁소"}]},{"lat":"37.181060039","long":"127.12449038","items":[{"name":"8딱8딱 회포장전문","tel":"031-376-8840","addr":"경기도 화성시 목동 458-1번지 1층 일부호","category":"일반휴게음식 - 일식·회집"},{"name":"꽃단장네일","tel":"","addr":"경기도 화성시 목동 447-5번지 일부호","category":"보건위생 - 피부미용실"},{"name":"엄마네집","tel":"031-377-6369","addr":"경기도 화성시 목동 458-1번지 103호","category":"음료식품 - 기타음료식품"},{"name":"욤욤카페(YUMYUMcafe)","tel":"","addr":"경기도 화성시 목동 447-4번지 1층","category":"일반휴게음식 - 서양음식"}]},{"lat":"37.179691333","long":"127.12363236","items":[{"name":"Black+Red (블랙+레드)","tel":"031-376-8787","addr":"경기도 화성시 목동 452-8번지 1층","category":"일반휴게음식 - 중국식"},{"name":"다라뷰티","tel":"031-376-9048","addr":"경기도 화성시 목동 453-4번지 1층 일부호","category":"보건위생 - 피부미용실"},{"name":"커피에반하다","tel":"031-373-0506","addr":"경기도 화성시 목동 453-4번지 1층 일부호","category":"일반휴게음식 - 서양음식"},{"name":"헤쎄드(HESED)","tel":"070-4649-1101","addr":"경기도 화성시 목동 453-4번지","category":"보건위생 - 미용원"}]},{"lat":"37.18455956","long":"127.12104994","items":[{"name":"GS25동탄목동점","tel":"","addr":"경기도 화성시 목동 216-5번지 힐스테이트 동탄 402(상가)동 지1층 136호","category":"유통업 영리 - 편 의 점"},{"name":"개인과외","tel":"","addr":"경기도 화성시 목동 216-5번지 힐스테이트동탄 2026동 1103호","category":"학원 - 기타 교육기관"},{"name":"개인과외","tel":"","addr":"경기도 화성시 목동 216-5번지 힐스테이트동탄 2022동 104호","category":"학원 - 기타 교육기관"},{"name":"꿈꾸는 교육","tel":"","addr":"경기도 화성시 목동 216-5번지 힐스테이트동탄 2027동 502호","category":"서적문구 - 기타서적문구"},{"name":"동탄힐스해법수학","tel":"031-000-0000","addr":"경기도 화성시 목동 216-5번지 힐스테이트동탄 2025동 505호","category":"학원 - 기타 교육기관"},{"name":"솔샘유치원[아이행복]","tel":"031-372-5638","addr":"경기도 화성시 목동 216-5번지 힐스테이트동탄","category":"학원 - 유치원"},{"name":"씨유동탄힐스점","tel":"080-080-3663","addr":"경기도 화성시 목동 216-5번지 힐스테이트동탄 상가동 122호","category":"유통업 영리 - 편 의 점"},{"name":"아이다움어린이집[아이행복]","tel":"031-373-3678","addr":"경기도 화성시 목동 216-5번지 힐스테이트동탄 2022동 101호","category":"학원 - 유아원"},{"name":"안녕,피아노","tel":"","addr":"경기도 화성시 목동 216-5번지 힐스테이트동탄 2021동 104호","category":"학원 - 기타 교육기관"},{"name":"우지인개인과외","tel":"","addr":"경기도 화성시 목동 216-5번지 힐스테이트동탄 2036동 402호","category":"학원 - 기타 교육기관"},{"name":"율피아노","tel":"031-111-1111","addr":"경기도 화성시 목동 216-5번지 힐스테이트동탄 2023동 1층 104호","category":"학원 - 기타 교육기관"},{"name":"이든샘어린이집[아이행복]","tel":"031-8043-5232","addr":"경기도 화성시 목동 216-5번지 힐스테이트동탄 2032동 101호","category":"학원 - 유아원"},{"name":"장수경개인과외","tel":"","addr":"경기도 화성시 목동 216-5번지 힐스테이트동탄 2024동 402호","category":"학원 - 기타 교육기관"},{"name":"캠든영어","tel":"","addr":"경기도 화성시 목동 216-5번지 힐스테이트동탄 2021동 204호","category":"학원 - 기타 교육기관"},{"name":"한율힐스 비상잉글리시아이","tel":"","addr":"경기도 화성시 목동 216-5번지 힐스테이트동탄 2023동 201호","category":"학원 - 기타 교육기관"},{"name":"행복가득한어린이집[아이행복]","tel":"031-8043-2284","addr":"경기도 화성시 목동 216-5번지 힐스테이트동탄 2029동 101호","category":"학원 - 유아원"}]},{"lat":"37.179699063","long":"127.12488233","items":[{"name":"가장맛있는족발 동탄목동점","tel":"031-374-5949","addr":"경기도 화성시 목동 464-6번지 1층 전부호","category":"일반휴게음식 - 일반한식"},{"name":"이디야 동탄체육공원점","tel":"031-376-5665","addr":"경기도 화성시 목동 463-3번지","category":"일반휴게음식 - 서양음식"},{"name":"커피베이 동탄2신도시 체육공원점","tel":"031-378-4530","addr":"경기도 화성시 목동 463-6번지 101호","category":"일반휴게음식 - 서양음식"}]},{"lat":"37.188832755","long":"127.12763374","items":[{"name":"가치농산","tel":"070-7529-0334","addr":"경기도 화성시 목동 산33번지 동탄금강펜테리움센트럴파크IV 상가 301호","category":"음료식품 - 농·축·수산품"},{"name":"광교유리","tel":"","addr":"경기도 화성시 목동 산33번지 동탄금강펜테리움센트럴파크IV 2133동 1803호","category":"용역 서비스 - 기타용역서비스"},{"name":"금강쇼팽음악학원","tel":"031-376-8084","addr":"경기도 화성시 목동 산33번지 동탄금강펜테리움센트럴파크IV 305,306호","category":"학원 - 예·체능계학원"},{"name":"금강아이뜰어린이집[아이행복]","tel":"031-377-5881","addr":"경기도 화성시 목동 산33번지 동탄금강펜테리움센트럴파크IV 2133동 104호","category":"학원 - 유아원"},{"name":"금강자연어린이집[아이행복]","tel":"031-373-2371","addr":"경기도 화성시 목동 산33번지 동탄금강펜테리움센트럴파크4차","category":"학원 - 유아원"},{"name":"나음온누리약국","tel":"031-377-2045","addr":"경기도 화성시 목동 산33번지 동탄금강펜테리움센트럴파크IV 203호","category":"약국 - 약국"},{"name":"동탄 경희대 태권도","tel":"031-373-5548","addr":"경기도 화성시 목동 산33번지 동탄금강펜테리움 센트럴파크IV 207, 208, 209호","category":"학원 - 예·체능계학원"},{"name":"레알마요","tel":"031-373-7185","addr":"경기도 화성시 목동 산33번지 동탄금강펜테리움센트럴파크IV 206호","category":"보건위생 - 미용원"},{"name":"문민정","tel":"070-8031-4038","addr":"경기도 화성시 목동 산33번지 동탄금강펜테리움센트럴파크Ⅳ 2138동 602호","category":"학원 - 기타 교육기관"},{"name":"문법여신 윌리샘","tel":"","addr":"경기도 화성시 목동 산33번지 동탄금강펜테리움센트럴파크IV 2131동 1101호","category":"학원 - 기타 교육기관"},{"name":"삼성365소아청소년과의원","tel":"031-375-0365","addr":"경기도 화성시 목동 산33번지 동탄금강펜테리움센트럴파크IV 201,202호","category":"의원 - 의원"},{"name":"신통치킨 동탄목동점","tel":"031-376-5238","addr":"경기도 화성시 목동 산33번지 동탄 금강펜테리움 센트럴파크IV G동 2층 205호","category":"일반휴게음식 - 스넥"},{"name":"아롱별어린이집[아이행복]","tel":"031-373-0670","addr":"경기도 화성시 목동 산33번지 동탄금강펜테리움센트럴파크IV 2135동 102호","category":"학원 - 유아원"},{"name":"아소비 동탄금강4차점","tel":"","addr":"경기도 화성시 목동 산33번지 동탄금강펜테리움센트럴파크IV 2137동 101호","category":"학원 - 기타 교육기관"},{"name":"에이급수학교습소","tel":"031-526-7428","addr":"경기도 화성시 목동 산33번지 금강펜테리움센트럴파크 102호","category":"학원 - 보습학원"},{"name":"유도연스터디학원","tel":"031-613-7191","addr":"경기도 화성시 목동 산33번지 동탄금강펜테리움센트럴파크IV 2123동 302호","category":"학원 - 보습학원"},{"name":"이안시스템","tel":"","addr":"경기도 화성시 목동 산33번지 동탄금강펜테리움센트럴파크 2129동 1501호","category":"용역 서비스 - 기타용역서비스"},{"name":"이원희 (개인과외)","tel":"031-372-8878","addr":"경기도 화성시 목동 산33번지 동탄금강펜테리움센트럴파크IV 2134동 604호","category":"학원 - 기타 교육기관"},{"name":"커피베이목동점","tel":"031-375-6489","addr":"경기도 화성시 목동 산33번지 동탄금강펜테리움센트럴파크IV 204호","category":"일반휴게음식 - 서양음식"},{"name":"파리바게뜨 동탄금강","tel":"031-335-0465","addr":"경기도 화성시 목동 산33번지 동탄금강판테리움 지2층 302호,303호","category":"음료식품 - 제과점"},{"name":"헤어커커","tel":"031-376-7365","addr":"경기도 화성시 목동 산33번지 동탄금강펜테리움센트럴파크IV G동 2층 304호","category":"보건위생 - 미용원"},{"name":"홈비즈블럭","tel":"","addr":"경기도 화성시 목동 산33번지 동탄2택지개발지구 A-46블록 동탄금강펜테리움센트럴파크IV 2138동 101호","category":"학원 - 기타 교육기관"}]},{"lat":"37.180274377","long":"127.12618953","items":[{"name":"강씨가문의족발","tel":"031-8003-5519","addr":"경기도 화성시 목동 462-4번지 1층 일부호","category":"일반휴게음식 - 일반한식"},{"name":"오아시스 무빙웍스 서비스","tel":"070-8031-4038","addr":"경기도 화성시 목동 462-4번지 101호","category":"수리서비스 - 세탁소"}]},{"lat":"37.187000825","long":"127.12160558","items":[{"name":"개인과외","tel":"","addr":"경기도 화성시 목동 206-2번지 동탄동원로얄듀크2차 2002동 103호","category":"학원 - 기타 교육기관"},{"name":"경희대 한율 태권도장","tel":"031-378-7939","addr":"경기도 화성시 목동 206-2번지 동탄동원로얄듀크2차 상가2020동 B203-B205호","category":"학원 - 예·체능계학원"},{"name":"꿈누리터어린이집[아이행복]","tel":"031-8058-2008","addr":"경기도 화성시 목동 206-2번지 동탄동원로얄듀크2차 2008동 105호","category":"학원 - 유아원"},{"name":"동원다올어린이집[아이행복]","tel":"031-373-2604","addr":"경기도 화성시 목동 206-2번지 동탄동원로얄듀크2차 2006동 101호","category":"학원 - 유아원"},{"name":"두배로행복마트","tel":"031-372-4962","addr":"경기도 화성시 목동 206-2번지 동원로얄듀크2차 2020동 B211~B213호","category":"유통업 영리 - 슈퍼마켓"},{"name":"라움비즈블럭방","tel":"031-8050-2099","addr":"경기도 화성시 목동 206-2번지 동탄동원로얄듀크2차 2003동 103호","category":"학원 - 기타 교육기관"},{"name":"샵피아노음악교습소","tel":"031-8043-2211","addr":"경기도 화성시 목동 206-2번지 동탄동원로얄듀크2차 상가 2020동 B202호","category":"학원 - 예·체능계학원"},{"name":"엠베스트se로얄듀크","tel":"","addr":"경기도 화성시 목동 206-2번지 동탄동원로얄듀크2차 2002동 502호","category":"학원 - 기타 교육기관"},{"name":"한율영수교실","tel":"031-347-2380","addr":"경기도 화성시 목동 206-2번지 동탄동원로얄듀크2차 2003동 701호","category":"학원 - 기타 교육기관"},{"name":"한율음악학원","tel":"031-374-1181","addr":"경기도 화성시 목동 206-2번지 동탄동원로얄듀크2차 상가 2020동 B216,B217호","category":"학원 - 예·체능계학원"}]},{"lat":"37.186528666","long":"127.1251636","items":[{"name":"개인과외","tel":"","addr":"경기도 화성시 목동 188-1번지 한신더휴 2218동 205호","category":"학원 - 기타 교육기관"},{"name":"누나홀닭동탄목동점","tel":"031-374-1588","addr":"경기도 화성시 목동 188-1번지 한신더휴 1층 117호 118호","category":"일반휴게음식 - 스넥"},{"name":"도담음악교습소","tel":"031-376-0314","addr":"경기도 화성시 목동 188-1번지 한신더휴 상가동 104호","category":"학원 - 예·체능계학원"},{"name":"동탄한신어린이집[아이행복]","tel":"031-374-1044","addr":"경기도 화성시 목동 188-1번지 한신더휴 2212동 103호","category":"학원 - 유아원"},{"name":"마루AI코딩교습소","tel":"","addr":"경기도 화성시 목동 188-1번지 한신더휴 상가 108호","category":"학원 - 컴퓨터학원"},{"name":"뮤엠영어 동탄한신더휴네스트","tel":"","addr":"경기도 화성시 목동 188-1번지 한신더휴 2216동 305호","category":"학원 - 기타 교육기관"},{"name":"바른고기 정육점","tel":"031-372-6144","addr":"경기도 화성시 목동 188-1번지 한신더휴 116호","category":"음료식품 - 정육점"},{"name":"시립동탄 한신더휴 어린이집[아이행복]","tel":"031-8043-1025","addr":"경기도 화성시 목동 188-1번지 한신더휴","category":"학원 - 유아원"},{"name":"에이엔씨 잉글리시(A&C English)","tel":"","addr":"경기도 화성시 목동 188-1번지 한신더휴 2218동 305호","category":"학원 - 기타 교육기관"},{"name":"에이치비 (HB)영어","tel":"","addr":"경기도 화성시 목동 188-1번지 한신더휴 2216동 402호","category":"학원 - 기타 교육기관"},{"name":"엠베스트SE 동탄한신더휴캠퍼스","tel":"","addr":"경기도 화성시 목동 188-1번지 한신더휴 2211동 801호","category":"학원 - 기타 교육기관"},{"name":"엠베스트SE 동탄한신더휴캠퍼스2","tel":"","addr":"경기도 화성시 목동 188-1번지 한신더휴 2211동 801호","category":"학원 - 기타 교육기관"},{"name":"클레어의 영어교실","tel":"","addr":"경기도 화성시 목동 188-1번지 한신더휴 2218동 3층 305호","category":"학원 - 기타 교육기관"},{"name":"향기나무어린이집[아이행복]","tel":"031-378-9846","addr":"경기도 화성시 목동 188-1번지 한신더휴 2212동 101호","category":"학원 - 유아원"},{"name":"휴사랑어린이집[아이행복]","tel":"031-8043-5533","addr":"경기도 화성시 목동 188-1번지 한신더휴 2217동 102호","category":"학원 - 유아원"}]},{"lat":"37.182583016","long":"127.12427886","items":[{"name":"고봉민김밥인(화성목동점)","tel":"031-376-0411","addr":"경기도 화성시 목동 산18번지 1층 115호","category":"일반휴게음식 - 일반한식"},{"name":"나노치과","tel":"031-373-2870","addr":"경기도 화성시 목동 산18번지 동탄센터프라자1동 301호,302호,303호","category":"의원 - 치과의원"},{"name":"더맑은샵","tel":"031-373-3701","addr":"경기도 화성시 목동 산18번지 동탄센터프라자 1동 3층 304호","category":"보건위생 - 화장품"},{"name":"돌스헤어(dolls hari)","tel":"031-375-2051","addr":"경기도 화성시 목동 산18번지 204,205호","category":"보건위생 - 미용원"},{"name":"동탄2 롯데리아 주거단지점","tel":"031-373-2575","addr":"경기도 화성시 목동 산18번지 동탄센터프라자 1동 1,2층 103,104,202,203호","category":"일반휴게음식 - 서양음식"},{"name":"동탄2롯데리아 주거단지점","tel":"031-373-2575","addr":"경기도 화성시 목동 산18번지 1동 1-2층 103,104,202,203호","category":"일반휴게음식 - 서양음식"},{"name":"동탄2목동센터유니팝미술학원","tel":"","addr":"경기도 화성시 목동 산18번지 동탄센타프라자 5층 510,511호","category":"학원 - 예·체능계학원"},{"name":"동탄CL치과","tel":"031-8077-9422","addr":"경기도 화성시 목동 산18번지 404,405,406,407호","category":"의원 - 치과의원"},{"name":"동탄에스소아청소년과의원","tel":"031-372-2544","addr":"경기도 화성시 목동 산18번지 센타프라자 404~406호","category":"의원 - 의원"},{"name":"드림이비인후과의원","tel":"031-378-0989","addr":"경기도 화성시 목동 산18번지 우성스타파크B 304호,305호","category":"의원 - 의원"},{"name":"라온음악학원","tel":"031-372-7957","addr":"경기도 화성시 목동 산18번지 1동 504,505 일부호","category":"학원 - 예·체능계학원"},{"name":"리안헤어 2동탄목동점","tel":"031-375-5413","addr":"경기도 화성시 목동 산18번지 3층 310호","category":"보건위생 - 미용원"},{"name":"메가엠지씨커피 동탄목동점","tel":"","addr":"경기도 화성시 목동 산18번지 동탄센터프라자 1동 112호","category":"일반휴게음식 - 서양음식"},{"name":"메디팜동탄약국","tel":"031-374-3244","addr":"경기도 화성시 목동 산18번지 우성스타파크 B동 107호","category":"약국 - 약국"},{"name":"목동 태권도","tel":"031-372-3774","addr":"경기도 화성시 목동 산18번지 605,606,607호","category":"학원 - 예·체능계학원"},{"name":"뮤직점핑줄넘기TKD","tel":"031-377-7771","addr":"경기도 화성시 목동 산18번지 우성스타파크B 701동 703호","category":"레저업소 - 기타레져업소"},{"name":"배스킨라빈스 동탄목동점","tel":"031-378-3132","addr":"경기도 화성시 목동 산18번지 우성스타파크 A동 1층 108호","category":"음료식품 - 제과점"},{"name":"보드레떡","tel":"031-373-2532","addr":"경기도 화성시 목동 산18번지 1층 113호","category":"음료식품 - 기타음료식품"},{"name":"살롱얼스(Salon Earth)","tel":"031-373-4127","addr":"경기도 화성시 목동 산18번지 우성스타파크 B,209호","category":"보건위생 - 미용원"},{"name":"삼성키즈소아청소년과","tel":"031-526-7777","addr":"경기도 화성시 목동 산18번지 506,507호","category":"의원 - 의원"},{"name":"생활맥주 중동탄점","tel":"031-372-5392","addr":"경기도 화성시 목동 산18번지 동탄센터프라자 1동 2층 206호","category":"일반휴게음식 - 주점"},{"name":"서울바른내과의원","tel":"","addr":"경기도 화성시 목동 산18번지 우성스타파크B 5층 501-505호","category":"의원 - 의원"},{"name":"서울바른정형외과","tel":"","addr":"경기도 화성시 목동 산18번지 동탄2신도시29-1블럭 우성스타파크B 4층401~403,408,409호","category":"의원 - 의원"},{"name":"세븐일레븐동탄목동점","tel":"031-1577-0711","addr":"경기도 화성시 목동 산18번지 센타프라자 1층 101호","category":"유통업 영리 - 편 의 점"},{"name":"스타파워점프 점핑다이어트","tel":"031-376-5562","addr":"경기도 화성시 목동 산18번지 우성스타파크 A동 6층 608호","category":"건강식품 - 기타건강식품"},{"name":"아리가또맘마 중동탄점","tel":"","addr":"경기도 화성시 목동 산18번지 우성스타파크8 1층 111호","category":"일반휴게음식 - 일식·회집"},{"name":"아트피아미술학원","tel":"","addr":"경기도 화성시 목동 산18번지 우성스타파크B 610호","category":"학원 - 예·체능계학원"},{"name":"알파문구 중동탄점","tel":"031-374-7560","addr":"경기도 화성시 목동 산18번지 우성스타파크B 211,212,213호","category":"서적문구 - 문구용품"},{"name":"에덴미술학원","tel":"031-377-3912","addr":"경기도 화성시 목동 산18번지 우성스타파크 B 601호","category":"학원 - 예·체능계학원"},{"name":"에이메디칼약국","tel":"031-378-1530","addr":"경기도 화성시 목동 산18번지 A동 107호","category":"약국 - 약국"},{"name":"에이원수학학원","tel":"031-377-1255","addr":"경기도 화성시 목동 산18번지 우성스타파크 B동 6층 603호","category":"학원 - 보습학원"},{"name":"연세호호소아청소년과의원","tel":"031-373-3889","addr":"경기도 화성시 목동 산18번지 우성스타파크 A동 508,509호","category":"의원 - 의원"},{"name":"연세휴내과","tel":"","addr":"경기도 화성시 목동 산18번지 503-505호","category":"의원 - 의원"},{"name":"용인대MTA태권도장","tel":"031-376-7379","addr":"경기도 화성시 목동 산18번지 507호 506호, 507호","category":"학원 - 예·체능계학원"},{"name":"장독대 목동점","tel":"031-8015-5288","addr":"경기도 화성시 목동 산18번지 1동 109호","category":"음료식품 - 기타음료식품"},{"name":"정돈가 동탄점","tel":"031-360-3323","addr":"경기도 화성시 목동 산18번지 116호","category":"음료식품 - 정육점"},{"name":"제이에스(JS)영어교습소","tel":"031-747-8874","addr":"경기도 화성시 목동 산18번지 1동 606호","category":"학원 - 외국어학원"},{"name":"중동탄 새싹바둑교습소","tel":"031-378-6665","addr":"경기도 화성시 목동 산18번지 우성스타파크 B동 6층 604호","category":"학원 - 기타 교육기관"},{"name":"차이콥스키음악학원","tel":"031-8042-3379","addr":"경기도 화성시 목동 산18번지 609,610호","category":"학원 - 예·체능계학원"},{"name":"컴포즈 동탄목동점","tel":"031-375-7070","addr":"경기도 화성시 목동 산18번지 1층 117호","category":"일반휴게음식 - 서양음식"},{"name":"코로나이비인후과의원","tel":"031-372-5882","addr":"경기도 화성시 목동 산18번지 동탄2신도시근상29-2블럭 우성스타파크A 605~607호","category":"의원 - 의원"},{"name":"크리아트 목동미술학원","tel":"031-376-5708","addr":"경기도 화성시 목동 산18번지 동탄센터프라자 602,603호","category":"학원 - 예·체능계학원"},{"name":"클라라음악학원","tel":"031-375-8852","addr":"경기도 화성시 목동 산18번지 동탄센터프라자 410,411호","category":"학원 - 예·체능계학원"},{"name":"토닌필라테스 중동탄점","tel":"031-271-8303","addr":"경기도 화성시 목동 산18번지 우성스타파크아파트 601,602호","category":"레저업소 - 헬스클럽"},{"name":"파리바게뜨 동탄르파비스점","tel":"","addr":"경기도 화성시 목동 산18번지 우성스타파크A 1층 104,105호","category":"음료식품 - 제과점"},{"name":"피아니스타음악학원","tel":"","addr":"경기도 화성시 목동 산18번지 6층 608호,609호","category":"학원 - 예·체능계학원"},{"name":"한국파워점핑줄넘기 (중동탄점)","tel":"","addr":"경기도 화성시 목동 산18번지 502호,503호","category":"레저업소 - 헬스클럽"},{"name":"해바라기약국","tel":"031-372-5916","addr":"경기도 화성시 목동 산18번지 센터프라자 1층 110호","category":"약국 - 약국"},{"name":"헬로우 컷","tel":"031-376-7789","addr":"경기도 화성시 목동 산18번지 우성스타파크B 119호","category":"보건위생 - 미용원"},{"name":"홍춘천치즈닭갈비","tel":"","addr":"경기도 화성시 목동 산18번지 동탄센터프라자 1동 2층 207호","category":"일반휴게음식 - 일반한식"}]},{"lat":"37.180638192","long":"127.12287938","items":[{"name":"고운고깃집","tel":"031-376-6659","addr":"경기도 화성시 목동 450-2번지 1층","category":"일반휴게음식 - 일반한식"}]},{"lat":"37.180610279","long":"127.12374643","items":[{"name":"굽네치킨&분식이이래도되는가","tel":"031-375-9242","addr":"경기도 화성시 목동 449-8번지","category":"일반휴게음식 - 스넥"},{"name":"농가의하루","tel":"031-373-8843","addr":"경기도 화성시 목동 449-7번지","category":"일반휴게음식 - 서양음식"},{"name":"스윗써밋(SWEET SUMMIT)","tel":"","addr":"경기도 화성시 목동 449-9번지 1층 일부 102호","category":"문화.취미 - 문화취미기타"}]},{"lat":"37.181807242","long":"127.12513347","items":[{"name":"금가방","tel":"031-378-2223","addr":"경기도 화성시 목동 454-2번지 1층","category":"일반휴게음식 - 중국식"},{"name":"아인스 동물병원","tel":"031-8005-8565","addr":"경기도 화성시 목동 454-4번지 1층","category":"기타의료기관 - 동물병원"}]},{"lat":"37.184781795","long":"127.12404588","items":[{"name":"나이스가이 동탄목동점","tel":"","addr":"경기도 화성시 목동 233번지 동탄2신도시호반베르디움22단지 2214동 지하1층 B108호","category":"보건위생 - 미용원"},{"name":"리디자인스튜디오-정바스로얄","tel":"070-7797-7784","addr":"경기도 화성시 목동 233번지 동탄2신도시호반베르디움22단지 2207동 3층 2호","category":"수리서비스 - 기타수리서비스"},{"name":"비에이치씨(bhc)동탄목동점","tel":"031-376-7392","addr":"경기도 화성시 목동 233번지 동탄2신도시호반베르디움22단지 지1층 B101호","category":"일반휴게음식 - 스넥"},{"name":"산새소리어린이집[아이행복]","tel":"031-8043-3459","addr":"경기도 화성시 목동 233번지 동탄2신도시호반베르디움22단지 2203동 104호","category":"학원 - 유아원"},{"name":"소담정김밥","tel":"031-377-2779","addr":"경기도 화성시 목동 233번지 동탄2신도시호반베르디움22단지 지하1층 B104호","category":"일반휴게음식 - 스넥"},{"name":"예리나","tel":"","addr":"경기도 화성시 목동 233번지 동탄2신도시호반베르디움22단지 2205동 1001호","category":"의류 - 정장"},{"name":"오닭꼬치","tel":"031-372-9799","addr":"경기도 화성시 목동 233번지 동탄2신도시호반베르디움22단지 2214동 B104호","category":"일반휴게음식 - 일반한식"},{"name":"키움스터디","tel":"031-212-2624","addr":"경기도 화성시 목동 233번지 동탄2신도시호반베르디움22단지 2201동 1203호","category":"학원 - 기타 교육기관"},{"name":"호반아이사랑어린이집[아이행복]","tel":"031-376-0546","addr":"경기도 화성시 목동 233번지 호반베르디움 2206동 102호","category":"학원 - 유아원"},{"name":"호반햇살가득어린이집[아이행복]","tel":"031-8077-9397","addr":"경기도 화성시 목동 233번지 동탄2신도시호반베르디움22단지","category":"학원 - 유아원"}]},{"lat":"37.183413281","long":"127.12299638","items":[{"name":"뉴스타점핑클럽","tel":"","addr":"경기도 화성시 목동 245-3번지 7층 701호","category":"레저업소 - 헬스클럽"}]},{"lat":"37.181142626","long":"127.12302657","items":[{"name":"다경감자탕 동탄2호점","tel":"031-377-3210","addr":"경기도 화성시 목동 447-1번지 1층","category":"일반휴게음식 - 일반한식"},{"name":"플레리끄(fleurique)","tel":"031-375-4407","addr":"경기도 화성시 목동 449-3번지 1층","category":"문화.취미 - 화원"}]},{"lat":"37.186192734","long":"127.12760688","items":[{"name":"닭장수후라이드 동탄목동점","tel":"031-374-3200","addr":"경기도 화성시 목동 산25-1번지 엔에이치에프경남아너스빌 상가동 1층 106호","category":"일반휴게음식 - 스넥"},{"name":"사랑우리어린이집[아이행복]","tel":"031-376-5540","addr":"경기도 화성시 목동 산25-1번지 엔에이치에프경남아너스빌 2259동 102호","category":"학원 - 유아원"},{"name":"슈슈뷰티","tel":"070-3770-6850","addr":"경기도 화성시 목동 산25-1번지 엔에이치에프경남아너스빌 2254동 2002호","category":"보건위생 - 미용재료"},{"name":"아이스크림 할인점","tel":"031-472-2060","addr":"경기도 화성시 목동 산25-1번지 엔에이치에프경남아너스빌 105호","category":"음료식품 - 기타음료식품"},{"name":"영양사 언니의 맛깔찬 목동점","tel":"","addr":"경기도 화성시 목동 산25-1번지 엔에이치에프경남아너스빌 상가동 1층 101호","category":"음료식품 - 기타음료식품"},{"name":"제니스타일(Jenny Style)","tel":"","addr":"경기도 화성시 목동 산25-1번지 엔에이치에프경남아너스빌 1층 104호","category":"보건위생 - 미용원"},{"name":"채움수학","tel":"","addr":"경기도 화성시 목동 산25-1번지 엔에이치에프경남아너스빌 2260동 1402호","category":"학원 - 기타 교육기관"},{"name":"크린에이드","tel":"031-8043-1814","addr":"경기도 화성시 목동 산25-1번지 엔에이치에프경남아너스빌 상가동 1층 107호","category":"수리서비스 - 세탁소"},{"name":"팔천순대.곱창","tel":"031-376-9272","addr":"경기도 화성시 목동 산25-1번지 엔에이치에프경남아너스빌 상가동 107-1호","category":"일반휴게음식 - 일반한식"}]},{"lat":"37.180473819","long":"127.12501871","items":[{"name":"대양양꼬치","tel":"","addr":"경기도 화성시 목동 461-2번지 1층","category":"일반휴게음식 - 중국식"},{"name":"만랩커피 동탄목동점","tel":"031-374-1439","addr":"경기도 화성시 목동 459-2번지 1층 일부호","category":"일반휴게음식 - 서양음식"},{"name":"숨(sum)","tel":"031-111-1111","addr":"경기도 화성시 목동 459-2번지 1층","category":"의류 - 정장"}]},{"lat":"37.180059965","long":"127.12440995","items":[{"name":"데어","tel":"","addr":"경기도 화성시 목동 463-2번지 일부 101호","category":"의류 - 정장"}]},{"lat":"37.181194732","long":"127.12494104","items":[{"name":"도어라이프","tel":"031-831-5554","addr":"경기도 화성시 목동 457-2번지 101호","category":"건축자재 - 기타건축자재"}]},{"lat":"37.183608435","long":"127.12599224","items":[{"name":"동탄2 동탄e세탁","tel":"031-377-5949","addr":"경기도 화성시 목동 262번지 르파비스 상가동 2층 201호","category":"수리서비스 - 세탁소"},{"name":"르파비스어린이집[아이행복]","tel":"031-374-3793","addr":"경기도 화성시 목동 262번지 르파비스","category":"학원 - 유아원"},{"name":"바른출장세차(동탄점)","tel":"","addr":"경기도 화성시 목동 262번지 르파비스 2238동 1303호","category":"자동차정비 유지 - 세차장"},{"name":"벨라헤어","tel":"","addr":"경기도 화성시 목동 262번지 르파비스 상가동 2층 204호","category":"보건위생 - 미용원"},{"name":"에어컨박사","tel":"","addr":"경기도 화성시 목동 262번지 르파비스 2231동 801호","category":"용역 서비스 - 기타용역서비스"},{"name":"올리브홈 스튜디오","tel":"031-000-0000","addr":"경기도 화성시 목동 262번지 르파비스 2239동 501호","category":"광학제품 - 사진관"},{"name":"유어스온리(yours only)","tel":"","addr":"경기도 화성시 목동 262번지 르파비스 2233동 2004호","category":"신변잡화 - 귀금속"},{"name":"진피아노교습소","tel":"031-223-5214","addr":"경기도 화성시 목동 262번지 르파비스 상가동 203호","category":"학원 - 예·체능계학원"},{"name":"한국로고젝터","tel":"070-8775-2580","addr":"경기도 화성시 목동 262번지 르파비스 2239동 1704호","category":"건축자재 - 조명기구"}]},{"lat":"37.187745359","long":"127.12488401","items":[{"name":"동탄목동중학교","tel":"031-8053-8302","addr":"경기도 화성시 목동 산35번지","category":"학원 - 초중고교육기관"}]},{"lat":"37.189475817","long":"127.1244363","items":[{"name":"동탄목동초등학교","tel":"031-378-0268","addr":"경기도 화성시 목동 137-1번지 동탄목동초등학교","category":"학원 - 초중고교육기관"}]},{"lat":"37.180780821","long":"127.12438858","items":[{"name":"땡큐꼬마김밥","tel":"031-376-2275","addr":"경기도 화성시 목동 459-1번지 104호","category":"일반휴게음식 - 스넥"},{"name":"소담밥상","tel":"031-373-8589","addr":"경기도 화성시 목동 459-1번지 1층 103호","category":"일반휴게음식 - 일반한식"},{"name":"소분플라워","tel":"031-000-0000","addr":"경기도 화성시 목동 448-1번지 104호","category":"문화.취미 - 화원"},{"name":"찜콩","tel":"031-613-0819","addr":"경기도 화성시 목동 449-4번지 1층","category":"일반휴게음식 - 일반한식"},{"name":"청년다방 중동탄점","tel":"031-376-2293","addr":"경기도 화성시 목동 448-1번지 1층 101호,102호","category":"일반휴게음식 - 스넥"},{"name":"토들(toddle)","tel":"031-111-1111","addr":"경기도 화성시 목동 448-1번지 103호","category":"일반휴게음식 - 서양음식"},{"name":"투다리 동탄목동점","tel":"031-376-5765","addr":"경기도 화성시 목동 458-2번지 1층 101호","category":"일반휴게음식 - 주점"}]},{"lat":"37.18019438","long":"127.12513087","items":[{"name":"또래아동도서 2동탄점","tel":"","addr":"경기도 화성시 목동 464-3번지 1층 또래아동도서","category":"서적문구 - 일반서적"}]},{"lat":"37.180357482","long":"127.12424151","items":[{"name":"로텐바우","tel":"070-7727-8536","addr":"경기도 화성시 목동 448-2번지 1층","category":"일반휴게음식 - 서양음식"}]},{"lat":"37.190801196","long":"127.123605","items":[{"name":"뮤엠 베라체 영어전문공부방","tel":"","addr":"경기도 화성시 목동 119번지 21단지엘에이치 2145동 1204호","category":"학원 - 기타 교육기관"},{"name":"방글방글어린이집[아이행복]","tel":"031-376-2766","addr":"경기도 화성시 목동 119번지 21단지엘에이치 2142동 101호","category":"학원 - 유아원"},{"name":"삼성영어","tel":"","addr":"경기도 화성시 목동 119번지 21단지엘에이치 2150동 103호","category":"학원 - 기타 교육기관"},{"name":"씨유동탄목동점","tel":"080-080-3663","addr":"경기도 화성시 목동 119번지 21단지엘에이치 상가동 101호","category":"유통업 영리 - 편 의 점"},{"name":"엄지네정원","tel":"031-8058-0179","addr":"경기도 화성시 목동 119번지 동탄2신도시베라체 상가 1층 106호","category":"일반휴게음식 - 일반한식"},{"name":"이룸스터디","tel":"","addr":"경기도 화성시 목동 119번지 21단지엘에이치 2141동 304호","category":"학원 - 기타 교육기관"},{"name":"키즈별어린이집[아이행복]","tel":"031-378-6780","addr":"경기도 화성시 목동 119번지 21단지엘에이치 2143동 103호","category":"학원 - 유아원"}]},{"lat":"37.180194693","long":"127.12482682","items":[{"name":"본죽&비빔밥 동탄목동점","tel":"031-374-3712","addr":"경기도 화성시 목동 463-1번지 101호","category":"일반휴게음식 - 일반한식"}]},{"lat":"37.180913881","long":"127.12641579","items":[{"name":"비유티풀","tel":"","addr":"경기도 화성시 목동 457-4번지 1층 비유티풀","category":"신변잡화 - 기타잡화"}]},{"lat":"37.180141486","long":"127.12399343","items":[{"name":"소풍가는날","tel":"031-373-3991","addr":"경기도 화성시 목동 453-2번지 101,102","category":"일반휴게음식 - 일반한식"},{"name":"오 꼬 친","tel":"02-1234-1234","addr":"경기도 화성시 목동 453-1번지 1층 104호","category":"일반휴게음식 - 스넥"},{"name":"이마트24 동탄신리천점","tel":"","addr":"경기도 화성시 목동 453-1번지 102,103호","category":"유통업 영리 - 편 의 점"},{"name":"진솔빛찬","tel":"","addr":"경기도 화성시 목동 453-2번지 104호","category":"음료식품 - 기타음료식품"}]},{"lat":"37.189419305","long":"127.12680129","items":[{"name":"시립목동어린이집[아이행복]","tel":"031-8077-9799","addr":"경기도 화성시 목동 산36-2번지","category":"학원 - 유아원"}]},{"lat":"37.180526586","long":"127.12626876","items":[{"name":"어가","tel":"","addr":"경기도 화성시 목동 458-4번지 1층","category":"일반휴게음식 - 일반한식"}]},{"lat":"37.180142528","long":"127.12296868","items":[{"name":"진수성찬","tel":"","addr":"경기도 화성시 목동 452-3번지 1층 전체호","category":"일반휴게음식 - 일반한식"}]},{"lat":"37.179662824","long":"127.12507371","items":[{"name":"초벌구이집마리","tel":"031-2030-7496","addr":"경기도 화성시 목동 463-7번지 1층 전부호","category":"일반휴게음식 - 일반한식"}]},{"lat":"37.180052287","long":"127.12310367","items":[{"name":"카앤피플 화성5호지점","tel":"","addr":"경기도 화성시 목동 452-4번지 301호","category":"자동차정비 유지 - 세차장"},{"name":"카워시맨","tel":"031-111-1111","addr":"경기도 화성시 목동 452-5번지 1층","category":"자동차정비 유지 - 세차장"}]},{"lat":"37.179862863","long":"127.12330607","items":[{"name":"카페드단아한(동탄목동점)","tel":"031-111-1111","addr":"경기도 화성시 목동 452-7번지 1층","category":"일반휴게음식 - 서양음식"}]},{"lat":"37.179915394","long":"127.12480385","items":[{"name":"해면채","tel":"031-376-8081","addr":"경기도 화성시 목동 463-4번지","category":"일반휴게음식 - 일반한식"}]},{"lat":"37.183170057","long":"127.12293969","items":[{"name":"헤어드파리","tel":"","addr":"경기도 화성시 목동 245번지 A동 207호","category":"보건위생 - 미용원"}]}]