[{"lat":"37.363499075","long":"126.88029121","imageIndex":4,"items":[{"name":"강남닭요리","tel":"031-483-7366","addr":"경기도 안산시 상록구 수암동 479-7번지","indutype":"일반휴게음식 - 일반한식","category":"restaurant"},{"name":"수암골","tel":"","addr":"경기도 안산시 상록구 수암동 479-7번지","indutype":"일반휴게음식 - 일반한식","category":"restaurant"}]},{"lat":"37.363171237","long":"126.87698429","imageIndex":4,"items":[{"name":"개성진찹쌀순대","tel":"031-481-9106","addr":"경기도 안산시 상록구 수암동 501-3번지 1층 101호","indutype":"일반휴게음식 - 일반한식","category":"restaurant"},{"name":"본숯불꼼장어시대","tel":"031-483-9889","addr":"경기도 안산시 상록구 수암동 501-3번지 A1층","indutype":"일반휴게음식 - 일반한식","category":"restaurant"}]},{"lat":"37.363389507","long":"126.87890293","imageIndex":4,"items":[{"name":"고기향기","tel":"070-7539-9547","addr":"경기도 안산시 상록구 수암동 473-21번지","indutype":"일반휴게음식 - 일반한식","category":"restaurant"}]},{"lat":"37.361915756","long":"126.87413052","imageIndex":4,"items":[{"name":"고향집삼계탕","tel":"031-410-6751","addr":"경기도 안산시 상록구 수암동 506-11번지 1층","indutype":"일반휴게음식 - 일반한식","category":"restaurant"}]},{"lat":"37.363116345","long":"126.8762055","imageIndex":4,"items":[{"name":"곰탱이","tel":"031-487-0442","addr":"경기도 안산시 상록구 수암동 503번지","indutype":"일반휴게음식 - 일반한식","category":"restaurant"},{"name":"모모닭강정","tel":"031-482-8359","addr":"경기도 안산시 상록구 수암동 503번지 1층","indutype":"일반휴게음식 - 스넥","category":"restaurant"},{"name":"피자스쿨안산수암점","tel":"031-401-5254","addr":"경기도 안산시 상록구 수암동 503번지 1층","indutype":"일반휴게음식 - 서양음식","category":"restaurant"}]},{"lat":"37.36327913","long":"126.87676964","imageIndex":4,"items":[{"name":"김밥나라","tel":"031-480-2301","addr":"경기도 안산시 상록구 수암동 21블럭6롯트선경탑스빌2차101","indutype":"일반휴게음식 - 스넥","category":"restaurant"},{"name":"참나무숯불바베큐","tel":"031-402-3579","addr":"경기도 안산시 상록구 수암동 501-4번지 선경탑스빌2차 102호","indutype":"일반휴게음식 - 일반한식","category":"restaurant"}]},{"lat":"37.361921412","long":"126.87943589","imageIndex":4,"items":[{"name":"꼬레랑치킨","tel":"031-484-0794","addr":"경기도 안산시 상록구 수암동 492-7번지 1층","indutype":"일반휴게음식 - 스넥","category":"restaurant"}]},{"lat":"37.371031952","long":"126.88068537","imageIndex":4,"items":[{"name":"낚시터가든","tel":"031-480-6886","addr":"경기도 안산시 상록구 수암동 17번지 2층","indutype":"일반휴게음식 - 일반한식","category":"restaurant"}]},{"lat":"37.363360509","long":"126.87704042","imageIndex":4,"items":[{"name":"남도회무침","tel":"031-403-4464","addr":"경기도 안산시 상록구 수암동 501-7번지 엘리지움아파트 101호","indutype":"일반휴게음식 - 일반한식","category":"restaurant"}]},{"lat":"37.362974103","long":"126.87801185","imageIndex":4,"items":[{"name":"대감족발","tel":"031-439-7825","addr":"경기도 안산시 상록구 수암동 471-10번지","indutype":"일반휴게음식 - 일반한식","category":"restaurant"},{"name":"엄마에밥상","tel":"031-487-7200","addr":"경기도 안산시 상록구 수암동 471-10번지","indutype":"일반휴게음식 - 일반한식","category":"restaurant"}]},{"lat":"37.364054409","long":"126.87715214","imageIndex":4,"items":[{"name":"독도굴꼬막집","tel":"031-405-2193","addr":"경기도 안산시 상록구 수암동 467-7번지","indutype":"일반휴게음식 - 일반한식","category":"restaurant"}]},{"lat":"37.363639643","long":"126.87687063","imageIndex":4,"items":[{"name":"동대문야채곱창","tel":"070-8265-6488","addr":"경기도 안산시 상록구 수암동 501-6번지 101호","indutype":"일반휴게음식 - 일반한식","category":"restaurant"}]},{"lat":"37.363747174","long":"126.87631732","imageIndex":4,"items":[{"name":"또바기하우스","tel":"031-411-0087","addr":"경기도 안산시 상록구 수암동 502-11번지 1층 102호","indutype":"일반휴게음식 - 스넥","category":"restaurant"},{"name":"생방송","tel":"031-485-7714","addr":"경기도 안산시 상록구 수암동 502-11번지 1층","indutype":"일반휴게음식 - 일반한식","category":"restaurant"}]},{"lat":"37.363640947","long":"126.87810105","imageIndex":4,"items":[{"name":"또봉이통닭(수암점)","tel":"031-411-6888","addr":"경기도 안산시 상록구 수암동 470-4번지 1층","indutype":"일반휴게음식 - 스넥","category":"restaurant"}]},{"lat":"37.364138911","long":"126.88040305","imageIndex":4,"items":[{"name":"뜨란채검정콩칼국수","tel":"031-493-1112","addr":"경기도 안산시 상록구 수암동 479-14번지 1층","indutype":"일반휴게음식 - 일반한식","category":"restaurant"}]},{"lat":"37.363672264","long":"126.88223252","imageIndex":4,"items":[{"name":"레인보우커피","tel":"","addr":"경기도 안산시 상록구 수암동 483-4번지 2층","indutype":"일반휴게음식 - 서양음식","category":"restaurant"}]},{"lat":"37.361650849","long":"126.87918799","imageIndex":4,"items":[{"name":"로얄반점","tel":"031-485-0233","addr":"경기도 안산시 상록구 수암동 494-6번지 수암네오빌 B동 1층","indutype":"일반휴게음식 - 중국식","category":"restaurant"}]},{"lat":"37.364693779","long":"126.87682371","imageIndex":4,"items":[{"name":"막퍼주는집","tel":"031-486-2254","addr":"경기도 안산시 상록구 수암동 465-3번지 1층","indutype":"일반휴게음식 - 일반한식","category":"restaurant"},{"name":"막퍼주는집","tel":"031-486-2254","addr":"경기도 안산시 상록구 수암동 465-3번지","indutype":"일반휴게음식 - 일반한식","category":"restaurant"}]},{"lat":"37.363722917","long":"126.87893625","imageIndex":4,"items":[{"name":"박가네쌈밥","tel":"031-483-4050","addr":"경기도 안산시 상록구 수암동 475-9번지 1층","indutype":"일반휴게음식 - 일반한식","category":"restaurant"}]},{"lat":"37.362116136","long":"126.87612816","imageIndex":4,"items":[{"name":"번영한식","tel":"031-481-8146","addr":"경기도 안산시 상록구 수암동 503-5번지 2층","indutype":"일반휴게음식 - 일반한식","category":"restaurant"}]},{"lat":"37.36286394","long":"126.87609304","imageIndex":4,"items":[{"name":"부자식당","tel":"031-411-6286","addr":"경기도 안산시 상록구 수암동 503-13번지 왕성장여관 1층 103호","indutype":"일반휴게음식 - 일반한식","category":"restaurant"},{"name":"회포차","tel":"031-411-6432","addr":"경기도 안산시 상록구 수암동 503-13번지 왕성장여관 104호","indutype":"일반휴게음식 - 일반한식","category":"restaurant"}]},{"lat":"37.363723988","long":"126.87996348","imageIndex":4,"items":[{"name":"부치미","tel":"031-482-4613","addr":"경기도 안산시 상록구 수암동 474번지 1층","indutype":"일반휴게음식 - 일반한식","category":"restaurant"}]},{"lat":"37.364054229","long":"126.87698282","imageIndex":4,"items":[{"name":"붐비어","tel":"031-411-3377","addr":"경기도 안산시 상록구 수암동 467-8번지 1층","indutype":"일반휴게음식 - 주점","category":"restaurant"}]},{"lat":"37.363612324","long":"126.87659975","imageIndex":4,"items":[{"name":"블랙포트","tel":"031-480-3060","addr":"경기도 안산시 상록구 수암동 502-4번지","indutype":"일반휴게음식 - 일반한식","category":"restaurant"}]},{"lat":"37.364059699","long":"126.8822319","imageIndex":4,"items":[{"name":"산오름묵밥","tel":"031-000-0000","addr":"경기도 안산시 상록구 수암동 482-7번지 102,103호","indutype":"일반휴게음식 - 일반한식","category":"restaurant"}]},{"lat":"37.362115955","long":"126.87595884","imageIndex":4,"items":[{"name":"삼국집","tel":"031-411-8935","addr":"경기도 안산시 상록구 수암동 503-6번지","indutype":"일반휴게음식 - 일반한식","category":"restaurant"}]},{"lat":"37.362115809","long":"126.87582338","imageIndex":4,"items":[{"name":"삼국집구이","tel":"031-403-8935","addr":"경기도 안산시 상록구 수암동 503-7번지 1층","indutype":"일반휴게음식 - 일반한식","category":"restaurant"}]},{"lat":"37.361725989","long":"126.87362288","imageIndex":4,"items":[{"name":"상하이","tel":"031-482-0770","addr":"경기도 안산시 상록구 수암동 506-15번지 1층","indutype":"일반휴게음식 - 중국식","category":"restaurant"}]},{"lat":"37.364081882","long":"126.87756977","imageIndex":4,"items":[{"name":"송원족발","tel":"031-401-6680","addr":"경기도 안산시 상록구 수암동 468-4번지","indutype":"일반휴게음식 - 일반한식","category":"restaurant"}]},{"lat":"37.363891553","long":"126.87652027","imageIndex":4,"items":[{"name":"수암동고깃집","tel":"070-5099-0844","addr":"경기도 안산시 상록구 수암동 502-1번지","indutype":"일반휴게음식 - 일반한식","category":"restaurant"},{"name":"이쁜이","tel":"031-411-3848","addr":"경기도 안산시 상록구 수암동 502-1번지","indutype":"일반휴게음식 - 일반한식","category":"restaurant"}]},{"lat":"37.364195161","long":"126.88253647","imageIndex":4,"items":[{"name":"수암봉토담집","tel":"031-483-1929","addr":"경기도 안산시 상록구 수암동 276번지 1층","indutype":"일반휴게음식 - 일반한식","category":"restaurant"}]},{"lat":"37.363807393","long":"126.88220972","imageIndex":4,"items":[{"name":"수암봉황가네","tel":"031-405-4404","addr":"경기도 안산시 상록구 수암동 483-3번지 1층","indutype":"일반휴게음식 - 일반한식","category":"restaurant"},{"name":"수암산쉼터","tel":"031-411-8828","addr":"경기도 안산시 상록구 수암동 483-3번지 101,102호","indutype":"일반휴게음식 - 일반한식","category":"restaurant"},{"name":"참참참","tel":"031-486-8236","addr":"경기도 안산시 상록구 수암동 483-3번지 1층","indutype":"일반휴게음식 - 일반한식","category":"restaurant"}]},{"lat":"37.364637869","long":"126.88373233","imageIndex":4,"items":[{"name":"수암봉휴게소","tel":"031-313-5177","addr":"경기도 안산시 상록구 수암동 284-2번지 1층","indutype":"일반휴게음식 - 일반한식","category":"restaurant"}]},{"lat":"37.362280764","long":"126.87843066","imageIndex":4,"items":[{"name":"수암정","tel":"031-411-0998","addr":"경기도 안산시 상록구 수암동 493-5번지 1층","indutype":"일반휴게음식 - 일반한식","category":"restaurant"}]},{"lat":"37.363388723","long":"126.87815791","imageIndex":4,"items":[{"name":"시골밥상","tel":"","addr":"경기도 안산시 상록구 수암동 470-6번지 1층 전체","indutype":"일반휴게음식 - 일반한식","category":"restaurant"}]},{"lat":"37.363305678","long":"126.87631806","imageIndex":4,"items":[{"name":"신수암식당","tel":"031-411-3959","addr":"경기도 안산시 상록구 수암동 502-7번지 1층","indutype":"일반휴게음식 - 일반한식","category":"restaurant"}]},{"lat":"37.363642227","long":"126.87932018","imageIndex":4,"items":[{"name":"신통치킨(수암점)","tel":"031-401-2202","addr":"경기도 안산시 상록구 수암동 475-7번지 102호","indutype":"일반휴게음식 - 일반한식","category":"restaurant"},{"name":"카페제멜로","tel":"031-411-3767","addr":"경기도 안산시 상록구 수암동 475-7번지 1층","indutype":"일반휴게음식 - 서양음식","category":"restaurant"}]},{"lat":"37.363306952","long":"126.87751461","imageIndex":4,"items":[{"name":"아그집쭈꾸미","tel":"031-401-5220","addr":"경기도 안산시 상록구 수암동 471번지 다미레스빌 1층 101호","indutype":"일반휴게음식 - 일반한식","category":"restaurant"}]},{"lat":"37.364004899","long":"126.88150953","imageIndex":4,"items":[{"name":"엘파","tel":"031-411-6848","addr":"경기도 안산시 상록구 수암동 483번지 1층","indutype":"일반휴게음식 - 서양음식","category":"restaurant"}]},{"lat":"37.362918665","long":"126.8767138","imageIndex":4,"items":[{"name":"영계소문옛날통닭","tel":"031-000-0000","addr":"경기도 안산시 상록구 수암동 500번지 1층","indutype":"일반휴게음식 - 일반한식","category":"restaurant"}]},{"lat":"37.362947275","long":"126.87820379","imageIndex":4,"items":[{"name":"오커피필터","tel":"","addr":"경기도 안산시 상록구 수암동 471-7번지 1층","indutype":"일반휴게음식 - 서양음식","category":"restaurant"}]},{"lat":"37.363891722","long":"126.8766783","imageIndex":4,"items":[{"name":"육해공푸드백화점","tel":"031-000-0000","addr":"경기도 안산시 상록구 수암동 502-2번지 영인 201호","indutype":"일반휴게음식 - 일반한식","category":"restaurant"}]},{"lat":"37.36436339","long":"126.87965765","imageIndex":4,"items":[{"name":"읍성곰탕","tel":"031-411-3932","addr":"경기도 안산시 상록구 수암동 478번지 1층","indutype":"일반휴게음식 - 일반한식","category":"restaurant"}]},{"lat":"37.362421229","long":"126.87496497","imageIndex":4,"items":[{"name":"이가네늘봄감자탕전문점","tel":"031-411-6070","addr":"경기도 안산시 상록구 수암동 504-3번지 엠제이프라자 1층 116호","indutype":"일반휴게음식 - 일반한식","category":"restaurant"},{"name":"진미각","tel":"031-485-5500","addr":"경기도 안산시 상록구 수암동 504-3번지 엠제이프라자 114,115호","indutype":"일반휴게음식 - 중국식","category":"restaurant"}]},{"lat":"37.363476749","long":"126.87620489","imageIndex":4,"items":[{"name":"이즈피자(수암점)","tel":"031-419-3054","addr":"경기도 안산시 상록구 수암동 502-8번지 104호,우성 상가 (1층)","indutype":"일반휴게음식 - 스넥","category":"restaurant"},{"name":"커피엔줄리엣","tel":"031-495-0223","addr":"경기도 안산시 상록구 수암동 502-8번지 우성상가 103호","indutype":"일반휴게음식 - 서양음식","category":"restaurant"}]},{"lat":"37.363278829","long":"126.87648743","imageIndex":4,"items":[{"name":"일번지호프","tel":"031-483-7537","addr":"경기도 안산시 상록구 수암동 502-6번지 2층","indutype":"일반휴게음식 - 주점","category":"restaurant"},{"name":"중앙한우곱창","tel":"031-413-4248","addr":"경기도 안산시 상록구 수암동 502-6번지","indutype":"일반휴게음식 - 일반한식","category":"restaurant"}]},{"lat":"37.360138988","long":"126.88096265","imageIndex":4,"items":[{"name":"촌뜨기(푸마시아그로힐링)","tel":"031-405-6633","addr":"경기도 안산시 상록구 수암동 362번지 1층","indutype":"일반휴게음식 - 일반한식","category":"restaurant"}]},{"lat":"37.363892992","long":"126.87787487","imageIndex":4,"items":[{"name":"카페갤러리","tel":"031-410-3908","addr":"경기도 안산시 상록구 수암동 469-5번지 1층 101호","indutype":"일반휴게음식 - 서양음식","category":"restaurant"}]},{"lat":"37.361889081","long":"126.87445791","imageIndex":4,"items":[{"name":"카페드코코","tel":"031-411-0943","addr":"경기도 안산시 상록구 수암동 505-3번지 101호","indutype":"일반휴게음식 - 일반한식","category":"restaurant"}]},{"lat":"37.362893393","long":"126.8783732","imageIndex":4,"items":[{"name":"카페서정시대","tel":"031-411-5947","addr":"경기도 안산시 상록구 수암동 471-6번지 1층","indutype":"일반휴게음식 - 서양음식","category":"restaurant"}]},{"lat":"37.363914462","long":"126.88118231","imageIndex":4,"items":[{"name":"크래머리(kraemer Lee)","tel":"031-384-6096","addr":"경기도 안산시 상록구 수암동 480-3번지 1층","indutype":"일반휴게음식 - 주점","category":"restaurant"}]},{"lat":"37.363084117","long":"126.87981778","imageIndex":4,"items":[{"name":"클라인 하우제(SW)","tel":"031-111-1111","addr":"경기도 안산시 상록구 수암동 473-8번지 1층","indutype":"일반휴게음식 - 서양음식","category":"restaurant"}]},{"lat":"37.363331422","long":"126.87512146","imageIndex":4,"items":[{"name":"토담골추어탕","tel":"031-480-3377","addr":"경기도 안산시 상록구 수암동 122번지 1층","indutype":"일반휴게음식 - 일반한식","category":"restaurant"}]},{"lat":"37.363450382","long":"126.87682579","imageIndex":4,"items":[{"name":"토속순대국해장국","tel":"031-413-5144","addr":"경기도 안산시 상록구 수암동 501-5번지","indutype":"일반휴게음식 - 일반한식","category":"restaurant"}]},{"lat":"37.361668975","long":"126.87928956","imageIndex":4,"items":[{"name":"함평숙이네식당","tel":"031-481-0833","addr":"경기도 안산시 상록구 수암동 494-5번지 수암네오빌 102호","indutype":"일반휴게음식 - 일반한식","category":"restaurant"}]},{"lat":"37.362891248","long":"126.87635262","imageIndex":4,"items":[{"name":"훌랄라치킨","tel":"031-401-2420","addr":"경기도 안산시 상록구 수암동 503-1 이림지오팰리스 104-1호","indutype":"일반휴게음식 - 주점","category":"restaurant"}]}]