[{"lat":"37.479861971","long":"127.5647535","imageIndex":17,"items":[{"name":"(주)동양","tel":"070-4100-8552","addr":"경기도 양평군 용문면 삼성리 831-2","indutype":"농업 - 농기계","category":"other"}]},{"lat":"37.474388335","long":"127.57324765","imageIndex":17,"items":[{"name":"대신천막기업","tel":"031-773-8654","addr":"경기도 양평군 용문면 삼성리 417번지","indutype":"직물 - 카페트,커튼,천막,지물","category":"other"}]},{"lat":"37.484473826","long":"127.57810688","imageIndex":17,"items":[{"name":"새천년낚시","tel":"031-771-6720","addr":"경기도 양평군 용문면 삼성리 220-17번지","indutype":"레져용품 - 스포츠·레져용품","category":"other"}]},{"lat":"37.484224641","long":"127.57747181","imageIndex":17,"items":[{"name":"세븐일레븐양평여기가좋겠네점","tel":"031-1577-0711","addr":"경기도 양평군 용문면 삼성리 220-2번지","indutype":"유통업 영리 - 편 의 점","category":"other"}]},{"lat":"37.474469021","long":"127.56392179","imageIndex":17,"items":[{"name":"양평야생화","tel":"031-772-1652","addr":"경기도 양평군 용문면 삼성리 711-7번지","indutype":"문화.취미 - 화원","category":"other"}]},{"lat":"37.484107627","long":"127.5774483","imageIndex":17,"items":[{"name":"여기가좋겠네휴게소 의류매장","tel":"031-775-0783","addr":"경기도 양평군 용문면 삼성리 220-1","indutype":"의류 - 정장","category":"other"}]},{"lat":"37.473224765","long":"127.56789172","imageIndex":17,"items":[{"name":"윤설화","tel":"070-7783-9919","addr":"경기도 양평군 용문면 삼성리 495-3번지","indutype":"신변잡화 - 기타잡화","category":"other"}]},{"lat":"37.479587424","long":"127.58608507","imageIndex":17,"items":[{"name":"지원완구","tel":"031-775-9911","addr":"경기도 양평군 용문면 삼성리 산49-2번지 양평레일바이크","indutype":"서적문구 - 완구점","category":"other"}]}]