[{"lat":"37.783926493","long":"127.04412344","items":[{"name":"(주)생토 양주대리점","tel":"031-847-1136","addr":"경기도 양주시 남방동 7-8번지","category":"가구 - 일반가구"}]},{"lat":"37.776232838","long":"127.04279113","items":[{"name":"(주)유경엔지니어링","tel":"031-879-6545","addr":"경기도 양주시 남방동 342-11번지 104호","category":"용역 서비스 - 사무서비스"}]},{"lat":"37.783790783","long":"127.04571263","items":[{"name":"(주)종합건축사사무소삼예앤영림이엔지","tel":"031-840-2363","addr":"경기도 양주시 남방동 2-7번지","category":"용역 서비스 - 기타용역서비스"},{"name":"대한측량설계공사","tel":"031-844-2552","addr":"경기도 양주시 남방동 2-7번지","category":"용역 서비스 - 사무서비스"},{"name":"동광건축사무소","tel":"031-843-1124","addr":"경기도 양주시 남방동 2-7번지","category":"건축자재 - 기타건축자재"},{"name":"영림건축사사무소","tel":"031-840-2362","addr":"경기도 양주시 남방동 2-7번지","category":"용역 서비스 - 사무서비스"}]},{"lat":"37.776647367","long":"127.04251894","items":[{"name":"(주)태원아이앤씨","tel":"031-827-3443","addr":"경기도 양주시 남방동 338번지 1층","category":"용역 서비스 - 기타용역서비스"}]},{"lat":"37.784394946","long":"127.04423722","items":[{"name":"PNC 카피센타","tel":"031-821-7201","addr":"경기도 양주시 남방동 9-25번지","category":"서적문구 - 문구용품"},{"name":"씨엠홀딩스 (올시즌커피)","tel":"","addr":"경기도 양주시 남방동 9-25번지","category":"일반휴게음식 - 서양음식"}]},{"lat":"37.783872348","long":"127.04437315","items":[{"name":"관건축사사무소","tel":"031-843-2828","addr":"경기도 양주시 남방동 7-10번지","category":"용역 서비스 - 사무서비스"},{"name":"현출력","tel":"031-844-8112","addr":"경기도 양주시 남방동 7-10번지","category":"서적문구 - 출판 및 인쇄물"}]},{"lat":"37.7740107","long":"127.0317914","items":[{"name":"광명합판","tel":"031-842-9514","addr":"경기도 양주시 남방동 141번지","category":"건축자재 - 목재·석재·철물"}]},{"lat":"37.78395358","long":"127.04395318","items":[{"name":"국토측량설계공사","tel":"031-842-2159","addr":"경기도 양주시 남방동 7-2번지","category":"기타 - 기타 전문점"},{"name":"하마식당","tel":"","addr":"경기도 양주시 남방동 7-2번지 지하1층","category":"일반휴게음식 - 일반한식"}]},{"lat":"37.768180172","long":"127.03693046","items":[{"name":"그린축산","tel":"031-840-6162","addr":"경기도 양주시 남방동 217-1번지","category":"음료식품 - 정육점"}]},{"lat":"37.767340973","long":"127.04120879","items":[{"name":"그린툴","tel":"031-836-6831","addr":"경기도 양주시 남방동 210-5번지","category":"기타 - 기계공구"},{"name":"주식회사 서원이엔씨","tel":"02-2233-0404","addr":"경기도 양주시 남방동 210-5번지 106호","category":"사무통신 - 통신기기"},{"name":"쿠킹&파티","tel":"070-8160-8461","addr":"경기도 양주시 남방동 210-5번지 2층","category":"일반휴게음식 - 일반한식"}]},{"lat":"37.775259792","long":"127.04284736","items":[{"name":"김경자 소문난 대구왕뽈찜","tel":"031-840-8671","addr":"경기도 양주시 남방동 102-1번지 1동 1층 주건축물제","category":"일반휴게음식 - 일반한식"}]},{"lat":"37.784926131","long":"127.04529326","items":[{"name":"나는카페 양주점","tel":"031-852-9203","addr":"경기도 양주시 남방동 1-1번지 양주고용복지플러스센터 2층","category":"일반휴게음식 - 서양음식"},{"name":"양주시보건소","tel":"031-8082-7116","addr":"경기도 양주시 남방동 1-1번지","category":"용역 서비스 - 사무서비스"},{"name":"양주시청","tel":"031-8082-4242","addr":"경기도 양주시 남방동 1-1번지","category":"용역 서비스 - 기타용역서비스"},{"name":"양주시청/세무과","tel":"031-8082-4242","addr":"경기도 양주시 남방동 1-1번지 양주시청 세무과","category":"용역 서비스 - 조세서비스"},{"name":"양주시청직장운영위원회","tel":"031-8082-4091","addr":"경기도 양주시 남방동 1-1번지","category":"유통업 비영리 - 구내매점(국가기관"},{"name":"양주시청청소년수련원","tel":"031-8082-4242","addr":"경기도 양주시 남방동 1-1번지","category":"레저업소 - 기타레져업소"},{"name":"카페베네 양주시청점/양주시청직장운영위원","tel":"031-8082-4090","addr":"경기도 양주시 남방동 1-1번지","category":"일반휴게음식 - 서양음식"}]},{"lat":"37.769117923","long":"127.03418427","items":[{"name":"나인투원","tel":"031-837-8426","addr":"경기도 양주시 남방동 538-2번지","category":"자동차정비 유지 - 자동차부품"}]},{"lat":"37.768820195","long":"127.03570499","items":[{"name":"남방정육식당","tel":"031-840-1194","addr":"경기도 양주시 남방동 219-2번지","category":"일반휴게음식 - 일반한식"},{"name":"남방정육점","tel":"031-840-1194","addr":"경기도 양주시 남방동 219-2번지","category":"음료식품 - 정육점"}]},{"lat":"37.772145642","long":"127.03215387","items":[{"name":"농산물","tel":"031-861-8832","addr":"경기도 양주시 남방동 491-3번지","category":"음료식품 - 농·축·수산품"}]},{"lat":"37.779315886","long":"127.03707178","items":[{"name":"동양종합건업","tel":"031-840-8732","addr":"경기도 양주시 남방동 304,304-1","category":"건축자재 - 기타건축자재"}]},{"lat":"37.771289486","long":"127.03315234","items":[{"name":"동인석재","tel":"","addr":"경기도 양주시 남방동 534-4번지 1층","category":"용역 서비스 - 기타용역서비스"}]},{"lat":"37.769262127","long":"127.03399139","items":[{"name":"디박스","tel":"031-848-9198","addr":"경기도 양주시 남방동 538-3번지","category":"자동차정비 유지 - 자동차부품"}]},{"lat":"37.783790894","long":"127.04540613","items":[{"name":"르노삼성자동차 양주대리점","tel":"031-857-7575","addr":"경기도 양주시 남방동 2-20번지 1층","category":"자동차판매 - 국산신차판매"},{"name":"법무사박춘기사무소","tel":"031-844-4777","addr":"경기도 양주시 남방동 2-20번지 205호","category":"용역 서비스 - 법률회계서비스(개인)"}]},{"lat":"37.772677265","long":"127.03190438","items":[{"name":"리미트2호점","tel":"031-846-8777","addr":"경기도 양주시 남방동 160-4번지 1층","category":"음료식품 - 정육점"}]},{"lat":"37.777037617","long":"127.03290496","items":[{"name":"먹적골오리친구","tel":"031-847-5279","addr":"경기도 양주시 남방동 418-2번지 외1필지","category":"일반휴게음식 - 일반한식"}]},{"lat":"37.774069863","long":"127.04478764","items":[{"name":"메가북스","tel":"031-8083-9981","addr":"경기도 양주시 남방동 94-1번지 양주역사 내","category":"서적문구 - 일반서적"},{"name":"양주역분식","tel":"031-967-4652","addr":"경기도 양주시 남방동 94-1번지 1층","category":"일반휴게음식 - 일반한식"},{"name":"장서유통","tel":"031-847-9660","addr":"경기도 양주시 남방동 94-1번지","category":"의류 - 정장"}]},{"lat":"37.766150617","long":"127.04445405","items":[{"name":"목석원","tel":"031-841-5646","addr":"경기도 양주시 남방동 89","category":"문화.취미 - 화원"},{"name":"양주꽃화분","tel":"031-840-4997","addr":"경기도 양주시 남방동 89 연동하우스","category":"문화.취미 - 화원"},{"name":"한솔다육집","tel":"","addr":"경기도 양주시 남방동 89번지","category":"문화.취미 - 화원"}]},{"lat":"37.78439514","long":"127.04368097","items":[{"name":"미래건축사사무소","tel":"031-842-6001","addr":"경기도 양주시 남방동 9-28번지","category":"용역 서비스 - 사무서비스"},{"name":"미래측량설계공사","tel":"031-844-8001","addr":"경기도 양주시 남방동 9-28번지 1층","category":"용역 서비스 - 사무서비스"},{"name":"새마을운동양주시지회","tel":"031-842-3965","addr":"경기도 양주시 남방동 9-28번지","category":"기타 - 비영리/비대상"}]},{"lat":"37.769180877","long":"127.03460423","items":[{"name":"미래유통","tel":"02-991-1500","addr":"경기도 양주시 남방동 221-17번지","category":"음료식품 - 기타음료식품"}]},{"lat":"37.776560493","long":"127.03137241","items":[{"name":"밀밭사랑","tel":"031-845-5522","addr":"경기도 양주시 남방동 440-1번지 외2필지(남방동(440-2,440-8))","category":"일반휴게음식 - 일반한식"}]},{"lat":"37.766070115","long":"127.04276297","items":[{"name":"발자크미디어","tel":"031-847-2089","addr":"경기도 양주시 남방동 200-20번지","category":"의류 - 정장"}]},{"lat":"37.784007712","long":"127.04373752","items":[{"name":"배노현세무회계사무소","tel":"031-878-2100","addr":"경기도 양주시 남방동 8-8번지 1층","category":"용역 서비스 - 법률회계서비스(개인)"},{"name":"세무법인 나우","tel":"031-878-2100","addr":"경기도 양주시 남방동 8-8번지 1층","category":"용역 서비스 - 법률회계서비스(법인)"},{"name":"양주시자동차번호판제작소","tel":"031-842-5534","addr":"경기도 양주시 남방동 8-8번지 1층","category":"기타 - 기타 전문점"}]},{"lat":"37.783899328","long":"127.04450939","items":[{"name":"법무사 성원경사무소","tel":"031-842-0080","addr":"경기도 양주시 남방동 2-16번지","category":"용역 서비스 - 법률회계서비스(개인)"}]},{"lat":"37.769541252","long":"127.03462709","items":[{"name":"벧엘새지붕","tel":"031-829-2904","addr":"경기도 양주시 남방동 537-1번지","category":"용역 서비스 - 기타용역서비스"}]},{"lat":"37.77644959","long":"127.04121349","items":[{"name":"부영액자","tel":"031-877-4322","addr":"경기도 양주시 남방동 333-7번지","category":"건축자재 - 목재·석재·철물"}]},{"lat":"37.768982656","long":"127.03464955","items":[{"name":"비티(BT)스틸","tel":"031-841-5867","addr":"경기도 양주시 남방동 221-3번지 221-15,221-16,221-39","category":"건축자재 - 기타건축자재"}]},{"lat":"37.783727979","long":"127.04498608","items":[{"name":"삼보식당","tel":"031-840-0477","addr":"경기도 양주시 남방동 2-22번지","category":"일반휴게음식 - 일반한식"}]},{"lat":"37.767341759","long":"127.03871193","items":[{"name":"서울우유치즈 양주고객센터","tel":"031-894-7846","addr":"경기도 양주시 남방동 214-32번지","category":"음료식품 - 기타음료식품"}]},{"lat":"37.783592587","long":"127.04567846","items":[{"name":"서인측량설계사무소","tel":"031-840-9001","addr":"경기도 양주시 남방동 2-24번지","category":"용역 서비스 - 사무서비스"}]},{"lat":"37.767874062","long":"127.03618125","items":[{"name":"성신요양원","tel":"031-843-3388","addr":"경기도 양주시 남방동 217번지","category":"기타의료기관 - 기타의료기관 및 기타"},{"name":"인천식당","tel":"031-840-0027","addr":"경기도 양주시 남방동 217번지","category":"일반휴게음식 - 일반한식"}]},{"lat":"37.773839553","long":"127.03165513","items":[{"name":"성풍기계","tel":"031-840-7199","addr":"경기도 양주시 남방동 142번지","category":"기타 - 기계공구"}]},{"lat":"37.78439518","long":"127.04356745","items":[{"name":"세무사김종욱사무소","tel":"031-856-3700","addr":"경기도 양주시 남방동 9-29번지 2층","category":"용역 서비스 - 법률회계서비스(개인)"},{"name":"우현건축사사무소","tel":"031-894-5112","addr":"경기도 양주시 남방동 9-29번지 1층","category":"용역 서비스 - 사무서비스"},{"name":"정성법무사 김정화","tel":"031-847-4555","addr":"경기도 양주시 남방동 9-29번지","category":"용역 서비스 - 법률회계서비스(개인)"}]},{"lat":"37.784448944","long":"127.04440753","items":[{"name":"세븐일레븐.양주시청점","tel":"031-843-1812","addr":"경기도 양주시 남방동 9-24번지","category":"유통업 영리 - 편 의 점"}]},{"lat":"37.783872219","long":"127.04473642","items":[{"name":"시우","tel":"031-848-8297","addr":"경기도 양주시 남방동 2-14번지","category":"용역 서비스 - 법률회계서비스(개인)"},{"name":"행정사 김태성 사무소","tel":"031-821-8222","addr":"경기도 양주시 남방동 2-14번지","category":"용역 서비스 - 법률회계서비스(개인)"}]},{"lat":"37.774061117","long":"127.04403851","items":[{"name":"압구정","tel":"031-843-3909","addr":"경기도 양주시 남방동 117-7번지 일부","category":"일반휴게음식 - 일반한식"},{"name":"하나슈퍼","tel":"031-840-0034","addr":"경기도 양주시 남방동 117-7번지 (3호)","category":"유통업 영리 - 슈퍼마켓"}]},{"lat":"37.773151232","long":"127.04382235","items":[{"name":"양주1동 주민자치위원회","tel":"031-8082-4134","addr":"경기도 양주시 남방동 119-4번지","category":"문화.취미 - 문화취미기타"}]},{"lat":"37.773845261","long":"127.0429601","items":[{"name":"양주불백","tel":"031-821-1616","addr":"경기도 양주시 남방동 111-5번지","category":"일반휴게음식 - 일반한식"}]},{"lat":"37.784367997","long":"127.04401017","items":[{"name":"양주성","tel":"031-841-3300","addr":"경기도 양주시 남방동 9-26번지 1층","category":"일반휴게음식 - 중국식"}]},{"lat":"37.772844782","long":"127.04418539","items":[{"name":"양주주내우체국","tel":"031-840-0004","addr":"경기도 양주시 남방동 121-6번지","category":"용역 서비스 - 공공요금대행서비스/소"}]},{"lat":"37.773236155","long":"127.03065607","items":[{"name":"양주축산물판매장","tel":"031-840-2212","addr":"경기도 양주시 남방동 516-6번지","category":"음료식품 - 농·축·수산품"}]},{"lat":"37.776539766","long":"127.04096382","items":[{"name":"엔타브","tel":"031-821-9835","addr":"경기도 양주시 남방동 333-22번지","category":"레져용품 - 악기점"}]},{"lat":"37.771064154","long":"127.03351544","items":[{"name":"엠제이(MJ)텔레콤","tel":"","addr":"경기도 양주시 남방동 534-8번지","category":"사무통신 - 통신기기"}]},{"lat":"37.784566206","long":"127.04401028","items":[{"name":"연우물자조달","tel":"070-8950-1170","addr":"경기도 양주시 남방동 9-11번지 1층","category":"의류 - 기타의류"},{"name":"향기종합상사","tel":"031-1111-1111","addr":"경기도 양주시 남방동 9-11번지 2층","category":"문화.취미 - 화원"}]},{"lat":"37.772677381","long":"127.03142767","items":[{"name":"옐로우스타(YELLOW STAR)","tel":"031-821-3951","addr":"경기도 양주시 남방동 160번지","category":"서적문구 - 완구점"}]},{"lat":"37.779784103","long":"127.03801415","items":[{"name":"우리교재","tel":"031-863-7753","addr":"경기도 양주시 남방동 404-2번지","category":"회원제형태 - 서적"}]},{"lat":"37.770812978","long":"127.02898672","items":[{"name":"월남선생","tel":"031-847-5366","addr":"경기도 양주시 남방동 556-1번지","category":"일반휴게음식 - 서양음식"}]},{"lat":"37.770235061","long":"127.03434364","items":[{"name":"유가네수타손짜장","tel":"031-842-3680","addr":"경기도 양주시 남방동 536-15번지","category":"일반휴게음식 - 중국식"},{"name":"하나자동차정비공업사","tel":"031-843-5047","addr":"경기도 양주시 남방동 536-15번지","category":"자동차정비 유지 - 자동차정비"}]},{"lat":"37.767927807","long":"127.03727083","items":[{"name":"은행나무집","tel":"031-856-3325","addr":"경기도 양주시 남방동 216-1번지 1층","category":"일반휴게음식 - 일반한식"}]},{"lat":"37.784368045","long":"127.04387394","items":[{"name":"의정부미니중기","tel":"031-855-2103","addr":"경기도 양주시 남방동 9-27번지","category":"기타 - 기계공구"}]},{"lat":"37.776233534","long":"127.04067989","items":[{"name":"이너프유","tel":"","addr":"경기도 양주시 남방동 330-3번지 1층","category":"일반휴게음식 - 일반한식"}]},{"lat":"37.771902343","long":"127.03232403","items":[{"name":"이정은보리밥","tel":"031-847-3837","addr":"경기도 양주시 남방동 491-20번지","category":"일반휴게음식 - 일반한식"}]},{"lat":"37.783845102","long":"127.04498614","items":[{"name":"인쇄백화점","tel":"031-856-1043","addr":"경기도 양주시 남방동 2-21번지","category":"서적문구 - 출판 및 인쇄물"}]},{"lat":"37.768396592","long":"127.03626093","items":[{"name":"인화당한약방","tel":"031-840-0014","addr":"경기도 양주시 남방동 219-7번지","category":"약국 - 한약방"}]},{"lat":"37.770288769","long":"127.03562619","items":[{"name":"일공공스튜디오","tel":"031-821-1244","addr":"경기도 양주시 남방동 236-7번지","category":"광학제품 - 사진관"}]},{"lat":"37.771736307","long":"127.04504738","items":[{"name":"전국꽃(란) 배달서비스","tel":"031-877-2706","addr":"경기도 양주시 남방동 82번지","category":"문화.취미 - 화원"},{"name":"한국청과","tel":"031-111-1111","addr":"경기도 양주시 남방동 82번지","category":"음료식품 - 농·축·수산품"}]},{"lat":"37.778174405","long":"127.02582237","items":[{"name":"정한실업","tel":"031-848-9003","addr":"경기도 양주시 남방동 462번지 201호","category":"의류 - 정장"}]},{"lat":"37.768676323","long":"127.03468347","items":[{"name":"주식회사 예빛엘이디","tel":"031-843-0320","addr":"경기도 양주시 남방동 221-21번지","category":"건축자재 - 인테리어전문"}]},{"lat":"37.770541632","long":"127.03340173","items":[{"name":"주식회사고창수산","tel":"031-871-8585","addr":"경기도 양주시 남방동 540-3번지","category":"음료식품 - 농·축·수산품"}]},{"lat":"37.783899416","long":"127.04425965","items":[{"name":"주식회사대한소방","tel":"031-875-9199","addr":"경기도 양주시 남방동 2-18번지","category":"용역 서비스 - 기타용역서비스"}]},{"lat":"37.772844929","long":"127.04376543","items":[{"name":"천보석재","tel":"031-542-4144","addr":"경기도 양주시 남방동 128-1번지","category":"건축자재 - 목재·석재·철물"}]},{"lat":"37.765375834","long":"127.04435147","items":[{"name":"천일농장","tel":"031-821-5404","addr":"경기도 양주시 남방동 90-1번지","category":"음료식품 - 농·축·수산품"}]},{"lat":"37.773704526","long":"127.03117836","items":[{"name":"춘천연옥매직바이오","tel":"031-878-7979","addr":"경기도 양주시 남방동 517-2","category":"회원제형태 - 기타4"}]},{"lat":"37.770983457","long":"127.03198317","items":[{"name":"캠핑5492","tel":"031-846-5492","addr":"경기도 양주시 남방동 549-2번지 1층","category":"일반휴게음식 - 일반한식"}]},{"lat":"37.770009664","long":"127.03493373","items":[{"name":"타겟(TARGET)28","tel":"070-7755-9542","addr":"경기도 양주시 남방동 536-24번지 A동","category":"레저업소 - 기타레져업소"}]},{"lat":"37.768313104","long":"127.04387643","items":[{"name":"태강스텐","tel":"031-840-6111","addr":"경기도 양주시 남방동 207-3번지","category":"건축자재 - 목재·석재·철물"}]},{"lat":"37.770930623","long":"127.02651248","items":[{"name":"태능솔밭가든","tel":"031-821-8000","addr":"경기도 양주시 남방동 568-14번지","category":"일반휴게음식 - 일반한식"}]},{"lat":"37.780846193","long":"127.04131792","items":[{"name":"태림유통","tel":"031-866-9941","addr":"경기도 양주시 남방동 19번지","category":"음료식품 - 기타음료식품"}]},{"lat":"37.783782153","long":"127.0446569","items":[{"name":"터건축사사무소","tel":"031-848-1108","addr":"경기도 양주시 남방동 2-15번지","category":"용역 서비스 - 사무서비스"}]},{"lat":"37.776069643","long":"127.04570818","items":[{"name":"푸름원","tel":"031-541-8889","addr":"경기도 양주시 남방동 74","category":"농업 - 비료,사료,종자"}]},{"lat":"37.776538108","long":"127.0457879","items":[{"name":"한솔농원","tel":"031-821-0055","addr":"경기도 양주시 남방동 74-17","category":"문화.취미 - 화원"}]},{"lat":"37.772345117","long":"127.02651293","items":[{"name":"효한마음요양원 주야간보호센터","tel":"031-875-0075","addr":"경기도 양주시 남방동 575-3번지","category":"기타의료기관 - 기타의료기관 및 기타"}]}]