[{"lat":"37.62467096","long":"127.18717154","items":[{"name":"(주)달인푸드","tel":"02-492-7537","addr":"경기도 남양주시 일패동 593번지","category":"음료식품 - 기타음료식품"}]},{"lat":"37.622779786","long":"127.18073294","items":[{"name":"(주)동일전자","tel":"031-595-5000","addr":"경기도 남양주시 일패동 668-1번지","category":"회원제형태 - 기타4"}]},{"lat":"37.614949489","long":"127.19283329","items":[{"name":"(주)메이플","tel":"031-594-2238","addr":"경기도 남양주시 일패동 367-4번지","category":"가구 - 일반가구"},{"name":"메이플시스템퍼니처","tel":"031-594-2238","addr":"경기도 남양주시 일패동 367-4번지","category":"가구 - 일반가구"}]},{"lat":"37.628225993","long":"127.17164938","items":[{"name":"(주)봄빛네이처","tel":"031-592-7015","addr":"경기도 남양주시 일패동 869-6번지","category":"전기제품 - 기타전기제품"}]},{"lat":"37.622837052","long":"127.1785922","items":[{"name":"(주)스포탑","tel":"031-594-4266","addr":"경기도 남양주시 일패동 669-2번지","category":"레져용품 - 스포츠·레져용품"}]},{"lat":"37.621674178","long":"127.18494402","items":[{"name":"(주)신우","tel":"031-558-2080","addr":"경기도 남양주시 일패동 534-1번지 1층","category":"기타 - 기계공구"},{"name":"씨유남양주일패점","tel":"031-593-0905","addr":"경기도 남양주시 일패동 534-1번지","category":"유통업 영리 - 편 의 점"},{"name":"진짜로춘천닭갈비막국수","tel":"031-591-7887","addr":"경기도 남양주시 일패동 534-1번지","category":"일반휴게음식 - 일반한식"}]},{"lat":"37.62036765","long":"127.17908478","items":[{"name":"(주)에보텍","tel":"031-1566-1635","addr":"경기도 남양주시 일패동 685-3번지","category":"전기제품 - 냉열기기"},{"name":"(주)행복의 날개","tel":"031-595-7982","addr":"경기도 남양주시 일패동 685-3번지 (1층B호,일패동)","category":"회원제형태 - 기타4"}]},{"lat":"37.629419204","long":"127.19277948","items":[{"name":"(주)엔투비솔루션","tel":"02-976-2002","addr":"경기도 남양주시 일패동 54번지 1층","category":"전기제품 - 기타전기제품"}]},{"lat":"37.630669538","long":"127.1940288","items":[{"name":"(주)청담하우징","tel":"031-511-9890","addr":"경기도 남양주시 일패동 10번지 HEAD 101호","category":"건축자재 - 인테리어전문"},{"name":"이준조명","tel":"031-595-1437","addr":"경기도 남양주시 일패동 10번지","category":"건축자재 - 조명기구"},{"name":"주식회사 비엔에스공조","tel":"031-592-3240","addr":"경기도 남양주시 일패동 10번지 HEAD 101호","category":"전기제품 - 냉열기기"}]},{"lat":"37.616861291","long":"127.19175081","items":[{"name":"(주)코리아케이푸드","tel":"031-511-7890","addr":"경기도 남양주시 일패동 300-1번지","category":"음료식품 - 농·축·수산품"}]},{"lat":"37.623251093","long":"127.17886503","items":[{"name":"(주)티엔티리퍼블릭","tel":"","addr":"경기도 남양주시 일패동 669-11번지 1층","category":"의류 - 정장"}]},{"lat":"37.623726711","long":"127.17402931","items":[{"name":"(주)프린스코리아","tel":"031-595-0133","addr":"경기도 남양주시 일패동 826번지","category":"직물 - 카페트,커튼,천막,지물"}]},{"lat":"37.617529542","long":"127.17911206","items":[{"name":"(주)홍신주물제작소","tel":"031-595-3302","addr":"경기도 남양주시 일패동 696번지","category":"기타 - 기타 전문점"}]},{"lat":"37.61536628","long":"127.1797299","items":[{"name":"DC조명","tel":"031-595-8804","addr":"경기도 남양주시 일패동 755-2번지","category":"건축자재 - 조명기구"}]},{"lat":"37.623499045","long":"127.18758777","items":[{"name":"GL25시편의점","tel":"031-592-5333","addr":"경기도 남양주시 일패동 510-8번지 1호","category":"유통업 영리 - 편 의 점"},{"name":"동일금속","tel":"031-595-0238","addr":"경기도 남양주시 일패동 510-8번지","category":"가구 - 일반가구"},{"name":"만물상회","tel":"031-511-2480","addr":"경기도 남양주시 일패동 510-8번지","category":"신변잡화 - 기타잡화"},{"name":"전주밥상","tel":"031-511-3560","addr":"경기도 남양주시 일패동 510-8번지","category":"일반휴게음식 - 일반한식"}]},{"lat":"37.615034866","long":"127.1901492","items":[{"name":"RJ컴퍼니","tel":"","addr":"경기도 남양주시 일패동 372-1번지","category":"레저업소 - 기타레져업소"}]},{"lat":"37.614639966","long":"127.177395","items":[{"name":"SY스포츠","tel":"070-7743-9696","addr":"경기도 남양주시 일패동 770-3번지","category":"회원제형태 - 레져업소"},{"name":"에스와이(SY)스포츠","tel":"","addr":"경기도 남양주시 일패동 770-3번지","category":"레저업소 - 헬스클럽"}]},{"lat":"37.622113531","long":"127.18631569","items":[{"name":"가시와다육이마을","tel":"031-555-8488","addr":"경기도 남양주시 일패동 514번지","category":"문화.취미 - 화원"},{"name":"꽃피는산골","tel":"031-591-7377","addr":"경기도 남양주시 일패동 514번지","category":"문화.취미 - 화원"},{"name":"다래플라워","tel":"031-511-5211","addr":"경기도 남양주시 일패동 514번지","category":"문화.취미 - 화원"},{"name":"대경종합조경","tel":"031-593-5285","addr":"경기도 남양주시 일패동 514번지","category":"건축자재 - 인테리어전문"},{"name":"대영화훼조경","tel":"080-559-4555","addr":"경기도 남양주시 일패동 514번지 (일패동 514-1,514-2)","category":"문화.취미 - 화원"},{"name":"삼성조경자재","tel":"031-591-9187","addr":"경기도 남양주시 일패동 514번지","category":"기타 - 기타 전문점"}]},{"lat":"37.624085207","long":"127.18724939","items":[{"name":"강북공구","tel":"031-595-0362","addr":"경기도 남양주시 일패동 75-6번지","category":"기타 - 기계공구"},{"name":"보일러할인마트(경재설비)","tel":"031-563-8406","addr":"경기도 남양주시 일패동 75-6번지","category":"건축자재 - 보일러·펌프·샷시"},{"name":"신성천막","tel":"031-559-5513","addr":"경기도 남양주시 일패동 75-6번지","category":"직물 - 카페트,커튼,천막,지물"}]},{"lat":"37.623779213","long":"127.18703341","items":[{"name":"강천칡냉면","tel":"031-595-6511","addr":"경기도 남양주시 일패동 524번지","category":"일반휴게음식 - 일반한식"},{"name":"조은타이어","tel":"031-528-6957","addr":"경기도 남양주시 일패동 524번지","category":"자동차정비 유지 - 자동차시트·타이어"}]},{"lat":"37.615723939","long":"127.18739864","items":[{"name":"개미슈퍼","tel":"031-595-1864","addr":"경기도 남양주시 일패동 465-2번지","category":"음료식품 - 기타음료식품"}]},{"lat":"37.618058936","long":"127.18645297","items":[{"name":"건우 자동문","tel":"031-577-2560","addr":"경기도 남양주시 일패동 467번지","category":"용역 서비스 - 기타용역서비스"}]},{"lat":"37.623777778","long":"127.18795094","items":[{"name":"경기철물","tel":"031-595-2221","addr":"경기도 남양주시 일패동 521-12번지","category":"건축자재 - 목재·석재·철물"},{"name":"대성종합설비","tel":"031-521-8855","addr":"경기도 남양주시 일패동 521-12번지 외1필지","category":"전기제품 - 냉열기기"},{"name":"소암윤활유","tel":"031-511-5104","addr":"경기도 남양주시 일패동 521-12번지","category":"자동차정비 유지 - 윤활유 전문 판매"},{"name":"크로바우레아몰","tel":"031-595-6676","addr":"경기도 남양주시 일패동 521-12번지","category":"자동차정비 유지 - 자동차부품"}]},{"lat":"37.630471765","long":"127.19375641","items":[{"name":"고릴라캠핑 남양주점","tel":"070-8808-4848","addr":"경기도 남양주시 일패동 8-2번지 외 1필지","category":"레져용품 - 스포츠·레져용품"}]},{"lat":"37.623390751","long":"127.18770077","items":[{"name":"공감기업","tel":"031-511-9730","addr":"경기도 남양주시 일패동 521-1번지","category":"건축자재 - 페인트"}]},{"lat":"37.63117163","long":"127.19553679","items":[{"name":"궁궐온돌침대","tel":"031-595-4341","addr":"경기도 남양주시 일패동 13-1번지","category":"가구 - 일반가구"},{"name":"궁궐온돌침대유한회사","tel":"031-595-4341","addr":"경기도 남양주시 일패동 13-1번지 1층","category":"가구 - 일반가구"}]},{"lat":"37.630919636","long":"127.19536621","items":[{"name":"금강상사","tel":"","addr":"경기도 남양주시 일패동 13-21번지","category":"주방용구 - 주방용구"}]},{"lat":"37.621944973","long":"127.17866939","items":[{"name":"금강수산","tel":"031-567-0192","addr":"경기도 남양주시 일패동 671-4번지","category":"음료식품 - 농·축·수산품"}]},{"lat":"37.620917101","long":"127.18511208","items":[{"name":"금곡중고가전가구백화점","tel":"031-559-1240","addr":"경기도 남양주시 일패동 500-5번지","category":"가구 - 일반가구"},{"name":"탑K골프","tel":"031-521-7965","addr":"경기도 남양주시 일패동 500-5번지","category":"레져용품 - 골프용품 전문점"}]},{"lat":"37.622951661","long":"127.18617049","items":[{"name":"금곡토기","tel":"031-591-3790","addr":"경기도 남양주시 일패동 530-5번지","category":"문화.취미 - 민예·공예품"}]},{"lat":"37.622278332","long":"127.17867018","items":[{"name":"김제유통","tel":"031-559-4902","addr":"경기도 남양주시 일패동 671-3번지","category":"음료식품 - 기타음료식품"}]},{"lat":"37.622007152","long":"127.18519403","items":[{"name":"까르미 남양주점","tel":"031-523-3359","addr":"경기도 남양주시 일패동 534-5번지","category":"건축자재 - 기타건축자재"},{"name":"주식회사 상록","tel":"031-792-6021","addr":"경기도 남양주시 일패동 534-5번지","category":"음료식품 - 기타음료식품"}]},{"lat":"37.622616396","long":"127.18739302","items":[{"name":"나능이버섯백숙","tel":"031-594-9959","addr":"경기도 남양주시 일패동 519-3번지 1층","category":"일반휴게음식 - 일반한식"}]},{"lat":"37.622805901","long":"127.18720092","items":[{"name":"남양주경동보일러","tel":"031-559-1441","addr":"경기도 남양주시 일패동 520-6번지","category":"건축자재 - 보일러·펌프·샷시"},{"name":"우리인테리어","tel":"031-559-1206","addr":"경기도 남양주시 일패동 520-6번지","category":"직물 - 침구·수예점"}]},{"lat":"37.619756628","long":"127.1839539","items":[{"name":"남양주라이온스클럽","tel":"031-592-3950","addr":"경기도 남양주시 일패동 498-5번지","category":"기타 - 비영리/비대상"}]},{"lat":"37.617562604","long":"127.18109429","items":[{"name":"남양주블랙박스","tel":"","addr":"경기도 남양주시 일패동 688-2번지","category":"자동차정비 유지 - 자동차부품"}]},{"lat":"37.620531479","long":"127.18394445","items":[{"name":"네비원","tel":"031-595-9725","addr":"경기도 남양주시 일패동 535-3번지 남양주폐차영업소 106호","category":"자동차정비 유지 - 자동차부품"},{"name":"유진나노방진필터","tel":"031-511-7708","addr":"경기도 남양주시 일패동 535-3번지 남양주폐차영업소 106호","category":"건축자재 - 기타건축자재"}]},{"lat":"37.615140782","long":"127.19153126","items":[{"name":"놀러왕","tel":"","addr":"경기도 남양주시 일패동 366-6번지","category":"문화.취미 - 애완동물"}]},{"lat":"37.621532135","long":"127.18936127","items":[{"name":"다대수산","tel":"070-7166-7187","addr":"경기도 남양주시 일패동 173-1번지","category":"음료식품 - 농·축·수산품"}]},{"lat":"37.616088127","long":"127.18495305","items":[{"name":"다물마켓","tel":"031-595-3385","addr":"경기도 남양주시 일패동 446-15번지","category":"유통업 영리 - 슈퍼마켓"},{"name":"만나식당","tel":"031-595-5588","addr":"경기도 남양주시 일패동 446-15번지 1층","category":"일반휴게음식 - 일반한식"},{"name":"양정동주민자치위원회","tel":"031-590-4986","addr":"경기도 남양주시 일패동 446-15번지","category":"학원 - 기타 교육기관"},{"name":"우리한우","tel":"031-591-8537","addr":"경기도 남양주시 일패동 446-15번지 1층","category":"음료식품 - 정육점"}]},{"lat":"37.625145255","long":"127.18922303","items":[{"name":"다산 덴트","tel":"031-595-5960","addr":"경기도 남양주시 일패동 100-4번지 우리스테인레스(주) 1층 2호","category":"자동차정비 유지 - 카인테리어"},{"name":"파비스케어","tel":"031-511-8070","addr":"경기도 남양주시 일패동 100-4번지","category":"자동차정비 유지 - 카인테리어"},{"name":"하나 인테리어 필름","tel":"031-592-8204","addr":"경기도 남양주시 일패동 100-4번지","category":"직물 - 카페트,커튼,천막,지물"}]},{"lat":"37.620611605","long":"127.17862094","items":[{"name":"다유퍼니쳐","tel":"031-571-3001","addr":"경기도 남양주시 일패동 680-1번지","category":"주방용구 - 주방용구"}]},{"lat":"37.628391516","long":"127.19313937","items":[{"name":"대일철물농자재","tel":"031-566-2083","addr":"경기도 남양주시 일패동 95-1번지","category":"농업 - 농기계"},{"name":"플라워스토리","tel":"031-595-5267","addr":"경기도 남양주시 일패동 95-1번지","category":"문화.취미 - 화원"}]},{"lat":"37.626918405","long":"127.1903376","items":[{"name":"대진조경","tel":"031-592-3555","addr":"경기도 남양주시 일패동 71번지","category":"문화.취미 - 화원"}]},{"lat":"37.618168401","long":"127.17966857","items":[{"name":"대창옥","tel":"031-563-2636","addr":"경기도 남양주시 일패동 688-31번지","category":"일반휴게음식 - 일반한식"}]},{"lat":"37.614229405","long":"127.18670406","items":[{"name":"대한수조","tel":"031-593-7925","addr":"경기도 남양주시 일패동 459-2번지","category":"문화.취미 - 수족관"},{"name":"싸인박스","tel":"031-595-4118","addr":"경기도 남양주시 일패동 459-2번지 C동","category":"건축자재 - 목재·석재·철물"}]},{"lat":"37.628112471","long":"127.19298006","items":[{"name":"더 마루","tel":"1588-3219-0000","addr":"경기도 남양주시 일패동 95-3번지","category":"건축자재 - 인테리어전문"}]},{"lat":"37.628637722","long":"127.19130482","items":[{"name":"덕산종합기계","tel":"031-591-1027","addr":"경기도 남양주시 일패동 65-2번지","category":"수리서비스 - 기타수리서비스"}]},{"lat":"37.624614201","long":"127.1888932","items":[{"name":"동명건재","tel":"031-567-0949","addr":"경기도 남양주시 일패동 100-5번지","category":"건축자재 - 기타건축자재"},{"name":"자연나라조경","tel":"031-595-8052","addr":"경기도 남양주시 일패동 100-5번지","category":"문화.취미 - 화원"}]},{"lat":"37.614559364","long":"127.17706635","items":[{"name":"동부기업주식회사","tel":"031-562-2674","addr":"경기도 남양주시 일패동 771-4번지","category":"건축자재 - 기타건축자재"}]},{"lat":"37.621562262","long":"127.18739041","items":[{"name":"동양","tel":"031-551-1436","addr":"경기도 남양주시 일패동 518-8번지","category":"건축자재 - 기타건축자재"}]},{"lat":"37.616971776","long":"127.18450215","items":[{"name":"동양쇼케이스","tel":"031-595-4724","addr":"경기도 남양주시 일패동 436-7번지","category":"주방용구 - 주방용구"}]},{"lat":"37.625526691","long":"127.19297348","items":[{"name":"동원양반김치","tel":"031-577-6618","addr":"경기도 남양주시 일패동 104-4번지","category":"음료식품 - 기타음료식품"}]},{"lat":"37.630167807","long":"127.18658471","items":[{"name":"동창시스템","tel":"02-2233-4284","addr":"경기도 남양주시 일패동 623번지","category":"건축자재 - 인테리어전문"}]},{"lat":"37.629111395","long":"127.19369629","items":[{"name":"동화화원","tel":"031-562-8751","addr":"경기도 남양주시 일패동 39번지","category":"문화.취미 - 화원"}]},{"lat":"37.623390414","long":"127.18791599","items":[{"name":"디스(THIS.)","tel":"","addr":"경기도 남양주시 일패동 170-9번지 101호","category":"용역 서비스 - 소프트웨어"}]},{"lat":"37.613589732","long":"127.18081298","items":[{"name":"디자인디알","tel":"","addr":"경기도 남양주시 일패동 750-17번지 길스튜디오","category":"용역 서비스 - 사무서비스"}]},{"lat":"37.620309107","long":"127.18206364","items":[{"name":"라보떼","tel":"031-594-1911","addr":"경기도 남양주시 일패동 540-16번지","category":"용역 서비스 - 종합용역"}]},{"lat":"37.626503514","long":"127.18486517","items":[{"name":"럭셔리키즈(Luxury-kids)","tel":"031-594-8965","addr":"경기도 남양주시 일패동 564번지","category":"직물 - 옷감·직물"}]},{"lat":"37.62461619","long":"127.18177945","items":[{"name":"로렌독","tel":"031-559-3881","addr":"경기도 남양주시 일패동 666-11번지 1층","category":"문화.취미 - 애완동물"}]},{"lat":"37.624725932","long":"127.17462064","items":[{"name":"리틀리더","tel":"070-4923-4269","addr":"경기도 남양주시 일패동 842-5번지","category":"회원제형태 - 서적"}]},{"lat":"37.614640998","long":"127.18852858","items":[{"name":"마루하는 사람들","tel":"031-574-7535","addr":"경기도 남양주시 일패동 321-2번지","category":"건축자재 - 인테리어전문"}]},{"lat":"37.616277468","long":"127.1906167","items":[{"name":"만물상회","tel":"031-595-7560","addr":"경기도 남양주시 일패동 350-1번지","category":"서적문구 - 문구용품"}]},{"lat":"37.61186228","long":"127.17920062","items":[{"name":"만성종합인테리어","tel":"031-566-0394","addr":"경기도 남양주시 일패동 416-3번지","category":"건축자재 - 목재·석재·철물"}]},{"lat":"37.618808888","long":"127.19081562","items":[{"name":"매직플라워","tel":"031-558-0942","addr":"경기도 남양주시 일패동 205-6번지","category":"문화.취미 - 화원"}]},{"lat":"37.620280352","long":"127.18319626","items":[{"name":"멍멍굿독","tel":"","addr":"경기도 남양주시 일패동 503-12번지 1층","category":"문화.취미 - 애완동물"},{"name":"예인바닥재","tel":"031-594-8011","addr":"경기도 남양주시 일패동 503-12번지","category":"직물 - 카페트,커튼,천막,지물"}]},{"lat":"37.618945337","long":"127.18422378","items":[{"name":"모르비도","tel":"031-594-9300","addr":"경기도 남양주시 일패동 496-3번지","category":"직물 - 침구·수예점"}]},{"lat":"37.615946567","long":"127.18906416","items":[{"name":"모모하우스 패브릭","tel":"","addr":"경기도 남양주시 일패동 343번지 지하1층","category":"직물 - 침구·수예점"}]},{"lat":"37.61575854","long":"127.18831616","items":[{"name":"모빌원모터스","tel":"031-591-1773","addr":"경기도 남양주시 일패동 313-23번지","category":"자동차정비 유지 - 자동차부품"}]},{"lat":"37.62139242","long":"127.18652913","items":[{"name":"목우촌남양주점","tel":"031-595-3108","addr":"경기도 남양주시 일패동 512-2번지 제1동 주건축물","category":"일반휴게음식 - 일반한식"}]},{"lat":"37.621559774","long":"127.1771733","items":[{"name":"목하촌식당","tel":"031-563-8079","addr":"경기도 남양주시 일패동 674-6번지 1층,2층","category":"일반휴게음식 - 일반한식"}]},{"lat":"37.617253195","long":"127.183121","items":[{"name":"몸","tel":"","addr":"경기도 남양주시 일패동 488-7번지","category":"신변잡화 - 신발"}]},{"lat":"37.620756461","long":"127.18411491","items":[{"name":"미니스톱일패제일점","tel":"031-1577-9621","addr":"경기도 남양주시 일패동 535-8번지","category":"유통업 영리 - 편 의 점"},{"name":"서울상사","tel":"031-592-9000","addr":"경기도 남양주시 일패동 535-8번지","category":"건축자재 - 보일러·펌프·샷시"}]},{"lat":"37.625445579","long":"127.18145294","items":[{"name":"미원상사(구리,남양주)","tel":"031-595-2445","addr":"경기도 남양주시 일패동 664번지","category":"음료식품 - 기타음료식품"}]},{"lat":"37.608534853","long":"127.18108407","items":[{"name":"미즈존","tel":"031-521-4842","addr":"경기도 남양주시 일패동 413-13번지","category":"의류 - 정장"}]},{"lat":"37.617006857","long":"127.19086771","items":[{"name":"믿음세차장","tel":"031-592-9192","addr":"경기도 남양주시 일패동 215-4번지","category":"자동차정비 유지 - 세차장"}]},{"lat":"37.609256178","long":"127.18072338","items":[{"name":"배꽃향기","tel":"031-568-8408","addr":"경기도 남양주시 일패동 413-8번지","category":"일반휴게음식 - 일반한식"}]},{"lat":"37.627114669","long":"127.19156152","items":[{"name":"백송슈퍼","tel":"031-595-6977","addr":"경기도 남양주시 일패동 99-13번지","category":"유통업 영리 - 슈퍼마켓"},{"name":"커피엠","tel":"031-528-6263","addr":"경기도 남양주시 일패동 99-13번지 1층","category":"일반휴게음식 - 서양음식"}]},{"lat":"37.616810904","long":"127.1776719","items":[{"name":"밸로라마","tel":"031-592-5432","addr":"경기도 남양주시 일패동 730-2번지","category":"레져용품 - 스포츠·레져용품"}]},{"lat":"37.619444825","long":"127.19866672","items":[{"name":"베스트패키지","tel":"","addr":"경기도 남양주시 일패동 271번지","category":"유통업 영리 - 기타유통업"},{"name":"케이투(K2)","tel":"031-591-0340","addr":"경기도 남양주시 일패동 271번지","category":"전기제품 - 가전제품"}]},{"lat":"37.617060608","long":"127.1910604","items":[{"name":"본가강촌칡냉면","tel":"031-595-5118","addr":"경기도 남양주시 일패동 215-2번지","category":"일반휴게음식 - 일반한식"},{"name":"세한기획","tel":"031-594-2139","addr":"경기도 남양주시 일패동 215-2번지","category":"회원제형태 - 기타4"}]},{"lat":"37.61627989","long":"127.18908764","items":[{"name":"봉두슈퍼","tel":"031-511-1050","addr":"경기도 남양주시 일패동 310-4번지","category":"유통업 영리 - 슈퍼마켓"}]},{"lat":"37.62475118","long":"127.1877268","items":[{"name":"빅토리(Victory)","tel":"031-594-7473","addr":"경기도 남양주시 일패동 75-3번지","category":"레져용품 - 스포츠·레져용품"}]},{"lat":"37.623586917","long":"127.18900392","items":[{"name":"뿌리농산","tel":"031-595-5721","addr":"경기도 남양주시 일패동 170-2번지","category":"음료식품 - 농·축·수산품"}]},{"lat":"37.621144791","long":"127.1775348","items":[{"name":"사회복지법인양정어린이집[아이행복]","tel":"031-595-1455","addr":"경기도 남양주시 일패동 675-11번지","category":"학원 - 유아원"}]},{"lat":"37.630694671","long":"127.19519571","items":[{"name":"산로렌조","tel":"031-511-5062","addr":"경기도 남양주시 일패동 12번지","category":"가구 - 일반가구"},{"name":"샛별조명","tel":"031-591-5089","addr":"경기도 남양주시 일패동 12번지","category":"건축자재 - 조명기구"},{"name":"세이보","tel":"031-595-8080","addr":"경기도 남양주시 일패동 12번지","category":"가구 - 일반가구"},{"name":"정동가구갤러리","tel":"031-595-8080","addr":"경기도 남양주시 일패동 12번지","category":"가구 - 일반가구"}]},{"lat":"37.625693573","long":"127.19002867","items":[{"name":"삼구산업","tel":"070-4100-3913","addr":"경기도 남양주시 일패동 100-42번지","category":"신변잡화 - 기타잡화"}]},{"lat":"37.630082769","long":"127.19472966","items":[{"name":"삼호타이어판매(주)","tel":"031-551-4962","addr":"경기도 남양주시 일패동 13-16번지","category":"자동차정비 유지 - 자동차시트·타이어"}]},{"lat":"37.623893553","long":"127.1830011","items":[{"name":"상록청과","tel":"031-595-5344","addr":"경기도 남양주시 일패동 554-8번지 1층","category":"음료식품 - 농·축·수산품"}]},{"lat":"37.616002903","long":"127.18761453","items":[{"name":"상원ENG","tel":"02-466-8780","addr":"경기도 남양주시 일패동 312-5번지","category":"건축자재 - 보일러·펌프·샷시"},{"name":"서강체육산업","tel":"031-591-1720","addr":"경기도 남양주시 일패동 312-5번지 1층 2호","category":"레져용품 - 스포츠·레져용품"},{"name":"슈&슈","tel":"","addr":"경기도 남양주시 일패동 312-5번지","category":"의류 - 정장"}]},{"lat":"37.618451625","long":"127.18303327","items":[{"name":"새봄침대","tel":"031-593-1012","addr":"경기도 남양주시 일패동 495-2번지","category":"가구 - 일반가구"}]},{"lat":"37.622895395","long":"127.18758627","items":[{"name":"서울P.V.C","tel":"031-554-2626","addr":"경기도 남양주시 일패동 167번지","category":"건축자재 - 기타건축자재"}]},{"lat":"37.630505726","long":"127.19503662","items":[{"name":"선유통","tel":"031-559-4227","addr":"경기도 남양주시 일패동 12-2번지","category":"레져용품 - 스포츠·레져용품"},{"name":"선유통","tel":"031-559-4227","addr":"경기도 남양주시 일패동 12-2번지","category":"레져용품 - 스포츠·레져용품"}]},{"lat":"37.616116787","long":"127.17791946","items":[{"name":"성창금속","tel":"031-559-4651","addr":"경기도 남양주시 일패동 735-9번지","category":"건축자재 - 목재·석재·철물"}]},{"lat":"37.615201906","long":"127.18705757","items":[{"name":"세움시스템","tel":"070-7717-0585","addr":"경기도 남양주시 일패동 463-2번지","category":"전기제품 - 냉열기기"}]},{"lat":"37.62031246","long":"127.17372698","items":[{"name":"세인기업","tel":"","addr":"경기도 남양주시 일패동 805-21번지","category":"신변잡화 - 액세서리"}]},{"lat":"37.61625147","long":"127.18419458","items":[{"name":"세화캔바스","tel":"031-594-0630","addr":"경기도 남양주시 일패동 437-1번지","category":"기타 - 기계공구"}]},{"lat":"37.623473325","long":"127.18674947","items":[{"name":"소담식당","tel":"031-592-8111","addr":"경기도 남양주시 일패동 529-1번지 1층","category":"일반휴게음식 - 일반한식"},{"name":"스마트전자(남양주점)","tel":"031-595-1200","addr":"경기도 남양주시 일패동 529-1번지 홍성빌딩 1층 105,106호","category":"자동차정비 유지 - 자동차부품"},{"name":"유림공조","tel":"031-568-1245","addr":"경기도 남양주시 일패동 529-1번지 103호","category":"건축자재 - 보일러·펌프·샷시"}]},{"lat":"37.624527224","long":"127.18103162","items":[{"name":"소백농장","tel":"031-557-8909","addr":"경기도 남양주시 일패동 667-1번지","category":"음료식품 - 농·축·수산품"}]},{"lat":"37.622000334","long":"127.189555","items":[{"name":"솔밭농원","tel":"031-595-4570","addr":"경기도 남양주시 일패동 174-1번지","category":"음료식품 - 농·축·수산품"},{"name":"제이에이치 독 스포츠","tel":"031-521-6218","addr":"경기도 남양주시 일패동 174-1번지","category":"문화.취미 - 애완동물"}]},{"lat":"37.628557392","long":"127.18508542","items":[{"name":"숲속의 페인트농장","tel":"031-563-1704","addr":"경기도 남양주시 일패동 630-7번지 가동","category":"건축자재 - 페인트"}]},{"lat":"37.615702576","long":"127.17775992","items":[{"name":"스마트서점","tel":"031-557-8484","addr":"경기도 남양주시 일패동 767-11번지","category":"서적문구 - 일반서적"}]},{"lat":"37.621392067","long":"127.18675567","items":[{"name":"스마트휠 일패점","tel":"031-592-7568","addr":"경기도 남양주시 일패동 512-1번지","category":"자동차정비 유지 - 자동차시트·타이어"}]},{"lat":"37.619143672","long":"127.18414497","items":[{"name":"스타일테크(Style Tech)","tel":"02-437-0210","addr":"경기도 남양주시 일패동 496-2번지","category":"의류 - 단체복"}]},{"lat":"37.616115372","long":"127.17887087","items":[{"name":"스튜디오더(THE)담다","tel":"031-571-8200","addr":"경기도 남양주시 일패동 735-1번지 1층","category":"일반휴게음식 - 일반한식"}]},{"lat":"37.621305199","long":"127.18467127","items":[{"name":"시온 카인테리어","tel":"031-595-5215","addr":"경기도 남양주시 일패동 535-5번지 1층","category":"자동차정비 유지 - 자동차부품"}]},{"lat":"37.622673904","long":"127.185173","items":[{"name":"신일종합목재","tel":"031-511-5168","addr":"경기도 남양주시 일패동 547-5번지 주 1동","category":"건축자재 - 목재·석재·철물"},{"name":"주식회사 그린하우징테크","tel":"031-666-9387","addr":"경기도 남양주시 일패동 547-5번지","category":"용역 서비스 - 기타용역서비스"},{"name":"주식회사하우징테크북부창호","tel":"031-593-8203","addr":"경기도 남양주시 일패동 547-5번지","category":"건축자재 - 보일러·펌프·샷시"}]},{"lat":"37.616531195","long":"127.1896999","items":[{"name":"신패브릭","tel":"031-595-4049","addr":"경기도 남양주시 일패동 307-1번지","category":"의류 - 정장"}]},{"lat":"37.622499479","long":"127.17534047","items":[{"name":"씨케이제과기계","tel":"031-555-2082","addr":"경기도 남양주시 일패동 831-2번지","category":"기타 - 기타 전문점"}]},{"lat":"37.626504966","long":"127.1897022","items":[{"name":"아리랑한식뷔페","tel":"031-511-5432","addr":"경기도 남양주시 일패동 72번지","category":"일반휴게음식 - 일반한식"},{"name":"청풍전기공조","tel":"031-594-6565","addr":"경기도 남양주시 일패동 72번지","category":"전기제품 - 가전제품"}]},{"lat":"37.627306128","long":"127.190146","items":[{"name":"아우토스토리","tel":"031-699-2699","addr":"경기도 남양주시 일패동 69-25번지 1층","category":"자동차정비 유지 - 자동차부품"}]},{"lat":"37.619308306","long":"127.18253696","items":[{"name":"안젤로","tel":"031-595-4879","addr":"경기도 남양주시 일패동 688-26번지","category":"가구 - 일반가구"}]},{"lat":"37.627611232","long":"127.19091707","items":[{"name":"애견카페왕","tel":"031-554-2001","addr":"경기도 남양주시 일패동 65-27번지","category":"문화.취미 - 애완동물"}]},{"lat":"37.616198981","long":"127.18897418","items":[{"name":"양정식당","tel":"031-595-3589","addr":"경기도 남양주시 일패동 310-5번지 1층","category":"일반휴게음식 - 일반한식"}]},{"lat":"37.616475684","long":"127.18486338","items":[{"name":"양정오리주물럭","tel":"031-595-2120","addr":"경기도 남양주시 일패동 483-3번지","category":"일반휴게음식 - 일반한식"}]},{"lat":"37.627809048","long":"127.19116679","items":[{"name":"어강동물병원","tel":"031-585-7582","addr":"경기도 남양주시 일패동 65-7번지","category":"기타의료기관 - 동물병원"}]},{"lat":"37.616726544","long":"127.19150129","items":[{"name":"에덴","tel":"031-511-1379","addr":"경기도 남양주시 일패동 302번지","category":"용역 서비스 - 기타용역서비스"},{"name":"에스엠테크(SM Tech)","tel":"00-1688-1890","addr":"경기도 남양주시 일패동 302번지","category":"자동차정비 유지 - 자동차부품"}]},{"lat":"37.625391222","long":"127.18750183","items":[{"name":"에스엠사인","tel":"02-2243-6255","addr":"경기도 남양주시 일패동 590-6번지 가동","category":"건축자재 - 인테리어전문"}]},{"lat":"37.628724509","long":"127.19336678","items":[{"name":"에이치케이(HK)랜드","tel":"031-591-4766","addr":"경기도 남양주시 일패동 40번지 A창고","category":"전기제품 - 냉열기기"}]},{"lat":"37.622860924","long":"127.17461635","items":[{"name":"에이컴퍼니","tel":"031-510-1800","addr":"경기도 남양주시 일패동 828-7번지","category":"신변잡화 - 기타잡화"}]},{"lat":"37.628949","long":"127.19383181","items":[{"name":"엠아이가구","tel":"031-595-5907","addr":"경기도 남양주시 일패동 38-2 ,13-55","category":"가구 - 일반가구"}]},{"lat":"37.617225694","long":"127.18922592","items":[{"name":"여성의류 (아가)","tel":"070-7005-6190","addr":"경기도 남양주시 일패동 194-2번지 1층","category":"의류 - 정장"}]},{"lat":"37.61603602","long":"127.18947213","items":[{"name":"여수한정식","tel":"031-595-4028","addr":"경기도 남양주시 일패동 344-2번지 1층","category":"일반휴게음식 - 일반한식"}]},{"lat":"37.622003949","long":"127.18725558","items":[{"name":"영진정밀","tel":"031-511-7327","addr":"경기도 남양주시 일패동 518-7번지 2호","category":"기타 - 기계공구"},{"name":"한일자동펌프","tel":"031-563-7618","addr":"경기도 남양주시 일패동 518-7번지","category":"수리서비스 - 기타수리서비스"}]},{"lat":"37.622197508","long":"127.18444689","items":[{"name":"영진판금","tel":"031-594-8446","addr":"경기도 남양주시 일패동 545-2번지 1동","category":"건축자재 - 목재·석재·철물"}]},{"lat":"37.616229437","long":"127.18678827","items":[{"name":"오케이스","tel":"031-595-2950","addr":"경기도 남양주시 일패동 466-53번지 1동","category":"사무통신 - 통신기기"}]},{"lat":"37.62630508","long":"127.19075519","items":[{"name":"오크밸리가구","tel":"031-559-0797","addr":"경기도 남양주시 일패동 99-6번지","category":"가구 - 일반가구"}]},{"lat":"37.630280668","long":"127.19492276","items":[{"name":"용마가든","tel":"031-592-3686","addr":"경기도 남양주시 일패동 13-20번지","category":"일반휴게음식 - 일반한식"},{"name":"용마정육점","tel":"031-592-3686","addr":"경기도 남양주시 일패동 13-20번지","category":"음료식품 - 정육점"}]},{"lat":"37.61506081","long":"127.18508646","items":[{"name":"용문방화문","tel":"031-591-5553","addr":"경기도 남양주시 일패동 446-17번지","category":"건축자재 - 기타건축자재"},{"name":"우주건업","tel":"031-556-9330","addr":"경기도 남양주시 일패동 446-17번지","category":"건축자재 - 보일러·펌프·샷시"}]},{"lat":"37.621615531","long":"127.18205544","items":[{"name":"우리이엔지","tel":"031-593-1707","addr":"경기도 남양주시 일패동 546번지 1호","category":"용역 서비스 - 기타용역서비스"}]},{"lat":"37.622283126","long":"127.18733556","items":[{"name":"원조양평일패 한우해장국","tel":"031-576-0303","addr":"경기도 남양주시 일패동 519-2번지","category":"일반휴게음식 - 일반한식"}]},{"lat":"37.617361434","long":"127.17703891","items":[{"name":"윈라인시스템, 나오테크","tel":"031-564-0486","addr":"경기도 남양주시 일패동 722-3번지","category":"자동차정비 유지 - 자동차부품"}]},{"lat":"37.61400435","long":"127.18070071","items":[{"name":"윈즈진열장","tel":"031-575-1368","addr":"경기도 남양주시 일패동 750-6번지","category":"가구 - 일반가구"}]},{"lat":"37.612416791","long":"127.18192012","items":[{"name":"유정다육농장","tel":"031-567-2634","addr":"경기도 남양주시 일패동 753-12번지","category":"문화.취미 - 화원"}]},{"lat":"37.619277446","long":"127.19078282","items":[{"name":"유진에어텍","tel":"031-593-1273","addr":"경기도 남양주시 일패동 207-1번지 안쪽큰창고안","category":"전기제품 - 가전제품"}]},{"lat":"37.628307087","long":"127.19520088","items":[{"name":"이너스","tel":"070-8827-2001","addr":"경기도 남양주시 일패동 35번지","category":"건축자재 - 인테리어전문"}]},{"lat":"37.628339188","long":"127.19206305","items":[{"name":"이마트24 남양주 일패점","tel":"","addr":"경기도 남양주시 일패동 48번지 1층 1호","category":"유통업 영리 - 편 의 점"},{"name":"제이테크","tel":"031-592-3575","addr":"경기도 남양주시 일패동 48번지 1층 2호","category":"기타 - 기계공구"}]},{"lat":"37.62122287","long":"127.18547529","items":[{"name":"이코노아울렛","tel":"070-4786-7864","addr":"경기도 남양주시 일패동 500-1번지","category":"전기제품 - 가전제품"},{"name":"펫노리","tel":"070-4122-9907","addr":"경기도 남양주시 일패동 500-1번지","category":"문화.취미 - 애완동물"}]},{"lat":"37.6256182","long":"127.18050181","items":[{"name":"인치업 팩토리","tel":"02-2647-2616","addr":"경기도 남양주시 일패동 661-1번지","category":"자동차정비 유지 - 자동차부품"}]},{"lat":"37.619588124","long":"127.18219783","items":[{"name":"자연꽃백화점","tel":"031-567-1955","addr":"경기도 남양주시 일패동 688-16번지","category":"문화.취미 - 화원"},{"name":"태양꽃화훼백화점","tel":"031-511-5489","addr":"경기도 남양주시 일패동 688-16번지","category":"문화.취미 - 화원"}]},{"lat":"37.621698309","long":"127.18681306","items":[{"name":"자판기유통","tel":"031-555-0682","addr":"경기도 남양주시 일패동 517-2번지","category":"기타 - 기타 전문점"}]},{"lat":"37.623588787","long":"127.18781454","items":[{"name":"재우전기온돌판넬","tel":"031-595-6003","addr":"경기도 남양주시 일패동 521-21번지 166호","category":"전기제품 - 기타전기제품"}]},{"lat":"37.620728427","long":"127.17267452","items":[{"name":"정명 유통","tel":"070-4042-2966","addr":"경기도 남양주시 일패동 805-24번지 1층","category":"음료식품 - 농·축·수산품"}]},{"lat":"37.619249839","long":"127.1911452","items":[{"name":"제이엘토탈","tel":"0503-170-3042","addr":"경기도 남양주시 일패동 205-7번지","category":"주방용구 - 주방용구"}]},{"lat":"37.622196863","long":"127.184866","items":[{"name":"제이엠오토모빌","tel":"031-559-9978","addr":"경기도 남양주시 일패동 547-11번지","category":"자동차정비 유지 - 자동차정비"}]},{"lat":"37.616868617","long":"127.1812512","items":[{"name":"제일섬유","tel":"031-559-5496","addr":"경기도 남양주시 일패동 743-1번지","category":"직물 - 옷감·직물"}]},{"lat":"37.616421128","long":"127.17925669","items":[{"name":"제주농원","tel":"031-595-3725","addr":"경기도 남양주시 일패동 706-5번지","category":"문화.취미 - 화원"}]},{"lat":"37.615666443","long":"127.18958447","items":[{"name":"주식회사 건국글로벌","tel":"031-551-5253","addr":"경기도 남양주시 일패동 344-8번지","category":"건축자재 - 기타건축자재"},{"name":"진우산업","tel":"031-595-8582","addr":"경기도 남양주시 일패동 344-8번지","category":"서적문구 - 문구용품"}]},{"lat":"37.612222212","long":"127.17950726","items":[{"name":"주식회사 대원파워텍","tel":"031-1111-1111","addr":"경기도 남양주시 일패동 416-10번지","category":"자동차정비 유지 - 자동차정비"}]},{"lat":"37.615833926","long":"127.18619832","items":[{"name":"주식회사 리앤데코","tel":"031-111-1111","addr":"경기도 남양주시 일패동 450-3번지","category":"직물 - 침구·수예점"}]},{"lat":"37.627251144","long":"127.18498027","items":[{"name":"주식회사 아름목재","tel":"031-595-7905","addr":"경기도 남양주시 일패동 567-3번지","category":"건축자재 - 목재·석재·철물"}]},{"lat":"37.62622584","long":"127.17164486","items":[{"name":"주식회사 아리인스트루먼트","tel":"031-594-9501","addr":"경기도 남양주시 일패동 862-3번지","category":"서적문구 - 과학기자재"}]},{"lat":"37.628284027","long":"127.18119918","items":[{"name":"주식회사 자운","tel":"031-594-3944","addr":"경기도 남양주시 일패동 651-2번지 나동","category":"자동차정비 유지 - 자동차부품"}]},{"lat":"37.616253636","long":"127.18277879","items":[{"name":"주식회사 제이앤피공조","tel":"031-522-6177","addr":"경기도 남양주시 일패동 433-4번지 1동, 2동","category":"용역 서비스 - 기타용역서비스"},{"name":"한톨","tel":"031-511-6540","addr":"경기도 남양주시 일패동 433-4번지","category":"음료식품 - 농·축·수산품"}]},{"lat":"37.625812668","long":"127.18878291","items":[{"name":"주식회사 태경유통","tel":"031-592-6612","addr":"경기도 남양주시 일패동 79-2번지","category":"신변잡화 - 기타잡화"}]},{"lat":"37.618972377","long":"127.17825463","items":[{"name":"주식회사 해피코리아","tel":"02-1566-0788","addr":"경기도 남양주시 일패동 714-11번지","category":"주방용구 - 주방용구"}]},{"lat":"37.615505317","long":"127.17711386","items":[{"name":"주식회사시스인터내셔날","tel":"031-559-3792","addr":"경기도 남양주시 일패동 767-6번지","category":"레져용품 - 스포츠·레져용품"}]},{"lat":"37.618312071","long":"127.19161856","items":[{"name":"주식회사프로엔티어","tel":"02-425-1982","addr":"경기도 남양주시 일패동 208-19번지","category":"의류 - 정장"}]},{"lat":"37.61348052","long":"127.18153758","items":[{"name":"주식회사한화디자인","tel":"031-8034-4084","addr":"경기도 남양주시 일패동 750-10번지 1동 2호","category":"가구 - 일반가구"}]},{"lat":"37.628284253","long":"127.18691992","items":[{"name":"주영오토테크","tel":"","addr":"경기도 남양주시 일패동 617-5번지 다동","category":"기타 - 기계공구"}]},{"lat":"37.626865814","long":"127.19502725","items":[{"name":"지나에코","tel":"031-557-5760","addr":"경기도 남양주시 일패동 138번지","category":"음료식품 - 기타음료식품"}]},{"lat":"37.627638526","long":"127.18500388","items":[{"name":"지앤에프","tel":"031-559-5700","addr":"경기도 남양주시 일패동 567-10번지","category":"가구 - 일반가구"}]},{"lat":"37.620666118","long":"127.17831524","items":[{"name":"지엔디자인","tel":"031-557-3307","addr":"경기도 남양주시 일패동 680번지","category":"용역 서비스 - 종합용역"}]},{"lat":"37.628195668","long":"127.1916662","items":[{"name":"진안골모둠소","tel":"031-511-1777","addr":"경기도 남양주시 일패동 65번지","category":"일반휴게음식 - 일반한식"}]},{"lat":"37.62252981","long":"127.17920315","items":[{"name":"참라이프","tel":"031-511-8299","addr":"경기도 남양주시 일패동 670-4번지","category":"보건위생 - 의료용품"}]},{"lat":"37.623646589","long":"127.19114496","items":[{"name":"창성금속","tel":"070-4100-4622","addr":"경기도 남양주시 일패동 160-5번지","category":"기타 - 기계공구"}]},{"lat":"37.619419155","long":"127.18661489","items":[{"name":"천우목재","tel":"031-511-5041","addr":"경기도 남양주시 일패동 473-4번지","category":"건축자재 - 목재·석재·철물"}]},{"lat":"37.627617094","long":"127.18720147","items":[{"name":"청광에스티에스","tel":"031-595-7891","addr":"경기도 남양주시 일패동 607번지 202호","category":"용역 서비스 - 종합용역"},{"name":"태광인쇄소","tel":"031-551-7449","addr":"경기도 남양주시 일패동 607번지","category":"서적문구 - 출판 및 인쇄물"}]},{"lat":"37.61575393","long":"127.191227","items":[{"name":"청수식품","tel":"031-511-5304","addr":"경기도 남양주시 일패동 352번지","category":"음료식품 - 기타음료식품"}]},{"lat":"37.624720867","long":"127.18403391","items":[{"name":"카페소고","tel":"031-111-1111","addr":"경기도 남양주시 일패동 561-2번지","category":"일반휴게음식 - 서양음식"},{"name":"카페소고","tel":"031-591-6912","addr":"경기도 남양주시 일패동 561-2번지 1층","category":"일반휴게음식 - 서양음식"}]},{"lat":"37.621169674","long":"127.1728341","items":[{"name":"케이엔파트너스","tel":"","addr":"경기도 남양주시 일패동 817-3번지","category":"건축자재 - 인테리어전문"}]},{"lat":"37.616556509","long":"127.18503348","items":[{"name":"케이포장","tel":"031-593-1717","addr":"경기도 남양주시 일패동 483-7번지 1층","category":"유통업 영리 - 기타유통업"}]},{"lat":"37.620027734","long":"127.18342219","items":[{"name":"코스모자동차공업사","tel":"031-566-2222","addr":"경기도 남양주시 일패동 503-1번지","category":"자동차정비 유지 - 자동차시트·타이어"}]},{"lat":"37.623889495","long":"127.1856404","items":[{"name":"콘사랑시스템에어컨 주식회사","tel":"","addr":"경기도 남양주시 일패동 556-1번지","category":"전기제품 - 냉열기기"}]},{"lat":"37.624862655","long":"127.1735335","items":[{"name":"타이어런","tel":"","addr":"경기도 남양주시 일패동 855-3번지 1동","category":"자동차정비 유지 - 자동차부품"},{"name":"풍년종합주방","tel":"031-000-0000","addr":"경기도 남양주시 일패동 855-3번지","category":"주방용구 - 주방용구"}]},{"lat":"37.619171934","long":"127.18334084","items":[{"name":"태선농원","tel":"031-528-2305","addr":"경기도 남양주시 일패동 503번지","category":"음료식품 - 농·축·수산품"}]},{"lat":"37.624086996","long":"127.1918144","items":[{"name":"토비팩토리","tel":"","addr":"경기도 남양주시 일패동 126-1번지","category":"용역 서비스 - 기타용역서비스"}]},{"lat":"37.623365603","long":"127.19219771","items":[{"name":"트리텍코리아","tel":"031-000-0000","addr":"경기도 남양주시 일패동 153-3번지","category":"건축자재 - 기타건축자재"}]},{"lat":"37.629284459","long":"127.19252991","items":[{"name":"티티제이","tel":"031-595-3941","addr":"경기도 남양주시 일패동 50-1번지","category":"신변잡화 - 귀금속"}]},{"lat":"37.616059365","long":"127.18017327","items":[{"name":"평화꽃농원","tel":"031-595-8806","addr":"경기도 남양주시 일패동 744-16번지","category":"문화.취미 - 화원"}]},{"lat":"37.626923248","long":"127.19294305","items":[{"name":"피지에스기기 (주)","tel":"031-593-4477","addr":"경기도 남양주시 일패동 93-4번지","category":"기타 - 기계공구"}]},{"lat":"37.623193282","long":"127.18722453","items":[{"name":"하나카센타","tel":"031-595-1676","addr":"경기도 남양주시 일패동 521-2번지","category":"자동차정비 유지 - 자동차정비"}]},{"lat":"37.609695082","long":"127.18242323","items":[{"name":"하이 스포츠","tel":"031-567-8874","addr":"경기도 남양주시 일패동 413번지","category":"레져용품 - 스포츠·레져용품"}]},{"lat":"37.619057314","long":"127.19872234","items":[{"name":"한비채크라프트","tel":"031-945-0356","addr":"경기도 남양주시 일패동 272번지","category":"신변잡화 - 기념품점"}]},{"lat":"37.617423732","long":"127.17756007","items":[{"name":"헬로바스","tel":"070-8666-0026","addr":"경기도 남양주시 일패동 724-3번지 1층","category":"건축자재 - 건축용 요업제품"}]},{"lat":"37.616557068","long":"127.18467103","items":[{"name":"현대스마트통신","tel":"031-593-9989","addr":"경기도 남양주시 일패동 484-2번지","category":"전기제품 - 기타전기제품"}]},{"lat":"37.628806801","long":"127.19261932","items":[{"name":"현대타일","tel":"031-595-6689","addr":"경기도 남양주시 일패동 51번지","category":"건축자재 - 건축용 요업제품"}]}]