[{"lat":"37.155500633","long":"127.06075571","items":[{"name":"(주)더드림홀딩스(카페드림오산대야외테라","tel":"02-866-6451","addr":"경기도 오산시 청학동 17번지 오산대학교 1층 오산대학교야외휴게동","category":"일반휴게음식 - 일반한식"},{"name":"(주)하이드","tel":"031-377-2222","addr":"경기도 오산시 청학동 17번지 오산대학","category":"건축자재 - 기타건축자재"},{"name":"(학)오산학원","tel":"031-370-2581","addr":"경기도 오산시 청학동 17번지","category":"학원 - 대학등록금"},{"name":"대학문고(오산대)","tel":"031-377-3420","addr":"경기도 오산시 청학동 17번지 오산대학","category":"서적문구 - 일반서적"},{"name":"대학문고(오산대)","tel":"031-377-3420","addr":"경기도 오산시 청학동 17번지 오산대학","category":"서적문구 - 일반서적"},{"name":"더블에이카피센터 (오산대점)","tel":"031-372-6623","addr":"경기도 오산시 청학동 17번지 오산대학 지하1층","category":"용역 서비스 - 사무서비스"},{"name":"드림스토어 오산대학교점","tel":"02-866-6451","addr":"경기도 오산시 청학동 17번지 오산대학교 내 종합정보관 지하2층","category":"유통업 영리 - 편 의 점"},{"name":"씨에이치라이프(주)","tel":"031-376-9660","addr":"경기도 오산시 청학동 17번지 오산대학 학생회관","category":"일반휴게음식 - 위탁급식업"},{"name":"오산대푸드","tel":"031-376-9660","addr":"경기도 오산시 청학동 17번지 오산대학","category":"일반휴게음식 - 일반한식"},{"name":"오산대학교","tel":"031-370-2582","addr":"경기도 오산시 청학동 17번지 오산대학","category":"학원 - 대학등록금"},{"name":"오산대학교부설유치원[아이행복]","tel":"031-375-2240","addr":"경기도 오산시 청학동 17번지 오산대학","category":"학원 - 유치원"},{"name":"주식회사 더드림홀딩스(드림스토어 오산대","tel":"02-866-6451","addr":"경기도 오산시 청학동 17번지 오산대학교 지하1층","category":"유통업 영리 - 편 의 점"},{"name":"주식회사 엘디엘","tel":"031-372-5139","addr":"경기도 오산시 청학동 17번지 오산대학 512호","category":"레져용품 - 스포츠·레져용품"},{"name":"주식회사 이지케어시스템","tel":"031-372-6059","addr":"경기도 오산시 청학동 17번지 오산대학교 지성1관 창업보육센터 B동 502호","category":"전기제품 - 기타전기제품"},{"name":"주식회사이브텍","tel":"031-375-2990","addr":"경기도 오산시 청학동 17번지 오산대학창업보육센터 508호","category":"자동차정비 유지 - 자동차부품"}]},{"lat":"37.154498366","long":"127.06492009","items":[{"name":"(주)세정석유","tel":"031-373-7666","addr":"경기도 오산시 청학동 5-3번지","category":"연료판매점 - 쌍용S-OIL"}]},{"lat":"37.154835273","long":"127.05778331","items":[{"name":"GS25오산대호점","tel":"","addr":"경기도 오산시 청학동 58-3번지","category":"유통업 영리 - 편 의 점"}]},{"lat":"37.151166304","long":"127.06136027","items":[{"name":"GS25오산청학점","tel":"","addr":"경기도 오산시 청학동 41-19번지 102호","category":"유통업 영리 - 편 의 점"}]},{"lat":"37.151472727","long":"127.06122542","items":[{"name":"가나현수막","tel":"031-372-4745","addr":"경기도 오산시 청학동 41번지 힐링 102호","category":"건축자재 - 인테리어전문"}]},{"lat":"37.153750844","long":"127.06425532","items":[{"name":"강변숯불갈비","tel":"031-373-0144","addr":"경기도 오산시 청학동 8-4번지","category":"일반휴게음식 - 일반한식"}]},{"lat":"37.154971155","long":"127.05619614","items":[{"name":"궐동꽃화원","tel":"031-378-0472","addr":"경기도 오산시 청학동 70-11번지 상가 1층 101호","category":"문화.취미 - 화원"},{"name":"마늘은약이다보쌈&족발오산궐동점","tel":"031-375-1025","addr":"경기도 오산시 청학동 70-11번지","category":"일반휴게음식 - 일반한식"},{"name":"야와라","tel":"","addr":"경기도 오산시 청학동 70-11번지 1층 101호","category":"자동차정비 유지 - 카인테리어"},{"name":"카카라(Kakara)","tel":"031-372-5115","addr":"경기도 오산시 청학동 70-11번지","category":"자동차정비 유지 - 카인테리어"}]},{"lat":"37.151256158","long":"127.06186689","items":[{"name":"그린세차장","tel":"031-373-6537","addr":"경기도 오산시 청학동 37-4번지","category":"자동차정비 유지 - 세차장"},{"name":"그린세차장블랙박스","tel":"","addr":"경기도 오산시 청학동 37-4번지 1층","category":"자동차정비 유지 - 세차장"},{"name":"그린카센타","tel":"031-374-4483","addr":"경기도 오산시 청학동 37-4번지","category":"자동차정비 유지 - 자동차정비"}]},{"lat":"37.15385926","long":"127.06369255","items":[{"name":"나단기획","tel":"031-372-9897","addr":"경기도 오산시 청학동 12-1번지 오산메이커교육센터 105호","category":"서적문구 - 출판 및 인쇄물"},{"name":"영기유리창호","tel":"031-375-6330","addr":"경기도 오산시 청학동 12-1번지","category":"건축자재 - 기타건축자재"},{"name":"이지아트텍","tel":"031-376-1006","addr":"경기도 오산시 청학동 12-1번지 오산메이커교육센터 102호","category":"서적문구 - 출판 및 인쇄물"}]},{"lat":"37.151058559","long":"127.06058348","items":[{"name":"나라크레인","tel":"070-4692-9221","addr":"경기도 오산시 청학동 196-1번지","category":"기타 - 기계공구"},{"name":"대한건설중기","tel":"031-224-7881","addr":"경기도 오산시 청학동 196-1","category":"기타 - 기계공구"},{"name":"미니포크레인(다해철거)","tel":"031-375-0485","addr":"경기도 오산시 청학동 196-1번지","category":"기타 - 기계공구"},{"name":"신용중기","tel":"031-332-2657","addr":"경기도 오산시 청학동 196-1번지","category":"기타 - 기계공구"},{"name":"영재합판상사","tel":"031-373-4004","addr":"경기도 오산시 청학동 196-1 9/2번지","category":"건축자재 - 기타건축자재"},{"name":"오산시지게차","tel":"031-376-2231","addr":"경기도 오산시 청학동 196-1번지","category":"기타 - 기계공구"},{"name":"용수리지게차","tel":"031-352-0014","addr":"경기도 오산시 청학동 196-1번지 1층","category":"기타 - 기계공구"},{"name":"입장현지지게차","tel":"041-585-7477","addr":"경기도 오산시 청학동 196-1번지 1층","category":"자동차판매 - 기타운송"},{"name":"제일중기","tel":"031-353-5789","addr":"경기도 오산시 청학동 196-1번지","category":"기타 - 기계공구"},{"name":"천마펌프카","tel":"031-662-3229","addr":"경기도 오산시 청학동 196-1번지","category":"기타 - 기계공구"},{"name":"팔달건설기계","tel":"031-375-5938","addr":"경기도 오산시 청학동 196-1번지 1층","category":"기타 - 기계공구"},{"name":"팔달건설기계","tel":"031-333-3604","addr":"경기도 오산시 청학동 196-1번지","category":"건축자재 - 기타건축자재"},{"name":"팔달건설기계","tel":"031-766-7799","addr":"경기도 오산시 청학동 196-1번지","category":"기타 - 기계공구"},{"name":"팔달건설기계","tel":"031-282-2600","addr":"경기도 오산시 청학동 196-1번지","category":"기타 - 기계공구"},{"name":"팔달건설기계","tel":"031-355-6661","addr":"경기도 오산시 청학동 196-1번지","category":"기타 - 기계공구"},{"name":"팔달건설기계","tel":"031-372-7134","addr":"경기도 오산시 청학동 196-1번지","category":"기타 - 기계공구"},{"name":"팔달건설기계","tel":"031-335-5647","addr":"경기도 오산시 청학동 196-1번지","category":"기타 - 기계공구"},{"name":"팔달건설기계","tel":"031-203-9944","addr":"경기도 오산시 청학동 196-1번지","category":"기타 - 기계공구"},{"name":"팔달건설기계","tel":"070-8624-8885","addr":"경기도 오산시 청학동 196-1번지","category":"기타 - 기계공구"},{"name":"한솔지게차","tel":"031-239-8920","addr":"경기도 오산시 청학동 196-1번지","category":"기타 - 기계공구"}]},{"lat":"37.151445322","long":"127.0619796","items":[{"name":"나래정보통신","tel":"031-374-4426","addr":"경기도 오산시 청학동 37-22번지","category":"용역 서비스 - 기타용역서비스"}]},{"lat":"37.154444696","long":"127.06416582","items":[{"name":"나승디자인","tel":"031-378-4745","addr":"경기도 오산시 청학동 14-2번지","category":"건축자재 - 인테리어전문"},{"name":"드림디포","tel":"031-377-3397","addr":"경기도 오산시 청학동 14-2번지","category":"서적문구 - 문구용품"},{"name":"오산한일펌프","tel":"031-372-7464","addr":"경기도 오산시 청학동 14-2번지","category":"전기제품 - 기타전기제품"}]},{"lat":"37.15164413","long":"127.06080906","items":[{"name":"뉴미광슈퍼","tel":"031-374-1596","addr":"경기도 오산시 청학동 46-14번지","category":"유통업 영리 - 슈퍼마켓"},{"name":"왔다 할인마트","tel":"031-374-7839","addr":"경기도 오산시 청학동 46-14번지","category":"유통업 영리 - 슈퍼마켓"}]},{"lat":"37.153643176","long":"127.06336592","items":[{"name":"뉴욕핫도그앤커피","tel":"031-377-8085","addr":"경기도 오산시 청학동 12-3번지 1층","category":"일반휴게음식 - 서양음식"}]},{"lat":"37.153084864","long":"127.06270132","items":[{"name":"니맘대로하세요","tel":"031-372-3455","addr":"경기도 오산시 청학동 29번지","category":"일반휴게음식 - 스넥"},{"name":"씨유오산대점","tel":"031-374-9804","addr":"경기도 오산시 청학동 29번지","category":"유통업 영리 - 편 의 점"},{"name":"주먹밥하우스","tel":"031-373-8262","addr":"경기도 오산시 청학동 29번지","category":"일반휴게음식 - 스넥"},{"name":"청학복사","tel":"031-372-5494","addr":"경기도 오산시 청학동 29번지","category":"서적문구 - 출판 및 인쇄물"}]},{"lat":"37.150670355","long":"127.06211408","items":[{"name":"닉스세무회계사무소","tel":"031-378-3113","addr":"경기도 오산시 청학동 38-2번지 정석빌딩 4층","category":"용역 서비스 - 법률회계서비스(개인)"},{"name":"아모래오산중앙 윤경숙","tel":"031-377-8805","addr":"경기도 오산시 청학동 38-2번지 정석빌딩 2층","category":"보건위생 - 화장품"},{"name":"아모레","tel":"031-377-8805","addr":"경기도 오산시 청학동 38-2번지 정석빌딩 2층","category":"보건위생 - 화장품"},{"name":"아모레 오산중앙 강지윤","tel":"031-377-8805","addr":"경기도 오산시 청학동 38-2번지 정석빌딩 2층","category":"보건위생 - 화장품"},{"name":"아모레 오산중앙 곽진이","tel":"031-377-8805","addr":"경기도 오산시 청학동 38-2번지 정석빌딩 2층","category":"보건위생 - 화장품"},{"name":"아모레 오산중앙 구자복","tel":"031-377-8805","addr":"경기도 오산시 청학동 38-2번지 정석빌딩 2층","category":"보건위생 - 화장품"},{"name":"아모레 오산중앙 김민지B","tel":"031-377-8805","addr":"경기도 오산시 청학동 38-2번지 정석빌딩 2층","category":"보건위생 - 화장품"},{"name":"아모레 오산중앙 김오숙","tel":"031-377-8805","addr":"경기도 오산시 청학동 38-2번지 정석빌딩 2층","category":"보건위생 - 화장품"},{"name":"아모레 오산중앙 김희연","tel":"031-377-8805","addr":"경기도 오산시 청학동 38-2번지 정석빌딩 2층","category":"보건위생 - 화장품"},{"name":"아모레 오산중앙 노신미","tel":"031-377-8805","addr":"경기도 오산시 청학동 38-2번지 정석빌딩 2층","category":"보건위생 - 화장품"},{"name":"아모레 오산중앙 도은주","tel":"031-377-8805","addr":"경기도 오산시 청학동 38-2번지 정석빌딩 2층","category":"보건위생 - 화장품"},{"name":"아모레 오산중앙 류순선","tel":"031-377-8805","addr":"경기도 오산시 청학동 38-2번지 정석빌딩 2층","category":"보건위생 - 화장품"},{"name":"아모레 오산중앙 박신영","tel":"031-377-8805","addr":"경기도 오산시 청학동 38-2번지 정석빌딩 2층","category":"보건위생 - 화장품"},{"name":"아모레 오산중앙 박흥림","tel":"031-377-8805","addr":"경기도 오산시 청학동 38-2번지 정석빌딩 2층","category":"보건위생 - 화장품"},{"name":"아모레 오산중앙 배귀임","tel":"031-377-8805","addr":"경기도 오산시 청학동 38-2번지 정석빌딩","category":"보건위생 - 화장품"},{"name":"아모레 오산중앙 서연주","tel":"031-377-8805","addr":"경기도 오산시 청학동 38-2번지 정석빌딩 2층","category":"보건위생 - 화장품"},{"name":"아모레 오산중앙 웬이지아","tel":"031-377-8805","addr":"경기도 오산시 청학동 38-2번지 정석빌딩 2층","category":"보건위생 - 화장품"},{"name":"아모레 오산중앙 이동방","tel":"031-377-8805","addr":"경기도 오산시 청학동 38-2번지 정석빌딩 2층","category":"보건위생 - 화장품"},{"name":"아모레 오산중앙 이명분","tel":"031-377-8805","addr":"경기도 오산시 청학동 38-2번지 정석빌딩","category":"보건위생 - 화장품"},{"name":"아모레 오산중앙 이선경","tel":"031-377-8805","addr":"경기도 오산시 청학동 38-2번지 정석빌딩 2층","category":"보건위생 - 화장품"},{"name":"아모레 오산중앙 이영란","tel":"031-377-8805","addr":"경기도 오산시 청학동 38-2번지 정석빌딩 2층","category":"보건위생 - 화장품"},{"name":"아모레 오산중앙 이은주","tel":"031-377-8805","addr":"경기도 오산시 청학동 38-2번지 정석빌딩 2층","category":"보건위생 - 화장품"},{"name":"아모레 오산중앙 이진숙","tel":"031-377-8805","addr":"경기도 오산시 청학동 38-2번지 정석빌딩 2층","category":"보건위생 - 화장품"},{"name":"아모레 오산중앙 이춘자","tel":"031-377-8805","addr":"경기도 오산시 청학동 38-2번지 정석빌딩 2층","category":"보건위생 - 화장품"},{"name":"아모레 오산중앙 임성매","tel":"031-377-8805","addr":"경기도 오산시 청학동 38-2번지 정석빌딩 2층","category":"보건위생 - 화장품"},{"name":"아모레 오산중앙 임숙연","tel":"031-377-8805","addr":"경기도 오산시 청학동 38-2번지 정석빌딩 2층","category":"보건위생 - 화장품"},{"name":"아모레 오산중앙 임지미","tel":"031-377-8805","addr":"경기도 오산시 청학동 38-2번지 정석빌딩 2층","category":"보건위생 - 화장품"},{"name":"아모레 오산중앙 장해연","tel":"031-377-8805","addr":"경기도 오산시 청학동 38-2번지 정석빌딩 2층","category":"보건위생 - 화장품"},{"name":"아모레 오산중앙 전영아","tel":"031-377-8805","addr":"경기도 오산시 청학동 38-2번지 정석빌딩","category":"보건위생 - 화장품"},{"name":"아모레 오산중앙 정명화","tel":"031-377-8805","addr":"경기도 오산시 청학동 38-2번지 정석빌딩 2층","category":"보건위생 - 화장품"},{"name":"아모레 오산중앙 조아라","tel":"031-377-8805","addr":"경기도 오산시 청학동 38-2번지 정석빌딩 2층","category":"보건위생 - 화장품"},{"name":"아모레 오산중앙 주애란","tel":"031-377-8805","addr":"경기도 오산시 청학동 38-2번지 정석빌딩 2층","category":"보건위생 - 화장품"},{"name":"아모레 오산중앙 지린링","tel":"031-377-8805","addr":"경기도 오산시 청학동 38-2번지 정석빌딩 2층","category":"보건위생 - 화장품"},{"name":"아모레 오산중앙 팜티마오","tel":"031-377-8805","addr":"경기도 오산시 청학동 38-2번지 정석빌딩 2층","category":"보건위생 - 화장품"},{"name":"아모레 오산중앙 한지민","tel":"031-377-8805","addr":"경기도 오산시 청학동 38-2번지 정석빌딩 2층","category":"보건위생 - 화장품"},{"name":"아모레 오산중앙 허위화","tel":"031-377-8805","addr":"경기도 오산시 청학동 38-2번지 정석빌딩 2층","category":"보건위생 - 화장품"},{"name":"아모레오산중앙 김영란","tel":"031-377-8805","addr":"경기도 오산시 청학동 38-2번지 정석빌딩 2층","category":"보건위생 - 화장품"},{"name":"아모레오산중앙 김희자","tel":"031-377-8805","addr":"경기도 오산시 청학동 38-2번지 정석빌딩 2층","category":"보건위생 - 화장품"},{"name":"아모레오산중앙 박정화","tel":"031-377-8805","addr":"경기도 오산시 청학동 38-2번지 정석빌딩 2층","category":"보건위생 - 화장품"},{"name":"아모레오산중앙 백서희","tel":"031-377-8805","addr":"경기도 오산시 청학동 38-2번지 정석빌딩 2층","category":"보건위생 - 화장품"},{"name":"아모레오산중앙 성문영","tel":"031-377-8805","addr":"경기도 오산시 청학동 38-2번지 정석빌딩 2층","category":"보건위생 - 화장품"},{"name":"아모레오산중앙 이정","tel":"031-377-8805","addr":"경기도 오산시 청학동 38-2번지 정석빌딩 2층","category":"보건위생 - 화장품"},{"name":"아모레오산중앙 최동욱","tel":"031-377-8805","addr":"경기도 오산시 청학동 38-2번지 정석빌딩 2층","category":"보건위생 - 화장품"},{"name":"아모레오산중앙 황춘화","tel":"031-377-8805","addr":"경기도 오산시 청학동 38-2번지 정석빌딩 2층","category":"보건위생 - 화장품"},{"name":"아모레오산중앙국새새","tel":"031-377-8805","addr":"경기도 오산시 청학동 38-2번지 정석빌딩 2층","category":"보건위생 - 화장품"},{"name":"아모레오산중앙김광순","tel":"031-377-8805","addr":"경기도 오산시 청학동 38-2번지 정석빌딩 2층","category":"보건위생 - 화장품"},{"name":"아모레오산중앙김미경","tel":"031-377-8805","addr":"경기도 오산시 청학동 38-2번지 정석빌딩 2층","category":"보건위생 - 화장품"},{"name":"아모레오산중앙김민지","tel":"031-377-8805","addr":"경기도 오산시 청학동 38-2번지 정석빌딩 2층","category":"보건위생 - 화장품"},{"name":"아모레오산중앙김서연","tel":"031-377-8805","addr":"경기도 오산시 청학동 38-2번지 청석빌딩 2층","category":"보건위생 - 화장품"},{"name":"아모레오산중앙김설화","tel":"031-377-8805","addr":"경기도 오산시 청학동 38-2번지 정석빌딩 2층","category":"보건위생 - 화장품"},{"name":"아모레오산중앙동홍란","tel":"031-377-8805","addr":"경기도 오산시 청학동 38-2번지 정석빌딩 2층","category":"보건위생 - 화장품"},{"name":"아모레오산중앙완건화","tel":"031-377-8805","addr":"경기도 오산시 청학동 38-2번지 정석빌딩 2층","category":"보건위생 - 화장품"},{"name":"아모레오산중앙유춘옥","tel":"031-377-8805","addr":"경기도 오산시 청학동 38-2번지 정석빌딩 2층","category":"보건위생 - 화장품"},{"name":"아모레오산중앙임옥순","tel":"031-377-8805","addr":"경기도 오산시 청학동 38-2번지 정석빌딩 2층","category":"보건위생 - 화장품"},{"name":"아모레오산중앙점 엄영숙","tel":"031-377-8805","addr":"경기도 오산시 청학동 38-2번지 정석빌딩 2층","category":"보건위생 - 화장품"},{"name":"아모레오산중앙정설매","tel":"031-377-8805","addr":"경기도 오산시 청학동 38-2번지 정석빌딩 2층","category":"보건위생 - 화장품"},{"name":"아모레퍼시픽 오산중앙","tel":"031-377-8805","addr":"경기도 오산시 청학동 38-2번지 정석빌딩 B동 2층","category":"보건위생 - 화장품"},{"name":"아모레퍼시픽 오산중앙","tel":"031-377-8805","addr":"경기도 오산시 청학동 38-2번지 2층","category":"보건위생 - 화장품"},{"name":"아모레퍼시픽 오산중앙특약점","tel":"031-377-8805","addr":"경기도 오산시 청학동 38-2번지 외1필지B동2층","category":"보건위생 - 화장품"},{"name":"아모레퍼시픽오산중앙","tel":"031-377-8805","addr":"경기도 오산시 청학동 38-2번지 외1필지 B동 2층","category":"보건위생 - 화장품"},{"name":"아모레퍼시픽오산중앙","tel":"031-373-6722","addr":"경기도 오산시 청학동 38-2번지 정석빌딩 2층","category":"보건위생 - 화장품"},{"name":"아모레퍼시픽오산중앙","tel":"031-377-8805","addr":"경기도 오산시 청학동 38-2번지 정석빌딩 2층","category":"보건위생 - 화장품"},{"name":"아모레퍼시픽오산중앙","tel":"031-377-8805","addr":"경기도 오산시 청학동 38-2번지 정석빌딩 2층","category":"보건위생 - 화장품"},{"name":"아모레퍼시픽오산중앙특약점","tel":"031-377-8805","addr":"경기도 오산시 청학동 38-2번지 외1필지 B동 2층","category":"보건위생 - 화장품"},{"name":"아모레퍼시픽오산중앙특약점","tel":"031-377-8805","addr":"경기도 오산시 청학동 38-2 외1필지B동2층","category":"보건위생 - 화장품"},{"name":"아모레퍼시픽오산중앙특약점","tel":"031-377-8805","addr":"경기도 오산시 청학동 38-2번지 외1필지 B동 2층","category":"보건위생 - 화장품"},{"name":"아모레퍼시픽오산중앙특약점","tel":"031-377-8805","addr":"경기도 오산시 청학동 38-2번지 외1필지 B동 2층","category":"보건위생 - 화장품"},{"name":"아모레퍼시픽오산중앙특약점","tel":"031-377-8805","addr":"경기도 오산시 청학동 38-2 외1필지B동2층","category":"보건위생 - 화장품"},{"name":"오거리집설렁탕","tel":"031-374-8945","addr":"경기도 오산시 청학동 38-2번지 정석빌딩 101호","category":"일반휴게음식 - 일반한식"},{"name":"주식회사 마카롱퍼플릭","tel":"031-377-6850","addr":"경기도 오산시 청학동 38-2번지 정석빌딩 3층","category":"음료식품 - 기타음료식품"},{"name":"한신공조","tel":"031-375-2728","addr":"경기도 오산시 청학동 38-2번지 정석빌딩 102호","category":"수리서비스 - 가정용품수리"}]},{"lat":"37.151194157","long":"127.05967179","items":[{"name":"담채랑","tel":"031-372-4080","addr":"경기도 오산시 청학동 201-11번지 1층","category":"일반휴게음식 - 일반한식"}]},{"lat":"37.150860531","long":"127.06016683","items":[{"name":"담채랑2호점","tel":"031-372-2128","addr":"경기도 오산시 청학동 196-3번지 금성빌딩 1층","category":"일반휴게음식 - 일반한식"},{"name":"두배로컴앤씨","tel":"070-7017-8373","addr":"경기도 오산시 청학동 196-3번지","category":"사무통신 - 컴퓨터"}]},{"lat":"37.152859574","long":"127.06275743","items":[{"name":"대학복사","tel":"031-372-3109","addr":"경기도 오산시 청학동 31-2번지 정문빌라","category":"서적문구 - 출판 및 인쇄물"}]},{"lat":"37.152672727","long":"127.05786054","items":[{"name":"돈까스&국수","tel":"031-000-0000","addr":"경기도 오산시 청학동 77-27번지 1층","category":"일반휴게음식 - 서양음식"},{"name":"마초푸드","tel":"031-373-8236","addr":"경기도 오산시 청학동 77-27번지 1층","category":"일반휴게음식 - 일반한식"},{"name":"핫삼(핫한삼겹살)","tel":"031-377-3392","addr":"경기도 오산시 청학동 77-27번지 1층","category":"일반휴게음식 - 일반한식"}]},{"lat":"37.1512205","long":"127.06109015","items":[{"name":"두발자유","tel":"031-376-1241","addr":"경기도 오산시 청학동 41-21번지 마티아빌","category":"보건위생 - 미용원"}]},{"lat":"37.154003008","long":"127.06450317","items":[{"name":"라보체성악음악교습소","tel":"070-4412-3205","addr":"경기도 오산시 청학동 5-5번지","category":"학원 - 예·체능계학원"},{"name":"멕시카나오산궐동점","tel":"031-377-9288","addr":"경기도 오산시 청학동 5-5번지","category":"일반휴게음식 - 스넥"}]},{"lat":"37.151670984","long":"127.06116929","items":[{"name":"마켓앤홈","tel":"031-374-3577","addr":"경기도 오산시 청학동 44-11번지","category":"건강식품 - 기타건강식품"}]},{"lat":"37.15300369","long":"127.06285885","items":[{"name":"맘스터치","tel":"031-378-4545","addr":"경기도 오산시 청학동 31-1번지","category":"일반휴게음식 - 스넥"},{"name":"맘스터치 오산대점","tel":"031-378-4545","addr":"경기도 오산시 청학동 31-1번지 2층","category":"일반휴게음식 - 서양음식"},{"name":"이삭토스트","tel":"031-377-1338","addr":"경기도 오산시 청학동 31-1번지","category":"일반휴게음식 - 스넥"},{"name":"주식회서 문화전파사","tel":"070-7773-9690","addr":"경기도 오산시 청학동 31-1번지 3층","category":"용역 서비스 - 종합용역"}]},{"lat":"37.153894982","long":"127.06431172","items":[{"name":"명진자동차","tel":"031-374-8870","addr":"경기도 오산시 청학동 8-8번지","category":"자동차정비 유지 - 자동차부품"}]},{"lat":"37.155889946","long":"127.05680468","items":[{"name":"문스갈비 오산대점","tel":"031-376-5350","addr":"경기도 오산시 청학동 63번지 SK공인중개사 102호","category":"일반휴게음식 - 일반한식"}]},{"lat":"37.155394468","long":"127.05659044","items":[{"name":"버스폰","tel":"031-372-5003","addr":"경기도 오산시 청학동 68번지 강남프라자 1층 107호 106","category":"사무통신 - 통신기기"},{"name":"옥스PC방","tel":"070-9700-4608","addr":"경기도 오산시 청학동 68번지 강남프라자 2층","category":"레저업소 - 기타레져업소"},{"name":"옷가게","tel":"031-8059-7967","addr":"경기도 오산시 청학동 68번지 강남프라자 103호","category":"의류 - 정장"},{"name":"카즈오디오Carz Audio","tel":"031-375-5992","addr":"경기도 오산시 청학동 68번지 강남프라자 101호","category":"자동차정비 유지 - 자동차부품"},{"name":"케이디씨(KDC)오산직영점","tel":"031-376-1700","addr":"경기도 오산시 청학동 68번지 강남프라자 102호","category":"자동차정비 유지 - 카인테리어"},{"name":"허니노래연습장","tel":"031-372-1683","addr":"경기도 오산시 청학동 68번지 강남프라자 3층","category":"레저업소 - 노 래 방"}]},{"lat":"37.151392692","long":"127.05903031","items":[{"name":"봉희언니백반&도시락","tel":"031-375-4461","addr":"경기도 오산시 청학동 201-6번지","category":"일반휴게음식 - 일반한식"},{"name":"전라도즐거운밥상","tel":"031-375-4461","addr":"경기도 오산시 청학동 201-6번지","category":"일반휴게음식 - 일반한식"}]},{"lat":"37.151311507","long":"127.05922161","items":[{"name":"상신함석공업사","tel":"031-374-3908","addr":"경기도 오산시 청학동 201-8번지","category":"기타 - 기타 전문점"}]},{"lat":"37.155727768","long":"127.05678205","items":[{"name":"성대한 노래연습장","tel":"031-378-2889","addr":"경기도 오산시 청학동 64번지 오산빌딩 201호","category":"레저업소 - 노 래 방"},{"name":"양평해장국 청학점","tel":"031-373-8823","addr":"경기도 오산시 청학동 64번지 오산빌딩 1층","category":"일반휴게음식 - 일반한식"}]},{"lat":"37.153615774","long":"127.06408635","items":[{"name":"세교자동차유리","tel":"031-375-2797","addr":"경기도 오산시 청학동 8-5번지 현대빌딩 1층 1호","category":"자동차정비 유지 - 자동차부품"}]},{"lat":"37.150337091","long":"127.06186617","items":[{"name":"솔타이어","tel":"031-374-6385","addr":"경기도 오산시 청학동 40-1번지","category":"자동차정비 유지 - 자동차시트·타이어"},{"name":"솔타이어","tel":"031-374-6385","addr":"경기도 오산시 청학동 40-1번지","category":"자동차정비 유지 - 자동차시트·타이어"}]},{"lat":"37.150445367","long":"127.06156233","items":[{"name":"수복마트","tel":"031-375-6663","addr":"경기도 오산시 청학동 40번지","category":"레져용품 - 스포츠·레져용품"},{"name":"카페청학동꽃","tel":"070-1111-1111","addr":"경기도 오산시 청학동 40번지 현해빌딩 103호","category":"일반휴게음식 - 서양음식"},{"name":"탑오토바이","tel":"031-283-4569","addr":"경기도 오산시 청학동 40번지 현해빌딩 101호","category":"자동차판매 - 이륜차판매"},{"name":"헬로봄봄","tel":"","addr":"경기도 오산시 청학동 40번지 현해빌딩 102호","category":"음료식품 - 기타음료식품"},{"name":"힐스템건강오산점","tel":"","addr":"경기도 오산시 청학동 40번지 현해빌딩 2층 201호","category":"보건위생 - 의료용품"}]},{"lat":"37.154754536","long":"127.0570065","items":[{"name":"시립청학행복어린이집[아이행복]","tel":"031-8036-7492","addr":"경기도 오산시 청학동 70번지 청학지구행복주택 관리동","category":"학원 - 유아원"}]},{"lat":"37.15141883","long":"127.06088768","items":[{"name":"신의한발","tel":"031-374-3088","addr":"경기도 오산시 청학동 49-3번지 101호","category":"일반휴게음식 - 일반한식"}]},{"lat":"37.15092332","long":"127.06075222","items":[{"name":"신화플레이닝","tel":"031-373-6735","addr":"경기도 오산시 청학동 42-8번지","category":"서적문구 - 출판 및 인쇄물"}]},{"lat":"37.152393667","long":"127.05728624","items":[{"name":"씨유오산가장로점","tel":"031-378-5995","addr":"경기도 오산시 청학동 77-10번지 1층","category":"유통업 영리 - 편 의 점"}]},{"lat":"37.154309551","long":"127.0641432","items":[{"name":"오가면옥","tel":"031-377-0069","addr":"경기도 오산시 청학동 11-14번지","category":"일반휴게음식 - 스넥"},{"name":"중앙공조시스템","tel":"031-475-7118","addr":"경기도 오산시 청학동 11-14번지 1층상가","category":"전기제품 - 냉열기기"}]},{"lat":"37.153004466","long":"127.0613054","items":[{"name":"오산고등학교","tel":"031-375-2134","addr":"경기도 오산시 청학동 26번지","category":"학원 - 초중고교육기관"},{"name":"오산고등학교 매점","tel":"031-000-0000","addr":"경기도 오산시 청학동 26번지 1층 학생휴게실 내","category":"음료식품 - 기타음료식품"},{"name":"오산중학교","tel":"031-371-9000","addr":"경기도 오산시 청학동 26번지","category":"학원 - 초중고교육기관"},{"name":"카페드림오산대학교종합정보관점/(주)더드","tel":"02-866-6451","addr":"경기도 오산시 청학동 26번지 오산대학교 학술정보관 1층","category":"일반휴게음식 - 서양음식"}]},{"lat":"37.153363638","long":"127.06378221","items":[{"name":"오산왕발통 (eco drive)","tel":"031-372-7056","addr":"경기도 오산시 청학동 8-6번지","category":"레져용품 - 스포츠·레져용품"},{"name":"은아편의점","tel":"031-376-8650","addr":"경기도 오산시 청학동 8-6번지","category":"유통업 영리 - 편 의 점"},{"name":"중앙어린이집[아이행복]","tel":"031-375-5002","addr":"경기도 오산시 청학동 8-6번지","category":"학원 - 유아원"},{"name":"청학볼링장","tel":"031-372-9900","addr":"경기도 오산시 청학동 8-6번지 1층","category":"레저업소 - 볼 링 장"},{"name":"청학체육사","tel":"031-377-5764","addr":"경기도 오산시 청학동 8-6번지 외2필지","category":"레져용품 - 스포츠·레져용품"}]},{"lat":"37.152446836","long":"127.05919994","items":[{"name":"오산정보고등학교","tel":"","addr":"경기도 오산시 청학동 52-1번지 오산정보고등학교","category":"학원 - 초중고교육기관"},{"name":"오산정보고등학교_수업료","tel":"031-370-5600","addr":"경기도 오산시 청학동 52-1번지 오산정보고등학교","category":"학원 - 초중고교육기관"}]},{"lat":"37.151338576","long":"127.05914284","items":[{"name":"오산토종한우도축직판장","tel":"031-372-2377","addr":"경기도 오산시 청학동 201-7번지 1층","category":"음료식품 - 정육점"}]},{"lat":"37.152366381","long":"127.05783781","items":[{"name":"용푸드앉으나서나찌개생각","tel":"031-373-8300","addr":"경기도 오산시 청학동 77-15번지 1층","category":"일반휴게음식 - 일반한식"},{"name":"장강일품짬뽕","tel":"031-373-8300","addr":"경기도 오산시 청학동 77-15번지 1층","category":"일반휴게음식 - 중국식"}]},{"lat":"37.156142136","long":"127.05703001","items":[{"name":"워시스페이스(WASH SPACE)","tel":"070-4685-9994","addr":"경기도 오산시 청학동 60번지","category":"자동차정비 유지 - 세차장"},{"name":"지산모터스","tel":"031-373-9158","addr":"경기도 오산시 청학동 60번지","category":"자동차정비 유지 - 자동차정비"},{"name":"하나모터스","tel":"031-373-9158","addr":"경기도 오산시 청학동 60번지 1층 상가","category":"자동차정비 유지 - 자동차정비"},{"name":"하나모터스","tel":"031-373-9158","addr":"경기도 오산시 청학동 60번지 1층","category":"자동차정비 유지 - 자동차정비"}]},{"lat":"37.152582648","long":"127.05780419","items":[{"name":"은석종합침장","tel":"031-372-6523","addr":"경기도 오산시 청학동 77-18 쌍용맨션 402 10/2","category":"직물 - 침구·수예점"}]},{"lat":"37.154029911","long":"127.06475085","items":[{"name":"의료법인오산의료재단","tel":"031-375-0071","addr":"경기도 오산시 청학동 7-1번지","category":"병원 - 병원"},{"name":"의료법인오산의료재단","tel":"031-375-0071","addr":"경기도 오산시 청학동 7-1번지","category":"유통업 영리 - 편 의 점"},{"name":"주식회사조인솔류션","tel":"031-378-3911","addr":"경기도 오산시 청학동 7-1번지 큐로스빌딩 3층 302호","category":"기타 - 기타 전문점"}]},{"lat":"37.154862523","long":"127.05731052","items":[{"name":"이마트24 오산행운점","tel":"","addr":"경기도 오산시 청학동 69-1번지 101호","category":"유통업 영리 - 편 의 점"},{"name":"케이유니크","tel":"","addr":"경기도 오산시 청학동 69-1번지 101-2호","category":"보건위생 - 미용원"}]},{"lat":"37.151003893","long":"127.06181041","items":[{"name":"장모님칼국수","tel":"031-375-3242","addr":"경기도 오산시 청학동 37-37번지","category":"일반휴게음식 - 일반한식"}]},{"lat":"37.151166025","long":"127.0619231","items":[{"name":"장수건강원","tel":"031-372-2572","addr":"경기도 오산시 청학동 37-5번지","category":"건강식품 - 기타건강식품"}]},{"lat":"37.151228907","long":"127.06230588","items":[{"name":"전어랑조개랑","tel":"031-375-6445","addr":"경기도 오산시 청학동 37-9번지","category":"일반휴게음식 - 일반한식"},{"name":"청솔공영","tel":"031-374-4068","addr":"경기도 오산시 청학동 37-9번지","category":"건축자재 - 페인트"}]},{"lat":"37.151221323","long":"127.0593904","items":[{"name":"정다운수선","tel":"031-375-9484","addr":"경기도 오산시 청학동 201-9번지","category":"수리서비스 - 세탁소"}]},{"lat":"37.155002763","long":"127.06528073","items":[{"name":"제이엠정보기술","tel":"031-378-1187","addr":"경기도 오산시 청학동 5번지 청학동웰스톤 307호","category":"회원제형태 - 기타3"}]},{"lat":"37.154309247","long":"127.06472857","items":[{"name":"주식회사 현대소방설비","tel":"031-373-9117","addr":"경기도 오산시 청학동 5-4번지","category":"용역 서비스 - 기타용역서비스"},{"name":"청림환경","tel":"031-377-2106","addr":"경기도 오산시 청학동 5-4번지","category":"기타 - 기타 전문점"}]},{"lat":"37.155448228","long":"127.05725466","items":[{"name":"주식회사주은렌트카","tel":"031-377-1111","addr":"경기도 오산시 청학동 58번지","category":"여행 - 렌터카"}]},{"lat":"37.153447558","long":"127.05800744","items":[{"name":"중앙왕족발보쌈","tel":"031-375-1800","addr":"경기도 오산시 청학동 75-2번지 진주빌딩 1층","category":"일반휴게음식 - 일반한식"}]},{"lat":"37.153779718","long":"127.06058555","items":[{"name":"지미스클래스영어학원","tel":"031-377-7205","addr":"경기도 오산시 청학동 51-1번지 1층","category":"학원 - 외국어학원"}]},{"lat":"37.15342674","long":"127.06372598","items":[{"name":"짬뽕타임","tel":"031-206-0223","addr":"경기도 오산시 청학동 8-6번지 청학볼링센타 다동 1층","category":"일반휴게음식 - 중국식"}]},{"lat":"37.153699851","long":"127.05800763","items":[{"name":"찬찬치킨","tel":"031-377-7372","addr":"경기도 오산시 청학동 69-19번지","category":"일반휴게음식 - 스넥"},{"name":"해바라기 식품","tel":"","addr":"경기도 오산시 청학동 69-19번지 1층","category":"일반휴게음식 - 일반한식"}]},{"lat":"37.154114384","long":"127.05789536","items":[{"name":"창현슈퍼","tel":"031-373-0966","addr":"경기도 오산시 청학동 69-2번지","category":"유통업 영리 - 슈퍼마켓"}]},{"lat":"37.153309581","long":"127.06377091","items":[{"name":"청학갈비","tel":"031-376-8200","addr":"경기도 오산시 청학동 8-6번지 청학볼링센타 가동 1층","category":"일반휴게음식 - 일반한식"},{"name":"청학정갈비","tel":"031-376-8200","addr":"경기도 오산시 청학동 8-6번지 청학볼링센타 가동 1층","category":"일반휴게음식 - 일반한식"}]},{"lat":"37.150806129","long":"127.0608647","items":[{"name":"청학슈퍼","tel":"031-375-4140","addr":"경기도 오산시 청학동 42-6번지","category":"유통업 영리 - 슈퍼마켓"}]},{"lat":"37.154723527","long":"127.06511165","items":[{"name":"청학점 현대자동차","tel":"031-372-8288","addr":"경기도 오산시 청학동 4-2번지","category":"자동차정비 유지 - 자동차정비"}]},{"lat":"37.150643858","long":"127.06103343","items":[{"name":"청학철물","tel":"031-372-5357","addr":"경기도 오산시 청학동 41-6","category":"기타 - 기계공구"}]},{"lat":"37.156138516","long":"127.06444862","items":[{"name":"카페(cafe)나나","tel":"","addr":"경기도 오산시 청학동 3-9번지 1층","category":"일반휴게음식 - 서양음식"}]},{"lat":"37.155277424","long":"127.05638773","items":[{"name":"프론티어","tel":"031-375-6904","addr":"경기도 오산시 청학동 70-22번지 1층","category":"사무통신 - 통신기기"}]},{"lat":"37.155588513","long":"127.06514613","items":[{"name":"플라워피아","tel":"031-375-2475","addr":"경기도 오산시 청학동 2-2","category":"문화.취미 - 화원"}]},{"lat":"37.153698652","long":"127.0605292","items":[{"name":"하쌤영수전문학원제2관학원","tel":"031-0000-0000","addr":"경기도 오산시 청학동 25-1번지 청학 1동","category":"학원 - 보습학원"}]},{"lat":"37.155141976","long":"127.05702929","items":[{"name":"해피투어(주)","tel":"031-372-9008","addr":"경기도 오산시 청학동 68-5번지","category":"여행 - 관광여행"}]},{"lat":"37.154111093","long":"127.06458206","items":[{"name":"화인편의점","tel":"031-373-5755","addr":"경기도 오산시 청학동 5-8번지","category":"유통업 영리 - 슈퍼마켓"}]}]