[{"lat":"37.251439021","long":"127.21973513","items":[{"name":"(주)신대양","tel":"031-322-8004","addr":"경기도 용인시 처인구 고림동 580-1번지 1층","category":"일반휴게음식 - 일반한식"},{"name":"통큰갈비(용인고림점)","tel":"031-333-7841","addr":"경기도 용인시 처인구 고림동 580-1번지 1층","category":"일반휴게음식 - 일반한식"}]},{"lat":"37.238784528","long":"127.21699416","items":[{"name":"(주)창성인터내셔널","tel":"070-8170-2788","addr":"경기도 용인시 처인구 고림동 781-72번지 루이빌 A동 302호","category":"의류 - 정장"}]},{"lat":"37.247803598","long":"127.24073382","items":[{"name":"(주)퀀텀","tel":"031-421-1430","addr":"경기도 용인시 처인구 고림동 2-2번지 (주)퀸텀","category":"신변잡화 - 기타잡화"}]},{"lat":"37.24737886","long":"127.23223421","items":[{"name":"(주)해피참사랑","tel":"031-332-5671","addr":"경기도 용인시 처인구 고림동 248-5번지","category":"용역 서비스 - 종합용역"},{"name":"해피용인사회적협동조합","tel":"031-332-5671","addr":"경기도 용인시 처인구 고림동 248-5번지","category":"신변잡화 - 기타잡화"}]},{"lat":"37.251743238","long":"127.22089697","items":[{"name":"Butter Fly Effect","tel":"070-8850-9605","addr":"경기도 용인시 처인구 고림동 582-10번지","category":"가구 - 일반가구"}]},{"lat":"37.255439591","long":"127.21973532","items":[{"name":"Club M","tel":"031-322-5804","addr":"경기도 용인시 처인구 고림동 960번지 960-1","category":"자동차정비 유지 - 자동차부품"},{"name":"클럽 세차장","tel":"02-1111-1111","addr":"경기도 용인시 처인구 고림동 960번지","category":"자동차정비 유지 - 자동차부품"}]},{"lat":"37.241996358","long":"127.2146816","items":[{"name":"GS25고림내안애점","tel":"","addr":"경기도 용인시 처인구 고림동 1005번지 고림지구양우내안애에듀파크 상가동 101호","category":"유통업 영리 - 편 의 점"},{"name":"고기꾸기","tel":"031-333-0292","addr":"경기도 용인시 처인구 고림동 1005번지 고림지구양우내안애에듀파크 상가동 201,202호","category":"일반휴게음식 - 일반한식"},{"name":"그레이스 (Grace)","tel":"031-338-1101","addr":"경기도 용인시 처인구 고림동 1005번지 고림지구양우내안애에듀파크 108동 1801호","category":"의류 - 내의판매"},{"name":"로우(LOW)","tel":"031-672-0071","addr":"경기도 용인시 처인구 고림동 1005번지 고림지구양우내안애에듀파크 104동 104호","category":"레져용품 - 골프용품 전문점"},{"name":"모든설비누수탐지하수구변기함,수도공사","tel":"","addr":"경기도 용인시 처인구 고림동 1005번지 고림지구양우내안애에듀파크 106동 1901호","category":"용역 서비스 - 기타용역서비스"},{"name":"예성헤어","tel":"031-334-3411","addr":"경기도 용인시 처인구 고림동 1005번지 고림지구양우내안애에듀파크 102호","category":"보건위생 - 미용원"},{"name":"처가집양념치킨 고림점","tel":"031-322-9980","addr":"경기도 용인시 처인구 고림동 1005번지 고림지구양우내안애에듀파크 1층 103호","category":"일반휴게음식 - 스넥"},{"name":"추계석사음악학원","tel":"031-323-4279","addr":"경기도 용인시 처인구 고림동 1005번지 고림지구양우내안애에듀파크 상가동 203,204호","category":"학원 - 예·체능계학원"}]},{"lat":"37.251517651","long":"127.2306462","items":[{"name":"GS25고림빌리지점","tel":"","addr":"경기도 용인시 처인구 고림동 193번지 대림르첸시아 지층 102호","category":"유통업 영리 - 편 의 점"},{"name":"세탁을 위한 사람들 고림점","tel":"031-336-3587","addr":"경기도 용인시 처인구 고림동 193번지 바동 102호","category":"수리서비스 - 세탁소"}]},{"lat":"37.238216596","long":"127.21715033","items":[{"name":"GS25용인스마트점","tel":"","addr":"경기도 용인시 처인구 고림동 795-2번지 1층일부","category":"유통업 영리 - 편 의 점"},{"name":"풍경포차","tel":"031-338-9297","addr":"경기도 용인시 처인구 고림동 795-2번지 대영빌딩","category":"일반휴게음식 - 일반한식"},{"name":"헤어스케치","tel":"031-323-1525","addr":"경기도 용인시 처인구 고림동 795-2번지 대영빌딩 102호","category":"보건위생 - 미용원"}]},{"lat":"37.248824663","long":"127.2204828","items":[{"name":"GS25용인양우점","tel":"","addr":"경기도 용인시 처인구 고림동 1014번지 양우내안에 108호, 109호","category":"유통업 영리 - 편 의 점"},{"name":"뮤엠영어","tel":"","addr":"경기도 용인시 처인구 고림동 1014번지 양우내안애에듀퍼스트 210동 204호","category":"학원 - 기타 교육기관"},{"name":"양우세탁소","tel":"031-333-1020","addr":"경기도 용인시 처인구 고림동 1014번지 양우내안애에듀퍼스트 상가동 1층 2호","category":"수리서비스 - 세탁소"},{"name":"예쁜집인테리어","tel":"070-7018-5392","addr":"경기도 용인시 처인구 고림동 1014번지 양우내안애에듀퍼스트 202동 2102호","category":"건축자재 - 인테리어전문"},{"name":"재재당(      )","tel":"031-8097-3838","addr":"경기도 용인시 처인구 고림동 1014번지 양우내안애에듀퍼스트 상가동 1층 3호","category":"일반휴게음식 - 서양음식"},{"name":"탑공인중개사사무소","tel":"031-323-4980","addr":"경기도 용인시 처인구 고림동 1014번지 양우내안애에듀퍼스트 106호","category":"용역 서비스 - 부동산 중개·임대"},{"name":"한율음악교습소","tel":"031-321-1515","addr":"경기도 용인시 처인구 고림동 1014번지 양우내안애에듀퍼스트 상가동 2층 15호","category":"학원 - 예·체능계학원"}]},{"lat":"37.237992987","long":"127.21623686","items":[{"name":"GS25용인유림점","tel":"","addr":"경기도 용인시 처인구 고림동 794-1번지","category":"유통업 영리 - 편 의 점"}]},{"lat":"37.249690625","long":"127.22481346","items":[{"name":"GS25용인한터로점","tel":"","addr":"경기도 용인시 처인구 고림동 360-3번지","category":"유통업 영리 - 편 의 점"},{"name":"커피에반하다용인고림점","tel":"031-335-1102","addr":"경기도 용인시 처인구 고림동 360-3번지","category":"일반휴게음식 - 서양음식"}]},{"lat":"37.246552006","long":"127.22642725","items":[{"name":"JH SERVICE","tel":"070-5033-8879","addr":"경기도 용인시 처인구 고림동 340-30번지 힐링하우스 103동 102호","category":"보건위생 - 기타대인서비스"}]},{"lat":"37.265801476","long":"127.22456761","items":[{"name":"JSL기획","tel":"031-637-2491","addr":"경기도 용인시 처인구 고림동 1000번지 금평마을영화아파트","category":"레저업소 - 기타레져업소"},{"name":"더위엔 에어컨","tel":"","addr":"경기도 용인시 처인구 고림동 1000번지 금평마을영화아파트","category":"용역 서비스 - 기타용역서비스"},{"name":"복순네식품","tel":"031-321-7316","addr":"경기도 용인시 처인구 고림동 1000번지 금평마을영화아파트","category":"음료식품 - 농·축·수산품"}]},{"lat":"37.253480182","long":"127.22681968","items":[{"name":"JS시스템","tel":"031-334-2161","addr":"경기도 용인시 처인구 고림동 996번지 임원마을영화아파트","category":"용역 서비스 - 기타용역서비스"},{"name":"그린청과","tel":"","addr":"경기도 용인시 처인구 고림동 996번지 임원마을영화아파트","category":"음료식품 - 농·축·수산품"},{"name":"디자인애플","tel":"031-321-2344","addr":"경기도 용인시 처인구 고림동 996번지","category":"서적문구 - 출판 및 인쇄물"},{"name":"큐티베베","tel":"031-262-5183","addr":"경기도 용인시 처인구 고림동 996번지 임원마을영화아파트","category":"의류 - 아동의류"},{"name":"포인트","tel":"000-0000-0000","addr":"경기도 용인시 처인구 고림동 996번지 임원마을영화아파트","category":"의류 - 정장"}]},{"lat":"37.250629273","long":"127.21909034","items":[{"name":"LG에어컨","tel":"","addr":"경기도 용인시 처인구 고림동 627-6번지","category":"용역 서비스 - 기타용역서비스"}]},{"lat":"37.258551458","long":"127.22282165","items":[{"name":"LG자판기","tel":"031-332-9805","addr":"경기도 용인시 처인구 고림동 475-10번지","category":"음료식품 - 기타음료식품"},{"name":"MediRound (메디라운드)","tel":"031-339-2293","addr":"경기도 용인시 처인구 고림동 475-10번지","category":"보건위생 - 의료용품"},{"name":"지오디헤어(GOD헤어)","tel":"070-7550-6871","addr":"경기도 용인시 처인구 고림동 475-10번지 2호","category":"보건위생 - 미용재료"},{"name":"출장빵구","tel":"","addr":"경기도 용인시 처인구 고림동 475-10번지","category":"자동차정비 유지 - 자동차정비"},{"name":"한터이티에스","tel":"","addr":"경기도 용인시 처인구 고림동 475-10번지 101호","category":"레져용품 - 골프용품 전문점"}]},{"lat":"37.249963313","long":"127.2235406","items":[{"name":"OK노래연습장","tel":"031-339-4704","addr":"경기도 용인시 처인구 고림동 362-6번지","category":"레저업소 - 노 래 방"},{"name":"르꼬르뷔제","tel":"031-332-0107","addr":"경기도 용인시 처인구 고림동 362-6번지 외2필지 2층","category":"일반휴게음식 - 일반한식"},{"name":"큰집추어탕","tel":"031-321-1388","addr":"경기도 용인시 처인구 고림동 362-6번지 1층","category":"일반휴게음식 - 일반한식"}]},{"lat":"37.246908504","long":"127.22849086","items":[{"name":"Y스터디홈에듀","tel":"070-7634-3285","addr":"경기도 용인시 처인구 고림동 995번지 예진마을인정피렌체빌리지II아파트","category":"회원제형태 - 학원"}]},{"lat":"37.251412712","long":"127.21934055","items":[{"name":"감자탕형제들","tel":"031-333-3253","addr":"경기도 용인시 처인구 고림동 820-106번지 외 1필지 (1층 101호-104호)","category":"일반휴게음식 - 일반한식"},{"name":"대나무숯불직화구이","tel":"031-323-4549","addr":"경기도 용인시 처인구 고림동 820-106번지","category":"일반휴게음식 - 일반한식"},{"name":"돈가네","tel":"031-335-7222","addr":"경기도 용인시 처인구 고림동 820-106번지 부강프라자 114호","category":"일반휴게음식 - 일반한식"},{"name":"돔베생선구이전문점","tel":"031-333-7761","addr":"경기도 용인시 처인구 고림동 820-106번지 외1필지 부강프라자 2층","category":"일반휴게음식 - 일반한식"},{"name":"부강스크린골프연습장","tel":"031-338-2348","addr":"경기도 용인시 처인구 고림동 820-106번지 부강프라자 205~208호","category":"레저업소 - 스크린골프"},{"name":"찌개방","tel":"031-323-4064","addr":"경기도 용인시 처인구 고림동 820-106번지 부강프라자","category":"일반휴게음식 - 일반한식"},{"name":"풀하우스 노래연습장","tel":"031-338-2349","addr":"경기도 용인시 처인구 고림동 820-106번지 부강프라자 2층","category":"레저업소 - 노 래 방"},{"name":"홍복수산","tel":"031-332-9985","addr":"경기도 용인시 처인구 고림동 820-106번지 외1필지 1층","category":"일반휴게음식 - 일반한식"}]},{"lat":"37.256601988","long":"127.22456319","items":[{"name":"강고집 장어와소","tel":"031-321-9293","addr":"경기도 용인시 처인구 고림동 458-2번지 임원빌딩 1층","category":"일반휴게음식 - 일반한식"}]},{"lat":"37.246239713","long":"127.21993437","items":[{"name":"거성자동차정비","tel":"031-334-0623","addr":"경기도 용인시 처인구 고림동 649-8번지","category":"자동차정비 유지 - 자동차정비"}]},{"lat":"37.255214231","long":"127.21979103","items":[{"name":"건강식당메밀숲","tel":"031-336-6908","addr":"경기도 용인시 처인구 고림동 961번지","category":"일반휴게음식 - 일반한식"}]},{"lat":"37.239742236","long":"127.21554307","items":[{"name":"고림 카센타","tel":"031-336-8902","addr":"경기도 용인시 처인구 고림동 781-36번지","category":"자동차정비 유지 - 자동차정비"}]},{"lat":"37.251989389","long":"127.23364586","items":[{"name":"고림208","tel":"031-3158-1072","addr":"경기도 용인시 처인구 고림동 208-2번지 1층","category":"일반휴게음식 - 일반한식"}]},{"lat":"37.251106302","long":"127.21937348","items":[{"name":"고림세차장","tel":"031-333-5551","addr":"경기도 용인시 처인구 고림동 580-5번지","category":"자동차정비 유지 - 세차장"}]},{"lat":"37.250778095","long":"127.23101593","items":[{"name":"고림컨설팅","tel":"031-321-3393","addr":"경기도 용인시 처인구 고림동 224-31번지 쉐르빌 1동 102호","category":"용역 서비스 - 사무서비스"}]},{"lat":"37.25154848","long":"127.23334019","items":[{"name":"고향면가","tel":"031-336-0514","addr":"경기도 용인시 처인구 고림동 211-3번지","category":"일반휴게음식 - 스넥"},{"name":"미니스톱용인고림점","tel":"031-321-5813","addr":"경기도 용인시 처인구 고림동 211-3번지","category":"유통업 영리 - 편 의 점"}]},{"lat":"37.24435737","long":"127.21450788","items":[{"name":"공다육 수제화분","tel":"","addr":"경기도 용인시 처인구 고림동 992-1번지","category":"문화.취미 - 화원"},{"name":"드림 원","tel":"031-264-5961","addr":"경기도 용인시 처인구 고림동 992-1번지","category":"문화.취미 - 화원"},{"name":"유(you)플라워","tel":"","addr":"경기도 용인시 처인구 고림동 992-1번지 4개동중 동편으로 4번째하우스","category":"문화.취미 - 화원"},{"name":"헬로가든(HELLO GARDEN)","tel":"031-322-5077","addr":"경기도 용인시 처인구 고림동 992-1번지","category":"문화.취미 - 화원"}]},{"lat":"37.238054064","long":"127.21734145","items":[{"name":"광미식품","tel":"031-336-5208","addr":"경기도 용인시 처인구 고림동 772-13번지 외1필지 2층","category":"음료식품 - 기타음료식품"},{"name":"구제세상","tel":"","addr":"경기도 용인시 처인구 고림동 772-13번지 뽀뽀뽀어린이집 구제세상 1층 102호","category":"의류 - 기타의류"},{"name":"늘푸른종합인테리어","tel":"031-338-1178","addr":"경기도 용인시 처인구 고림동 772-13번지 외1필지제1호","category":"건축자재 - 인테리어전문"}]},{"lat":"37.246997661","long":"127.22898705","items":[{"name":"굿모닝코리아","tel":"070-5022-3060","addr":"경기도 용인시 처인구 고림동 995번지 예진마을인정피렌체빌리지II아파트","category":"전기제품 - 가전제품"}]},{"lat":"37.250469438","long":"127.22270799","items":[{"name":"그집","tel":"031-338-8383","addr":"경기도 용인시 처인구 고림동 592-17번지","category":"일반휴게음식 - 일반한식"},{"name":"더(The)짬뽕","tel":"031-322-0255","addr":"경기도 용인시 처인구 고림동 592-17번지 1층 일부","category":"일반휴게음식 - 중국식"},{"name":"두리플라워","tel":"031-335-0599","addr":"경기도 용인시 처인구 고림동 592-17번지 1층","category":"문화.취미 - 화원"},{"name":"왕뚜껑삼겹살","tel":"031-339-3123","addr":"경기도 용인시 처인구 고림동 592-17번지","category":"일반휴게음식 - 일반한식"},{"name":"정담식당","tel":"031-321-8415","addr":"경기도 용인시 처인구 고림동 592-17번지","category":"일반휴게음식 - 일반한식"}]},{"lat":"37.249075365","long":"127.22617546","items":[{"name":"금정도배장식","tel":"031-322-2965","addr":"경기도 용인시 처인구 고림동 344-1","category":"직물 - 카페트,커튼,천막,지물"},{"name":"세븐일레븐용인고림서산점","tel":"","addr":"경기도 용인시 처인구 고림동 344-1번지","category":"유통업 영리 - 편 의 점"}]},{"lat":"37.240526938","long":"127.21509447","items":[{"name":"김가네","tel":"031-332-5999","addr":"경기도 용인시 처인구 고림동 736-58번지 1층 일부","category":"일반휴게음식 - 스넥"},{"name":"카페빔","tel":"","addr":"경기도 용인시 처인구 고림동 736-58번지","category":"일반휴게음식 - 서양음식"}]},{"lat":"37.249859376","long":"127.23084409","items":[{"name":"김떡순에반하다","tel":"031-332-8982","addr":"경기도 용인시 처인구 고림동 220번지 1층","category":"일반휴게음식 - 스넥"},{"name":"베이커리카페가루밀","tel":"031-335-7793","addr":"경기도 용인시 처인구 고림동 220번지 1층 주)중부농수산유통센터 내","category":"음료식품 - 제과점"},{"name":"연안씨푸드","tel":"031-339-6222","addr":"경기도 용인시 처인구 고림동 220번지","category":"음료식품 - 농·축·수산품"},{"name":"이주원통닭","tel":"031-000-0000","addr":"경기도 용인시 처인구 고림동 220번지","category":"일반휴게음식 - 스넥"}]},{"lat":"37.242632706","long":"127.21656551","items":[{"name":"김하람골프아카데미","tel":"","addr":"경기도 용인시 처인구 고림동 759-15번지 401호","category":"레저업소 - 골프연습장"}]},{"lat":"37.248939637","long":"127.22647938","items":[{"name":"까끼까끼","tel":"031-336-4222","addr":"경기도 용인시 처인구 고림동 342번지 고림빌딩 가동 1층","category":"보건위생 - 미용원"},{"name":"명태본가","tel":"031-323-1723","addr":"경기도 용인시 처인구 고림동 342번지 고림빌딩 1층 점포2칸","category":"일반휴게음식 - 일반한식"},{"name":"에이블학원","tel":"031-322-3229","addr":"경기도 용인시 처인구 고림동 342번지 2층 일부","category":"회원제형태 - 학원"},{"name":"우리문구","tel":"031-336-4652","addr":"경기도 용인시 처인구 고림동 342번지","category":"서적문구 - 문구용품"},{"name":"원투쓰리당구장","tel":"031-000-0000","addr":"경기도 용인시 처인구 고림동 342번지 고림빌딩 3층","category":"레저업소 - 당 구 장"},{"name":"진구네김치찌개","tel":"031-323-3367","addr":"경기도 용인시 처인구 고림동 342번지 고림빌딩 1층","category":"일반휴게음식 - 일반한식"}]},{"lat":"37.264100565","long":"127.22348037","items":[{"name":"까치골 오리돌구이","tel":"031-332-0876","addr":"경기도 용인시 처인구 고림동 503-16번지 1층","category":"일반휴게음식 - 일반한식"}]},{"lat":"37.249799634","long":"127.22434038","items":[{"name":"꿀순이네닭발","tel":"031-333-5005","addr":"경기도 용인시 처인구 고림동 360-2번지 삼미빌딩","category":"일반휴게음식 - 일반한식"},{"name":"씨유용인신고림점","tel":"031-898-6656","addr":"경기도 용인시 처인구 고림동 360-2번지 삼미빌딩","category":"유통업 영리 - 편 의 점"},{"name":"와바당구장","tel":"","addr":"경기도 용인시 처인구 고림동 360-2번지 삼미빌딩 2층","category":"레저업소 - 당 구 장"},{"name":"와봐노래연습장","tel":"031-322-0082","addr":"경기도 용인시 처인구 고림동 360-2번지 삼미빌딩 2층","category":"레저업소 - 노 래 방"},{"name":"육회한녀석들","tel":"031-338-6432","addr":"경기도 용인시 처인구 고림동 360-2번지 삼미빌딩","category":"일반휴게음식 - 일반한식"},{"name":"해적포차2","tel":"031-322-8522","addr":"경기도 용인시 처인구 고림동 360-2번지","category":"일반휴게음식 - 일반한식"}]},{"lat":"37.252860135","long":"127.22593865","items":[{"name":"꿈터공부방","tel":"031-322-8729","addr":"경기도 용인시 처인구 고림동 996번지 임원마을영화아파트","category":"회원제형태 - 학원"}]},{"lat":"37.248163327","long":"127.22723225","items":[{"name":"나린건축설비","tel":"031-339-3304","addr":"경기도 용인시 처인구 고림동 264-3번지 이튼프라자 111호","category":"건축자재 - 인테리어전문"},{"name":"다솜미술심리상담센터","tel":"031-333-4193","addr":"경기도 용인시 처인구 고림동 264-3번지 이튼프라자 상가동 206호","category":"보건위생 - 기타대인서비스"},{"name":"마노아","tel":"070-2451-2345","addr":"경기도 용인시 처인구 고림동 264-3번지 이-튼프라자 218호","category":"일반휴게음식 - 서양음식"},{"name":"맘스","tel":"031-323-5510","addr":"경기도 용인시 처인구 고림동 264-3번지 이-튼프라자220호~221호 220호","category":"의류 - 정장"},{"name":"배꼽시계","tel":"031-339-2329","addr":"경기도 용인시 처인구 고림동 264-3번지 이튼프라자 112,113호","category":"일반휴게음식 - 일반한식"},{"name":"블랙파드멀티짐 용인본관","tel":"031-321-0075","addr":"경기도 용인시 처인구 고림동 264-3번지 이튼프라자상가 212호.214호","category":"학원 - 예·체능계학원"},{"name":"비전종합설비","tel":"031-305-3002","addr":"경기도 용인시 처인구 고림동 264-3번지 이-튼프라자 226호","category":"용역 서비스 - 기타용역서비스"},{"name":"뿌리깊은수학전문학원","tel":"031-333-9971","addr":"경기도 용인시 처인구 고림동 264-3번지 이-튼프라자 211호","category":"학원 - 보습학원"},{"name":"삼정가정의원","tel":"031-339-3050","addr":"경기도 용인시 처인구 고림동 264-3번지 인정E-TON프라자 314호","category":"의원 - 의원"},{"name":"션숯불구이","tel":"031-323-0893","addr":"경기도 용인시 처인구 고림동 264-3번지 이튼프라자 103호","category":"일반휴게음식 - 일반한식"},{"name":"션하게마시자","tel":"031-321-8002","addr":"경기도 용인시 처인구 고림동 264-3번지 이튼프라자 104호","category":"일반휴게음식 - 일반한식"},{"name":"엠제이뷰티","tel":"031-322-9581","addr":"경기도 용인시 처인구 고림동 264-3번지 이튼프라자 226호","category":"보건위생 - 피부미용실"},{"name":"영동한의원","tel":"031-321-7559","addr":"경기도 용인시 처인구 고림동 264-3번지 이튼프라자 3층 312호","category":"의원 - 한의원"},{"name":"용인대상무태권도체육관","tel":"031-339-9663","addr":"경기도 용인시 처인구 고림동 264-3번지 이튼상가 305동 306호","category":"학원 - 예·체능계학원"},{"name":"이쌤컴퓨터교습소","tel":"","addr":"경기도 용인시 처인구 고림동 264-3번지 이튼프라자 2층 216호","category":"학원 - 컴퓨터학원"},{"name":"이튼다빈치미술학원","tel":"","addr":"경기도 용인시 처인구 고림동 264-3번지 이튼프라자 2층 210호","category":"학원 - 예·체능계학원"},{"name":"이튼문구","tel":"031-339-5880","addr":"경기도 용인시 처인구 고림동 264-3번지 인정이튼프라자 106호","category":"서적문구 - 완구점"},{"name":"이튼미용실","tel":"031-339-8018","addr":"경기도 용인시 처인구 고림동 264-3번지 이튼프라자 2층 215호","category":"보건위생 - 미용원"},{"name":"이튼부부치과","tel":"031-322-2894","addr":"경기도 용인시 처인구 고림동 264-3번지 인정E-TONPLAZA 3층 301동 302호","category":"의원 - 치과의원"},{"name":"이튼세탁","tel":"031-333-9188","addr":"경기도 용인시 처인구 고림동 264-3번지 이튼프라자 202호","category":"수리서비스 - 세탁소"},{"name":"이튼음악학원","tel":"031-333-9766","addr":"경기도 용인시 처인구 고림동 264-3번지 이튼프라자 308호,309호","category":"회원제형태 - 학원"},{"name":"이튼인테리어","tel":"031-333-7807","addr":"경기도 용인시 처인구 고림동 264-3번지 인정이튼프라자상가 110호","category":"건축자재 - 인테리어전문"},{"name":"이튼인테리어","tel":"031-333-7807","addr":"경기도 용인시 처인구 고림동 264-3번지 이튼프라자상가 110호","category":"건축자재 - 인테리어전문"},{"name":"장선생독서논술국어교습소","tel":"031-335-9365","addr":"경기도 용인시 처인구 고림동 264-3번지 이튼프라자 203호","category":"학원 - 보습학원"},{"name":"정성약국","tel":"031-339-3130","addr":"경기도 용인시 처인구 고림동 264-3번지 이튼프라자 109호","category":"약국 - 약국"},{"name":"케이스영어학원","tel":"","addr":"경기도 용인시 처인구 고림동 264-3번지 이튼프라자 상가동 208호","category":"학원 - 외국어학원"},{"name":"태후사랑용인고림점","tel":"031-322-1713","addr":"경기도 용인시 처인구 고림동 264-3번지 이-튼프라자 제상가동 217호","category":"보건위생 - 미용원"},{"name":"피렌체베이커리","tel":"031-335-5330","addr":"경기도 용인시 처인구 고림동 이튼프라자 108호","category":"음료식품 - 제과점"},{"name":"한뜻칸어학원","tel":"031-337-0582","addr":"경기도 용인시 처인구 고림동 264-3번지 이튼프라자 310호","category":"회원제형태 - 학원"},{"name":"한뜻학원","tel":"031-322-1991","addr":"경기도 용인시 처인구 고림동 264-3번지 이튼프라자 303호","category":"학원 - 기타 교육기관"},{"name":"한코한코 아뜰리에","tel":"031-000-0000","addr":"경기도 용인시 처인구 고림동 264-3번지 2층 220호,221호","category":"문화.취미 - 문화취미기타"}]},{"lat":"37.245968713","long":"127.21534642","items":[{"name":"남원추어탕","tel":"031-336-0557","addr":"경기도 용인시 처인구 고림동 696-11번지 1층","category":"일반휴게음식 - 일반한식"},{"name":"대영종합상사","tel":"031-338-7632","addr":"경기도 용인시 처인구 고림동 696-11번지","category":"건축자재 - 보일러·펌프·샷시"},{"name":"베이징","tel":"031-333-4551","addr":"경기도 용인시 처인구 고림동 696-11번지","category":"일반휴게음식 - 중국식"},{"name":"스카이셀프","tel":"031-333-3887","addr":"경기도 용인시 처인구 고림동 696-11번지 외 1필지","category":"자동차정비 유지 - 세차장"},{"name":"정가네","tel":"031-334-5988","addr":"경기도 용인시 처인구 고림동 696-11번지","category":"일반휴게음식 - 일반한식"}]},{"lat":"37.249102969","long":"127.22587122","items":[{"name":"다밀","tel":"031-321-8892","addr":"경기도 용인시 처인구 고림동 343-1번지 가동 1층","category":"일반휴게음식 - 일반한식"},{"name":"예진미술학원","tel":"031-321-6246","addr":"경기도 용인시 처인구 고림동 343-1번지 2층","category":"학원 - 예·체능계학원"}]},{"lat":"37.23982974","long":"127.21698585","items":[{"name":"다솜디자인","tel":"031-339-7221","addr":"경기도 용인시 처인구 고림동 781-26번지 한국롱하이츠빌라 다동 101호","category":"회원제형태 - 사무서비스"}]},{"lat":"37.239076426","long":"127.21501152","items":[{"name":"단대감자탕","tel":"031-339-8700","addr":"경기도 용인시 처인구 고림동 792-8번지 1층","category":"일반휴게음식 - 일반한식"},{"name":"소선헤어","tel":"031-943-9698","addr":"경기도 용인시 처인구 고림동 792-8번지 1층","category":"보건위생 - 미용원"},{"name":"호프(HOPF)하우스","tel":"031-332-6311","addr":"경기도 용인시 처인구 고림동 792-8번지 3호","category":"일반휴게음식 - 주점"}]},{"lat":"37.249271221","long":"127.22262561","items":[{"name":"닭장수후라이드고림점","tel":"031-322-1800","addr":"경기도 용인시 처인구 고림동 599-4번지 102,103호","category":"일반휴게음식 - 일반한식"},{"name":"수학의지혜수학학원","tel":"031-321-2000","addr":"경기도 용인시 처인구 고림동 599-4번지 202호 201호,202호","category":"학원 - 보습학원"},{"name":"이디야커피 용인고림점","tel":"031-336-9339","addr":"경기도 용인시 처인구 고림동 599-4번지 1층 108호,109호","category":"일반휴게음식 - 서양음식"},{"name":"큰집","tel":"031-323-2651","addr":"경기도 용인시 처인구 고림동 599-4번지","category":"일반휴게음식 - 일반한식"},{"name":"헤어샵구공","tel":"031-321-5151","addr":"경기도 용인시 처인구 고림동 599-4번지 큰집 101호","category":"보건위생 - 미용원"}]},{"lat":"37.240021514","long":"127.21556639","items":[{"name":"닭짱닭강정","tel":"070-5022-2720","addr":"경기도 용인시 처인구 고림동 736-10번지","category":"일반휴게음식 - 일반한식"},{"name":"럭키 세탁 편의점","tel":"031-323-5279","addr":"경기도 용인시 처인구 고림동 736-10번지","category":"수리서비스 - 세탁소"},{"name":"아빠치킨엄마떡볶이","tel":"031-337-0128","addr":"경기도 용인시 처인구 고림동 736-10번지","category":"일반휴게음식 - 일반한식"}]},{"lat":"37.248381435","long":"127.2164803","items":[{"name":"대경물산 주식회사","tel":"031-338-7823","addr":"경기도 용인시 처인구 고림동 673-5번지","category":"건축자재 - 목재·석재·철물"},{"name":"진명우드","tel":"031-335-0444","addr":"경기도 용인시 처인구 고림동 673-5번지","category":"건축자재 - 기타건축자재"}]},{"lat":"37.24505687","long":"127.23085217","items":[{"name":"대성공조","tel":"070-7018-5392","addr":"경기도 용인시 처인구 고림동 997번지 예진마을인정피렌체빌리지III아파트 301동 501호","category":"용역 서비스 - 기타용역서비스"}]},{"lat":"37.252991578","long":"127.22790033","items":[{"name":"대성정조 (주)","tel":"070-4062-3914","addr":"경기도 용인시 처인구 고림동 427-10번지내 컨테이너사무실","category":"전기제품 - 기타전기제품"}]},{"lat":"37.238775436","long":"127.21703921","items":[{"name":"대연암","tel":"","addr":"경기도 용인시 처인구 고림동 781-72번지 루이빌 B동 402호","category":"보건위생 - 기타대인서비스"},{"name":"민재스포츠","tel":"070-7018-5392","addr":"경기도 용인시 처인구 고림동 781-72번지 루이빌 B동 201호","category":"레져용품 - 스포츠·레져용품"}]},{"lat":"37.259083838","long":"127.23653076","items":[{"name":"대영공조","tel":"","addr":"경기도 용인시 처인구 고림동 1002번지 예원마을코아루아파트","category":"용역 서비스 - 기타용역서비스"}]},{"lat":"37.248854954","long":"127.22837268","items":[{"name":"대영독서실","tel":"031-335-7734","addr":"경기도 용인시 처인구 고림동 384-7번지 낙원빌딩 2층","category":"학원 - 독서실"},{"name":"피에트(Fillette)","tel":"031-338-2076","addr":"경기도 용인시 처인구 고림동 384-7번지 1층","category":"일반휴게음식 - 서양음식"}]},{"lat":"37.240022464","long":"127.21503671","items":[{"name":"대치수학원","tel":"031-336-0584","addr":"경기도 용인시 처인구 고림동 784번지 3층","category":"학원 - 보습학원"},{"name":"용인K뷰티미용학원","tel":"031-321-2053","addr":"경기도 용인시 처인구 고림동 784번지 3층","category":"학원 - 기능학원"}]},{"lat":"37.240939568","long":"127.2161212","items":[{"name":"덕영고 매점","tel":"031-582-2475","addr":"경기도 용인시 처인구 고림동 737-1번지","category":"음료식품 - 기타음료식품"}]},{"lat":"37.244300378","long":"127.23065829","items":[{"name":"도예공방 예소","tel":"070-636-7133","addr":"경기도 용인시 처인구 고림동 997번지 예진마을인정피렌체빌리지III아파트","category":"문화.취미 - 민예·공예품"},{"name":"에너스킨BM","tel":"","addr":"경기도 용인시 처인구 고림동 997번지 예진마을인정피렌체빌리지III아파트","category":"레져용품 - 스포츠·레져용품"}]},{"lat":"37.237747695","long":"127.21735185","items":[{"name":"도인마트","tel":"031-335-1590","addr":"경기도 용인시 처인구 고림동 772-7번지","category":"유통업 영리 - 슈퍼마켓"}]},{"lat":"37.253129677","long":"127.22634523","items":[{"name":"동네정육점","tel":"031-333-2789","addr":"경기도 용인시 처인구 고림동 996 임원마을상가105","category":"음료식품 - 정육점"},{"name":"미니스톱 용인영화점","tel":"031-1577-9621","addr":"경기도 용인시 처인구 고림동 996번지 상가동","category":"유통업 영리 - 편 의 점"}]},{"lat":"37.237288375","long":"127.21723786","items":[{"name":"동해건축.철물","tel":"031-321-7508","addr":"경기도 용인시 처인구 고림동 796-2번지 진흥아파트","category":"용역 서비스 - 기타용역서비스"}]},{"lat":"37.253744072","long":"127.22059839","items":[{"name":"동해타일","tel":"031-339-7508","addr":"경기도 용인시 처인구 고림동 820-112번지","category":"건축자재 - 기타건축자재"}]},{"lat":"37.252082891","long":"127.22718751","items":[{"name":"두산지게차에이에스","tel":"031-323-6082","addr":"경기도 용인시 처인구 고림동 411-1번지 이삭아파트","category":"회원제형태 - 기타1"}]},{"lat":"37.240608676","long":"127.21473407","items":[{"name":"드림약국","tel":"031-332-3595","addr":"경기도 용인시 처인구 고림동 736-22번지 1층","category":"약국 - 약국"}]},{"lat":"37.253445376","long":"127.22616581","items":[{"name":"디케이(DK)에어컨","tel":"","addr":"경기도 용인시 처인구 고림동 996번지 임원마을영화아파트","category":"용역 서비스 - 기타용역서비스"},{"name":"제이데코 (J'Deco)","tel":"","addr":"경기도 용인시 처인구 고림동 996번지 임원마을영화아파트","category":"직물 - 카페트,커튼,천막,지물"}]},{"lat":"37.239852257","long":"127.21448401","items":[{"name":"또순이네","tel":"031-333-0864","addr":"경기도 용인시 처인구 고림동 785번지","category":"일반휴게음식 - 일반한식"}]},{"lat":"37.240860177","long":"127.2151743","items":[{"name":"뚜레쥬르(고림점)","tel":"","addr":"경기도 용인시 처인구 고림동 736-3번지 1층 일부","category":"음료식품 - 제과점"}]},{"lat":"37.239582251","long":"127.21431421","items":[{"name":"뚝방마차","tel":"031-321-9428","addr":"경기도 용인시 처인구 고림동 787-2","category":"음료식품 - 농·축·수산품"}]},{"lat":"37.23788291","long":"127.21731843","items":[{"name":"뚱이네뒷고기","tel":"031-335-9332","addr":"경기도 용인시 처인구 고림동 772-6번지","category":"일반휴게음식 - 스넥"},{"name":"현대철물설비공사","tel":"031-322-1334","addr":"경기도 용인시 처인구 고림동 772-6번지","category":"건축자재 - 보일러·펌프·샷시"}]},{"lat":"37.244874926","long":"127.23175326","items":[{"name":"레저크래프트","tel":"070-4624-5844","addr":"경기도 용인시 처인구 고림동 997번지 예진마을인정피렌체빌리지III아파트","category":"회원제형태 - 기타4"},{"name":"푸드114","tel":"031-338-6877","addr":"경기도 용인시 처인구 고림동 997번지 예진마을인정피렌체빌리지III아파트","category":"음료식품 - 기타음료식품"}]},{"lat":"37.240271141","long":"127.21704344","items":[{"name":"리리헤어","tel":"031-338-0666","addr":"경기도 용인시 처인구 고림동 748-7번지","category":"보건위생 - 미용원"},{"name":"세븐일레븐용인고림점","tel":"","addr":"경기도 용인시 처인구 고림동 748-7번지","category":"유통업 영리 - 편 의 점"},{"name":"튼튼영어 용인처인지사","tel":"031-334-0549","addr":"경기도 용인시 처인구 고림동 748-7번지 가동2호","category":"회원제형태 - 서적"}]},{"lat":"37.248659506","long":"127.22209409","items":[{"name":"만포식당","tel":"031-339-0639","addr":"경기도 용인시 처인구 고림동 604-1번지","category":"일반휴게음식 - 일반한식"}]},{"lat":"37.239742034","long":"127.21565576","items":[{"name":"맛깔식당","tel":"031-322-9292","addr":"경기도 용인시 처인구 고림동 781-35번지 1층","category":"일반휴게음식 - 일반한식"},{"name":"제일미용실","tel":"031-335-4015","addr":"경기도 용인시 처인구 고림동 781-35번지","category":"보건위생 - 미용원"}]},{"lat":"37.242911577","long":"127.21681424","items":[{"name":"매:일","tel":"031-335-0633","addr":"경기도 용인시 처인구 고림동 759-8번지 1층","category":"일반휴게음식 - 서양음식"}]},{"lat":"37.248387043","long":"127.22804443","items":[{"name":"머꼬","tel":"031-336-6931","addr":"경기도 용인시 처인구 고림동 264-5번지 1층 일부","category":"일반휴게음식 - 일반한식"},{"name":"바비뉴욕","tel":"031-336-6665","addr":"경기도 용인시 처인구 고림동 264-5번지 명도태권도 103호","category":"보건위생 - 미용원"},{"name":"유헤어","tel":"031-339-1404","addr":"경기도 용인시 처인구 고림동 264-5번지 명도태권도 102호","category":"보건위생 - 미용원"}]},{"lat":"37.239688721","long":"127.21523863","items":[{"name":"메인(Main)","tel":"031-3333-6560","addr":"경기도 용인시 처인구 고림동 783-1번지 1층","category":"의류 - 정장"}]},{"lat":"37.259075306","long":"127.22214682","items":[{"name":"멸치퐁당칼국수","tel":"070-7018-5392","addr":"경기도 용인시 처인구 고림동 539-2번지","category":"일반휴게음식 - 일반한식"},{"name":"카페마을","tel":"031-321-6530","addr":"경기도 용인시 처인구 고림동 539-2번지 1층","category":"일반휴게음식 - 서양음식"}]},{"lat":"37.250269829","long":"127.22345132","items":[{"name":"명성카셀프","tel":"031-335-0724","addr":"경기도 용인시 처인구 고림동 362-1번지","category":"자동차정비 유지 - 세차장"}]},{"lat":"37.247797394","long":"127.23012781","items":[{"name":"목공세상","tel":"031-323-2175","addr":"경기도 용인시 처인구 고림동 237번지","category":"문화.취미 - 민예·공예품"}]},{"lat":"37.263631613","long":"127.22370447","items":[{"name":"뮤즈","tel":"","addr":"경기도 용인시 처인구 고림동 505-1번지 푸른마을 1층 101호","category":"건강식품 - 기타건강식품"}]},{"lat":"37.251297182","long":"127.21846104","items":[{"name":"미가","tel":"031-336-3767","addr":"경기도 용인시 처인구 고림동 985번지","category":"일반휴게음식 - 일반한식"},{"name":"유일천막사","tel":"031-335-5236","addr":"경기도 용인시 처인구 고림동 985","category":"직물 - 카페트,커튼,천막,지물"}]},{"lat":"37.24735526","long":"127.21592513","items":[{"name":"미쁨","tel":"","addr":"경기도 용인시 처인구 고림동 698-3번지 2층","category":"보건위생 - 화장품"},{"name":"용인동부현대서비스","tel":"031-333-2500","addr":"경기도 용인시 처인구 고림동 698-3번지 1층","category":"자동차정비 유지 - 자동차부품"},{"name":"원탑SH모터스","tel":"031-0000-0000","addr":"경기도 용인시 처인구 고림동 698-3번지","category":"자동차정비 유지 - 자동차정비"},{"name":"처인운수","tel":"031-333-2242","addr":"경기도 용인시 처인구 고림동 698-3번지 2층","category":"자동차정비 유지 - 견인서비스"},{"name":"한국부란자","tel":"031-335-8110","addr":"경기도 용인시 처인구 고림동 698-3번지","category":"수리서비스 - 기타수리서비스"},{"name":"한국자동차공업(주)","tel":"031-335-7842","addr":"경기도 용인시 처인구 고림동 698-3번지","category":"자동차정비 유지 - 자동차정비"}]},{"lat":"37.241109361","long":"127.21689931","items":[{"name":"바이온텍용인점","tel":"031-338-8758","addr":"경기도 용인시 처인구 고림동 747-4번지","category":"보건위생 - 의료용품"},{"name":"아띠헤어","tel":"031-334-1923","addr":"경기도 용인시 처인구 고림동 747-4번지 1층 일부","category":"보건위생 - 미용원"}]},{"lat":"37.25593536","long":"127.21962402","items":[{"name":"박가네고깃간","tel":"031-322-6242","addr":"경기도 용인시 처인구 고림동 958-1번지","category":"일반휴게음식 - 일반한식"}]},{"lat":"37.236415031","long":"127.21687477","items":[{"name":"방울이호프","tel":"031-334-6213","addr":"경기도 용인시 처인구 고림동 797-29번지","category":"일반휴게음식 - 일반한식"},{"name":"베가스수학교습소","tel":"031-337-3113","addr":"경기도 용인시 처인구 고림동 797-29번지 1층","category":"학원 - 보습학원"},{"name":"베가스영어학원","tel":"031-337-3113","addr":"경기도 용인시 처인구 고림동 797-29번지 2층","category":"학원 - 외국어학원"},{"name":"진애정헤어","tel":"031-334-6334","addr":"경기도 용인시 처인구 고림동 797-29번지 1층","category":"보건위생 - 미용원"}]},{"lat":"37.248132675","long":"127.22436932","items":[{"name":"백반식도시락","tel":"031-333-3066","addr":"경기도 용인시 처인구 고림동 348-5번지","category":"일반휴게음식 - 일반한식"}]},{"lat":"37.236216845","long":"127.21685167","items":[{"name":"범양건설","tel":"031-337-0042","addr":"경기도 용인시 처인구 고림동 797-28번지","category":"용역 서비스 - 기타용역서비스"},{"name":"엠베스트고림학원","tel":"031-322-0549","addr":"경기도 용인시 처인구 고림동 797-28번지","category":"학원 - 보습학원"},{"name":"지(G).타운공인중개사사무소","tel":"031-336-4989","addr":"경기도 용인시 처인구 고림동 797-28번지 1층 1호","category":"용역 서비스 - 부동산 중개·임대"},{"name":"한가닭","tel":"031-000-0000","addr":"경기도 용인시 처인구 고림동 797-28번지","category":"일반휴게음식 - 일반한식"}]},{"lat":"37.239609181","long":"127.21437064","items":[{"name":"베드로약국","tel":"031-335-9571","addr":"경기도 용인시 처인구 고림동 786번지","category":"약국 - 약국"}]},{"lat":"37.265827471","long":"127.22512009","items":[{"name":"변강쇠","tel":"031-339-7837","addr":"경기도 용인시 처인구 고림동 820-131번지","category":"일반휴게음식 - 일반한식"},{"name":"비너스노래연습장","tel":"031-335-0578","addr":"경기도 용인시 처인구 고림동 820-131번지","category":"레저업소 - 노 래 방"},{"name":"어울림호프","tel":"031-335-8667","addr":"경기도 용인시 처인구 고림동 820-131번지","category":"일반휴게음식 - 주점"},{"name":"펌앤컬","tel":"031-338-2894","addr":"경기도 용인시 처인구 고림동 820-131번지 1층","category":"보건위생 - 미용원"}]},{"lat":"37.236577663","long":"127.2166273","items":[{"name":"별난닭갈비추어탕","tel":"031-336-1550","addr":"경기도 용인시 처인구 고림동 797-37번지","category":"일반휴게음식 - 일반한식"},{"name":"정상학원","tel":"031-321-1334","addr":"경기도 용인시 처인구 고림동 797-37번지 2층","category":"학원 - 보습학원"}]},{"lat":"37.252077728","long":"127.22514733","items":[{"name":"별처럼꽃처럼","tel":"031-321-2139","addr":"경기도 용인시 처인구 고림동 393-1번지 태호주차장 가동 1층","category":"문화.취미 - 화원"},{"name":"철이네분식","tel":"031-339-3251","addr":"경기도 용인시 처인구 고림동 393-1번지 외2필지","category":"일반휴게음식 - 스넥"}]},{"lat":"37.246002121","long":"127.2312833","items":[{"name":"보스코(BOSCO)","tel":"031-285-8911","addr":"경기도 용인시 처인구 고림동 264-8번지 인정피렌체빌리지1차아파트","category":"사무통신 - 통신기기"}]},{"lat":"37.266044921","long":"127.22447813","items":[{"name":"보평에이스참숯바베큐","tel":"031-339-9233","addr":"경기도 용인시 처인구 고림동 488-18번지","category":"일반휴게음식 - 주점"},{"name":"상록수속셈학원","tel":"031-338-2668","addr":"경기도 용인시 처인구 고림동 488-18번지","category":"학원 - 기타 교육기관"}]},{"lat":"37.266107","long":"127.22500818","items":[{"name":"브루852(Brew852)","tel":"","addr":"경기도 용인시 처인구 고림동 820-142번지 그랜드맨션 1층 101호","category":"일반휴게음식 - 서양음식"},{"name":"용인건축","tel":"031-333-5292","addr":"경기도 용인시 처인구 고림동 820-142번지 그랜드맨션 A동 201호","category":"건축자재 - 인테리어전문"}]},{"lat":"37.256715478","long":"127.22167781","items":[{"name":"블랙세븐데이즈","tel":"031-334-7748","addr":"경기도 용인시 처인구 고림동 548-7번지","category":"음료식품 - 기타음료식품"}]},{"lat":"37.256079524","long":"127.21962443","items":[{"name":"블루모터스","tel":"031-338-3381","addr":"경기도 용인시 처인구 고림동 959번지","category":"자동차정비 유지 - 자동차정비"}]},{"lat":"37.255719073","long":"127.21964594","items":[{"name":"사천성최고야","tel":"031-336-9252","addr":"경기도 용인시 처인구 고림동 958번지","category":"일반휴게음식 - 중국식"},{"name":"씨유용인보평역점","tel":"031-898-8875","addr":"경기도 용인시 처인구 고림동 958번지","category":"유통업 영리 - 편 의 점"}]},{"lat":"37.251824476","long":"127.23039915","items":[{"name":"산에 언덕에","tel":"02-1111-1111","addr":"경기도 용인시 처인구 고림동 186-81번지 가동 1층","category":"일반휴게음식 - 일반한식"},{"name":"산에언덕에II","tel":"031-335-7856","addr":"경기도 용인시 처인구 고림동 186-81","category":"일반휴게음식 - 일반한식"}]},{"lat":"37.263579104","long":"127.22287009","items":[{"name":"삼다제주흑돈","tel":"013-334-4775","addr":"경기도 용인시 처인구 고림동 505-7번지","category":"일반휴게음식 - 일반한식"}]},{"lat":"37.245554039","long":"127.21545796","items":[{"name":"삼성자동차학원구내식당","tel":"031-321-6017","addr":"경기도 용인시 처인구 고림동 697-9번지","category":"일반휴게음식 - 일반한식"}]},{"lat":"37.250964466","long":"127.22779285","items":[{"name":"삼일지관","tel":"031-335-4045","addr":"경기도 용인시 처인구 고림동 386-3번지","category":"유통업 영리 - 기타유통업"}]},{"lat":"37.251017358","long":"127.2330906","items":[{"name":"삼태기노래연습장","tel":"031-332-7525","addr":"경기도 용인시 처인구 고림동 212-6번지","category":"레저업소 - 노 래 방"},{"name":"아시아나카센타","tel":"031-321-4152","addr":"경기도 용인시 처인구 고림동 212-6번지","category":"자동차정비 유지 - 자동차부품"},{"name":"행복반점","tel":"031-332-8071","addr":"경기도 용인시 처인구 고림동 212-6번지 1층","category":"일반휴게음식 - 중국식"},{"name":"훌랄라치킨","tel":"031-321-9954","addr":"경기도 용인시 처인구 고림동 212-6번지","category":"일반휴게음식 - 주점"}]},{"lat":"37.266217569","long":"127.22370075","items":[{"name":"새로나크리닝","tel":"031-339-9409","addr":"경기도 용인시 처인구 고림동 820-105번지 상부상가 1층 105호","category":"수리서비스 - 세탁소"},{"name":"신아헤어샵","tel":"031-334-9904","addr":"경기도 용인시 처인구 고림동 820-105번지 1층","category":"보건위생 - 미용원"},{"name":"현대홈인테리어","tel":"","addr":"경기도 용인시 처인구 고림동 820-105번지 상부 상가","category":"건축자재 - 인테리어전문"},{"name":"혜원","tel":"031-333-3288","addr":"경기도 용인시 처인구 고림동 820-105번지","category":"일반휴게음식 - 일식·회집"}]},{"lat":"37.265438781","long":"127.22578409","items":[{"name":"샤론헤어","tel":"02-1111-1111","addr":"경기도 용인시 처인구 고림동 1000번지 2층","category":"보건위생 - 미용원"}]},{"lat":"37.244380689","long":"127.23106427","items":[{"name":"세움","tel":"0505-009-9263","addr":"경기도 용인시 처인구 고림동 997번지 예진마을인정피렌체빌리지III아파트","category":"용역 서비스 - 사무서비스"}]},{"lat":"37.265168835","long":"127.22559165","items":[{"name":"송암용인연합전단광고","tel":"","addr":"경기도 용인시 처인구 고림동 1000번지 금평마을영화아파트","category":"용역 서비스 - 기타용역서비스"}]},{"lat":"37.235555125","long":"127.21903601","items":[{"name":"수정보통신","tel":"070-7018-5392","addr":"경기도 용인시 처인구 고림동 806-1번지","category":"사무통신 - 통신기기"}]},{"lat":"37.239608032","long":"127.21501301","items":[{"name":"순희찬방&한식부페","tel":"031-335-0991","addr":"경기도 용인시 처인구 고림동 784-3번지 101호","category":"일반휴게음식 - 일반한식"}]},{"lat":"37.247823996","long":"127.21581373","items":[{"name":"신창산업","tel":"031-2692-8572","addr":"경기도 용인시 처인구 고림동 673-21번지","category":"자동차정비 유지 - 자동차부품"},{"name":"신창산업","tel":"070-8183-8795","addr":"경기도 용인시 처인구 고림동 673-21번지","category":"자동차정비 유지 - 자동차부품"},{"name":"지아이모터스","tel":"031-321-8945","addr":"경기도 용인시 처인구 고림동 673-21번지","category":"자동차정비 유지 - 자동차부품"}]},{"lat":"37.249436984","long":"127.22553407","items":[{"name":"신통치킨 신통한피자","tel":"031-321-8292","addr":"경기도 용인시 처인구 고림동 369-2번지 1층","category":"일반휴게음식 - 스넥"}]},{"lat":"37.255384061","long":"127.22053548","items":[{"name":"썬농원","tel":"031-336-7035","addr":"경기도 용인시 처인구 고림동 547-7번지","category":"문화.취미 - 화원"}]},{"lat":"37.249962493","long":"127.22398018","items":[{"name":"쏘옥 코퍼레이션(고림점)","tel":"031-322-2341","addr":"경기도 용인시 처인구 고림동 361-1번지","category":"수리서비스 - 세탁소"},{"name":"아주인테리어","tel":"031-339-7553","addr":"경기도 용인시 처인구 고림동 361-1번지","category":"직물 - 카페트,커튼,천막,지물"}]},{"lat":"37.23988731","long":"127.21503633","items":[{"name":"씨유용인고림타운점","tel":"080-080-3663","addr":"경기도 용인시 처인구 고림동 784-1번지 1층","category":"유통업 영리 - 편 의 점"},{"name":"용광마트","tel":"031-335-3940","addr":"경기도 용인시 처인구 고림동 784-1번지","category":"유통업 영리 - 슈퍼마켓"}]},{"lat":"37.236352162","long":"127.2167619","items":[{"name":"씨유용인유림점","tel":"080-080-3663","addr":"경기도 용인시 처인구 고림동 797-27번지 1층","category":"유통업 영리 - 편 의 점"}]},{"lat":"37.238913635","long":"127.21534915","items":[{"name":"아리랑옹심이메밀칼국수","tel":"031-332-1231","addr":"경기도 용인시 처인구 고림동 792-1번지","category":"일반휴게음식 - 일반한식"},{"name":"차사랑자동차용품점","tel":"031-338-4578","addr":"경기도 용인시 처인구 고림동 792-1번지","category":"자동차정비 유지 - 자동차부품"},{"name":"현대모터스","tel":"031-336-5472","addr":"경기도 용인시 처인구 고림동 792-1번지 1층 카센터전부","category":"자동차정비 유지 - 자동차정비"}]},{"lat":"37.248712795","long":"127.22251128","items":[{"name":"아이지에이편의점","tel":"031-768-0708","addr":"경기도 용인시 처인구 고림동 603-1번지","category":"유통업 영리 - 편 의 점"}]},{"lat":"37.245748942","long":"127.23174463","items":[{"name":"에띰","tel":"070-4254-0160","addr":"경기도 용인시 처인구 고림동 264-8번지 인정피렌체빌리지1차아파트","category":"의류 - 내의판매"}]},{"lat":"37.256608333","long":"127.22114771","items":[{"name":"에이스코리아","tel":"031-323-6483","addr":"경기도 용인시 처인구 고림동 547-9번지 A동 1층","category":"의류 - 정장"}]},{"lat":"37.251386689","long":"127.21878817","items":[{"name":"역시 민물장어","tel":"031-322-0592","addr":"경기도 용인시 처인구 고림동 984번지 1층","category":"일반휴게음식 - 일반한식"},{"name":"태영수산","tel":"031-322-0592","addr":"경기도 용인시 처인구 고림동 984번지","category":"음료식품 - 농·축·수산품"}]},{"lat":"37.247350371","long":"127.22830058","items":[{"name":"영동타이어","tel":"031-328-5340","addr":"경기도 용인시 처인구 고림동 995번지 예진마을인정피렌체빌리지II아파트","category":"회원제형태 - 기타3"}]},{"lat":"37.252967174","long":"127.22651383","items":[{"name":"영화청과","tel":"070-4095-0656","addr":"경기도 용인시 처인구 고림동 996번지 임원마을영화아파트","category":"회원제형태 - 기타1"}]},{"lat":"37.246941269","long":"127.23020413","items":[{"name":"예진슈퍼","tel":"031-333-4327","addr":"경기도 용인시 처인구 고림동 264-7번지 상가 102호","category":"유통업 영리 - 슈퍼마켓"},{"name":"용인대예닮태권도(고림2관)","tel":"031-321-3355","addr":"경기도 용인시 처인구 고림동 264-7번지 1층 101호","category":"학원 - 예·체능계학원"}]},{"lat":"37.258606296","long":"127.23652928","items":[{"name":"옷니엘시스템","tel":"031-286-3616","addr":"경기도 용인시 처인구 고림동 1002번지 예원마을코아루아파트","category":"사무통신 - 컴퓨터"}]},{"lat":"37.237188609","long":"127.21759819","items":[{"name":"용인가정대리점(남양우유)","tel":"031-321-6156","addr":"경기도 용인시 처인구 고림동 772-22번지","category":"음료식품 - 기타음료식품"}]},{"lat":"37.2493805","long":"127.22681882","items":[{"name":"용인늘푸른농원","tel":"031-337-2650","addr":"경기도 용인시 처인구 고림동 371-7번지","category":"문화.취미 - 화원"}]},{"lat":"37.240077614","long":"127.21442829","items":[{"name":"용인서울병원장례식장","tel":"031-323-4000","addr":"경기도 용인시 처인구 고림동 787-1번지 지하1층","category":"용역 서비스 - 가례서비스업"},{"name":"의료법인효심의료재단","tel":"031-337-0114","addr":"경기도 용인시 처인구 고림동 787-1번지","category":"병원 - 병원"}]},{"lat":"37.236773993","long":"127.2176759","items":[{"name":"용인슈퍼","tel":"031-333-5210","addr":"경기도 용인시 처인구 고림동 771-2번지","category":"유통업 영리 - 슈퍼마켓"},{"name":"윤보습학원","tel":"031-321-0181","addr":"경기도 용인시 처인구 고림동 771-2번지","category":"학원 - 보습학원"}]},{"lat":"37.259440818","long":"127.21937479","items":[{"name":"용인시처인장애인복지관","tel":"031-320-4800","addr":"경기도 용인시 처인구 고림동 820-154번지","category":"학원 - 기타 교육기관"}]},{"lat":"37.247524484","long":"127.2314795","items":[{"name":"용인음료","tel":"031-336-2506","addr":"경기도 용인시 처인구 고림동 239-6번지","category":"음료식품 - 기타음료식품"}]},{"lat":"37.248938998","long":"127.22681752","items":[{"name":"우리문구","tel":"031-336-4652","addr":"경기도 용인시 처인구 고림동 342-1번지 1층","category":"서적문구 - 문구용품"},{"name":"은혜세탁소","tel":"","addr":"경기도 용인시 처인구 고림동 342-1번지","category":"수리서비스 - 세탁소"}]},{"lat":"37.260605037","long":"127.22323345","items":[{"name":"운향샤브샤브","tel":"031-322-9888","addr":"경기도 용인시 처인구 고림동 479번지 1층","category":"일반휴게음식 - 일반한식"}]},{"lat":"37.254691389","long":"127.2199248","items":[{"name":"원주복추어탕","tel":"031-322-2020","addr":"경기도 용인시 처인구 고림동 964번지","category":"일반휴게음식 - 일반한식"},{"name":"카페리버/준플라워케이크카페","tel":"031-321-0603","addr":"경기도 용인시 처인구 고림동 964번지","category":"일반휴게음식 - 서양음식"},{"name":"프랜드패밀리(고림점)","tel":"031-335-9191","addr":"경기도 용인시 처인구 고림동 964번지","category":"유통업 영리 - 편 의 점"}]},{"lat":"37.237441713","long":"127.21714813","items":[{"name":"웰니스치킨피자","tel":"031-336-3669","addr":"경기도 용인시 처인구 고림동 796-1번지","category":"일반휴게음식 - 서양음식"}]},{"lat":"37.245995774","long":"127.22029434","items":[{"name":"유.커피 (U.COFFEE)","tel":"031-111-1111","addr":"경기도 용인시 처인구 고림동 665-1번지 2층","category":"일반휴게음식 - 서양음식"}]},{"lat":"37.239289999","long":"127.21649972","items":[{"name":"유니끄헤어샵(#)","tel":"031-336-0880","addr":"경기도 용인시 처인구 고림동 781-57번지 금강아트맨션 102동 103호","category":"보건위생 - 미용원"}]},{"lat":"37.250107939","long":"127.22329305","items":[{"name":"유림자동차정비공업사","tel":"031-333-6262","addr":"경기도 용인시 처인구 고림동 362-10외3필지","category":"자동차정비 유지 - 자동차부품"}]},{"lat":"37.257742004","long":"127.22684357","items":[{"name":"은비네갤러리","tel":"070-5056-0020","addr":"경기도 용인시 처인구 고림동 468-33번지","category":"직물 - 침구·수예점"}]},{"lat":"37.250939323","long":"127.23151236","items":[{"name":"이던","tel":"031-479-1063","addr":"경기도 용인시 처인구 고림동 224-25번지 글렌하우스 1동 101호","category":"회원제형태 - 기타4"}]},{"lat":"37.251800297","long":"127.21926275","items":[{"name":"이마트24 용인유림사거리점","tel":"","addr":"경기도 용인시 처인구 고림동 982번지","category":"유통업 영리 - 편 의 점"}]},{"lat":"37.252461236","long":"127.22723372","items":[{"name":"이삭마트","tel":"031-323-5911","addr":"경기도 용인시 처인구 고림동 411-1번지 이삭 상가","category":"유통업 영리 - 슈퍼마켓"}]},{"lat":"37.246296986","long":"127.22786915","items":[{"name":"이소비용인고림초점","tel":"","addr":"경기도 용인시 처인구 고림동 340-12번지 로또하우스 302동 102호","category":"학원 - 기타 교육기관"}]},{"lat":"37.252461748","long":"127.2269632","items":[{"name":"일번창호","tel":"031-338-2877","addr":"경기도 용인시 처인구 고림동 411-1번지 이삭아파트","category":"건축자재 - 기타건축자재"}]},{"lat":"37.246763416","long":"127.22897508","items":[{"name":"자기주도학습관","tel":"070-7581-4344","addr":"경기도 용인시 처인구 고림동 995번지 예진마을인정피렌체빌리지II아파트","category":"학원 - 보습학원"}]},{"lat":"37.239804822","long":"127.21581372","items":[{"name":"장미헤어라인","tel":"031-335-8705","addr":"경기도 용인시 처인구 고림동 781-33번지 영남빌라","category":"보건위생 - 미용원"},{"name":"하임인테리어","tel":"031-321-1115","addr":"경기도 용인시 처인구 고림동 781-33번지 영남빌라 101호","category":"직물 - 카페트,커튼,천막,지물"}]},{"lat":"37.246554017","long":"127.22051008","items":[{"name":"잼아트플랜","tel":"031-334-2581","addr":"경기도 용인시 처인구 고림동 659-1번지 1층","category":"가구 - 기타가구"},{"name":"케이원부대찌개","tel":"031-334-2581","addr":"경기도 용인시 처인구 고림동 659-1번지 1층","category":"일반휴게음식 - 일반한식"}]},{"lat":"37.255796437","long":"127.23584428","items":[{"name":"젬터","tel":"031-323-0622","addr":"경기도 용인시 처인구 고림동 112번지","category":"일반휴게음식 - 일반한식"}]},{"lat":"37.242776606","long":"127.21671242","items":[{"name":"진투어(tour)","tel":"031-000-0000","addr":"경기도 용인시 처인구 고림동 759-18번지 301호","category":"여행 - 관광여행"}]},{"lat":"37.264098902","long":"127.22437097","items":[{"name":"천일공구건재","tel":"031-338-9350","addr":"경기도 용인시 처인구 고림동 485-7번지 1층","category":"건축자재 - 목재·석재·철물"}]},{"lat":"37.239913977","long":"127.21523926","items":[{"name":"청궁","tel":"031-338-1444","addr":"경기도 용인시 처인구 고림동 783번지","category":"일반휴게음식 - 중국식"}]},{"lat":"37.239992067","long":"127.21690742","items":[{"name":"총각네 고깃간","tel":"031-333-7075","addr":"경기도 용인시 처인구 고림동 781-25번지 한국롱하이츠빌라 상가동 1층 106호","category":"음료식품 - 정육점"}]},{"lat":"37.249518585","long":"127.2252638","items":[{"name":"카매니저","tel":"031-334-9950","addr":"경기도 용인시 처인구 고림동 369-4번지","category":"자동차정비 유지 - 자동차부품"},{"name":"행복식당","tel":"031-338-0203","addr":"경기도 용인시 처인구 고림동 369-4번지","category":"일반휴게음식 - 일반한식"}]},{"lat":"37.252472291","long":"127.22615167","items":[{"name":"카앤피플 용인기흥구지점","tel":"","addr":"경기도 용인시 처인구 고림동 996번지 임원마을영화아파트","category":"자동차정비 유지 - 세차장"},{"name":"해법중국어고림교습소","tel":"070-4409-7070","addr":"경기도 용인시 처인구 고림동 996번지 임원마을영화아파트","category":"회원제형태 - 기타4"}]},{"lat":"37.244567706","long":"127.23220315","items":[{"name":"쿨바람에어컨","tel":"070-8727-6042","addr":"경기도 용인시 처인구 고림동 997번지 예진마을인정피렌체빌리지III아파트","category":"용역 서비스 - 기타용역서비스"}]},{"lat":"37.242470908","long":"127.21635092","items":[{"name":"타이어피아용인점","tel":"031-328-3655","addr":"경기도 용인시 처인구 고림동 745-4번지","category":"자동차정비 유지 - 자동차시트·타이어"}]},{"lat":"37.258415678","long":"127.23723887","items":[{"name":"탑 종합전기","tel":"","addr":"경기도 용인시 처인구 고림동 1002번지 예원마을코아루아파트","category":"용역 서비스 - 기타용역서비스"}]},{"lat":"37.242164762","long":"127.21623735","items":[{"name":"태나쥬얼리","tel":"02-6340-5359","addr":"경기도 용인시 처인구 고림동 744번지 유엔빌리지 나동 502호","category":"신변잡화 - 액세서리"}]},{"lat":"37.239688377","long":"127.21543022","items":[{"name":"테라피교정","tel":"031-335-4400","addr":"경기도 용인시 처인구 고림동 781-32번지","category":"회원제형태 - 기타4"}]},{"lat":"37.240075069","long":"127.21584829","items":[{"name":"투랑","tel":"070-8813-4601","addr":"경기도 용인시 처인구 고림동 736-2번지 1층","category":"광학제품 - 사진관"}]},{"lat":"37.239851511","long":"127.21490099","items":[{"name":"파리바게트(고림점)","tel":"031-334-9339","addr":"경기도 용인시 처인구 고림동 784-7번지","category":"음료식품 - 제과점"}]},{"lat":"37.249355192","long":"127.22590578","items":[{"name":"페이지 (page)","tel":"031-000-0000","addr":"경기도 용인시 처인구 고림동 370-2번지 1층","category":"의류 - 정장"},{"name":"해피슈즈","tel":"031-336-6844","addr":"경기도 용인시 처인구 고림동 370-2번지","category":"신변잡화 - 신발"}]},{"lat":"37.251552454","long":"127.23128878","items":[{"name":"하나크린","tel":"031-338-1192","addr":"경기도 용인시 처인구 고림동 194-3번지 1층","category":"용역 서비스 - 종합용역"}]},{"lat":"37.250828926","long":"127.22320498","items":[{"name":"한국공예사","tel":"031-334-6421","addr":"경기도 용인시 처인구 고림동 592-11","category":"신변잡화 - 기타잡화"},{"name":"화평농원","tel":"031-337-2425","addr":"경기도 용인시 처인구 고림동 592-11","category":"문화.취미 - 화원"}]},{"lat":"37.250131977","long":"127.22965015","items":[{"name":"한길유통","tel":"031-338-8252","addr":"경기도 용인시 처인구 고림동 226-1번지","category":"음료식품 - 기타음료식품"}]},{"lat":"37.235860094","long":"127.21979192","items":[{"name":"해태음료용인","tel":"031-322-3344","addr":"경기도 용인시 처인구 고림동 808번지","category":"음료식품 - 기타음료식품"}]},{"lat":"37.244109306","long":"127.22209219","items":[{"name":"허밍그로우브","tel":"070-4103-1212","addr":"경기도 용인시 처인구 고림동 661-1","category":"회원제형태 - 기타4"}]},{"lat":"37.265437009","long":"127.2169794","items":[{"name":"헤어까페","tel":"031-333-3330","addr":"경기도 용인시 처인구 고림동 820-68","category":"보건위생 - 미용원"}]},{"lat":"37.247885464","long":"127.21670432","items":[{"name":"현대냉동주방설비","tel":"031-334-9424","addr":"경기도 용인시 처인구 고림동 672-1번지","category":"수리서비스 - 가정용품수리"}]},{"lat":"37.254961738","long":"127.21990303","items":[{"name":"홍익돈까스처인점","tel":"031-332-1223","addr":"경기도 용인시 처인구 고림동 962번지 가동 1층","category":"일반휴게음식 - 일반한식"}]},{"lat":"37.239219296","long":"127.21573318","items":[{"name":"효자순대","tel":"031-333-0002","addr":"경기도 용인시 처인구 고림동 794-61번지 1층","category":"일반휴게음식 - 일반한식"}]},{"lat":"37.236631481","long":"127.21676268","items":[{"name":"희망세탁소","tel":"031-336-4911","addr":"경기도 용인시 처인구 고림동 797-5번지","category":"수리서비스 - 세탁소"}]}]