[{"lat":"37.299356973","long":"127.63086494","imageIndex":7,"items":[{"name":"대림마트","tel":"031-883-8288","addr":"경기도 여주시 하동 124-12번지","indutype":"유통업 영리 - 슈퍼마켓","category":"mart"}]},{"lat":"37.300215614","long":"127.63205634","imageIndex":7,"items":[{"name":"대성상회","tel":"031-885-4091","addr":"경기도 여주시 하동 180-1번지","indutype":"유통업 영리 - 슈퍼마켓","category":"mart"}]},{"lat":"37.298407803","long":"127.62975177","imageIndex":7,"items":[{"name":"신용슈퍼","tel":"031-884-0811","addr":"경기도 여주시 하동 135번지","indutype":"유통업 영리 - 슈퍼마켓","category":"mart"}]},{"lat":"37.297635178","long":"127.63441456","imageIndex":7,"items":[{"name":"아울렛생활용품D.C마트","tel":"031-886-4945","addr":"경기도 여주시 하동 232번지","indutype":"유통업 영리 - 슈퍼마켓","category":"mart"}]},{"lat":"37.297991598","long":"127.63177841","imageIndex":7,"items":[{"name":"하리신발슈퍼열쇠","tel":"031-885-2809","addr":"경기도 여주시 하동 183-6번지","indutype":"유통업 영리 - 슈퍼마켓","category":"mart"}]}]