[{"lat":"37.622219038","long":"126.81779414","imageIndex":5,"items":[{"name":"꿈의궁전","tel":"031-978-7937","addr":"경기도 고양시 덕양구 토당로","indutype":"숙박업 - 여관/기타숙박업","category":"hotel"}]},{"lat":"37.6271027","long":"126.81804258","imageIndex":0,"items":[{"name":"달구지카센타","tel":"031-979-0720","addr":"경기도 고양시 덕양구 토당로","indutype":"자동차정비 유지 - 자동차정비","category":"car"}]},{"lat":"37.617362408","long":"126.82337884","imageIndex":0,"items":[{"name":"동성카센타","tel":"031-974-7600","addr":"경기도 고양시 덕양구 토당로","indutype":"자동차정비 유지 - 자동차정비","category":"car"}]},{"lat":"37.628578152","long":"126.82247959","imageIndex":0,"items":[{"name":"에이스상사","tel":"031-971-0174","addr":"경기도 고양시 덕양구 토당로","indutype":"자동차정비 유지 - 자동차부품","category":"car"}]},{"lat":"37.626172243","long":"126.81648163","imageIndex":17,"items":[{"name":"모리스팜","tel":"070-4252-0906","addr":"경기도 고양시 덕양구 토당로","indutype":"회원제형태 - 기타4","category":"other"}]},{"lat":"37.628604713","long":"126.82217367","imageIndex":17,"items":[{"name":"에어컨박사","tel":"031-978-3323","addr":"경기도 고양시 덕양구 토당로","indutype":"용역 서비스 - 기타용역서비스","category":"other"}]},{"lat":"37.620663593","long":"126.81987085","imageIndex":17,"items":[{"name":"우진","tel":"031-973-0079","addr":"경기도 고양시 덕양구 토당로","indutype":"의류 - 정장","category":"other"}]},{"lat":"37.628578152","long":"126.82247959","imageIndex":17,"items":[{"name":"중고박사","tel":"031-978-3323","addr":"경기도 고양시 덕양구 토당로","indutype":"전기제품 - 가전제품","category":"other"}]},{"lat":"37.621167186","long":"126.81925795","imageIndex":13,"items":[{"name":"별헤어","tel":"031-971-2558","addr":"경기도 고양시 덕양구 토당로","indutype":"보건위생 - 미용원","category":"beauty"}]},{"lat":"37.626714804","long":"126.81773768","imageIndex":13,"items":[{"name":"에스더헤어","tel":"070-8248-0756","addr":"경기도 고양시 덕양구 토당로","indutype":"보건위생 - 미용원","category":"beauty"}]},{"lat":"37.62155418","long":"126.81898514","imageIndex":4,"items":[{"name":"수선화","tel":"031-971-1223","addr":"경기도 고양시 덕양구 토당로","indutype":"일반휴게음식 - 일반한식","category":"restaurant"}]},{"lat":"37.623138932","long":"126.81836956","imageIndex":4,"items":[{"name":"우바로스터스","tel":"031-971-8000","addr":"경기도 고양시 덕양구 토당로","indutype":"일반휴게음식 - 서양음식","category":"restaurant"}]},{"lat":"37.622022808","long":"126.81906328","imageIndex":4,"items":[{"name":"포그니","tel":"031-972-8742","addr":"경기도 고양시 덕양구 토당로","indutype":"일반휴게음식 - 주점","category":"restaurant"}]},{"lat":"37.620493496","long":"126.82057354","imageIndex":8,"items":[{"name":"신통방통한의원","tel":"031-971-7534","addr":"경기도 고양시 덕양구 토당로","indutype":"의원 - 한의원","category":"medical"}]},{"lat":"37.617858183","long":"126.82353622","imageIndex":8,"items":[{"name":"지엘메디칼","tel":"031-979-4315","addr":"경기도 고양시 덕양구 토당로","indutype":"약국 - 제약회사","category":"medical"}]}]