[{"lat":"38.017263956","long":"127.36889704","items":[{"name":"경동카인테리어","tel":"031-32-1537","addr":"경기도 포천시 이동면 연곡리 877-10번지","category":"자동차정비 유지 - 카인테리어"}]},{"lat":"38.009628817","long":"127.36742437","items":[{"name":"농업회사법인포앤비주식회사","tel":"031-533-4522","addr":"경기도 포천시 이동면 연곡리 800-4번지 1층","category":"건강식품 - 기타건강식품"}]},{"lat":"38.011602168","long":"127.36730889","items":[{"name":"뉴피앙세","tel":"031-532-6887","addr":"경기도 포천시 이동면 연곡리 808-2","category":"숙박업 - 여관/기타숙박업"}]},{"lat":"38.016679331","long":"127.36858667","items":[{"name":"레스포자전거","tel":"031-532-8713","addr":"경기도 포천시 이동면 연곡리 878-12번지","category":"레져용품 - 스포츠·레져용품"}]},{"lat":"38.017984283","long":"127.36902589","items":[{"name":"별님이꿈꾸는마을어린이집[아이행복]","tel":"031-533-1006","addr":"경기도 포천시 이동면 연곡리 872-14번지","category":"학원 - 유아원"}]},{"lat":"38.016818114","long":"127.3703069","items":[{"name":"상록수한정식","tel":"535-9185","addr":"경기도 포천시 이동면 연곡리 860-7번지","category":"음식 - 한식"},{"name":"상록수한정식","tel":"031-595-9185","addr":"경기도 포천시 이동면 연곡리 860-7","category":"일반휴게음식 - 일반한식"}]},{"lat":"38.017570013","long":"127.36897828","items":[{"name":"씨유포천연곡점","tel":"031-533-1937","addr":"경기도 포천시 이동면 연곡리 872-10번지","category":"유통업 영리 - 편 의 점"}]},{"lat":"38.000597103","long":"127.36306468","items":[{"name":"옛날식당","tel":"532-4647","addr":"경기도 포천시 이동면 연곡리 1121번지","category":"음식 - 한식"},{"name":"옛날식당","tel":"031-532-4647","addr":"경기도 포천시 이동면 연곡리 1121번지","category":"일반휴게음식 - 일반한식"}]},{"lat":"38.01673296","long":"127.36872359","items":[{"name":"옛날짜장","tel":"031-533-4981","addr":"경기도 포천시 이동면 연곡리 878-10번지","category":"일반휴게음식 - 중국식"},{"name":"옛날짜장","tel":"533-4981","addr":"경기도 포천시 이동면 연곡리 878-10번지","category":"음식 - 중식"}]},{"lat":"38.013851758","long":"127.36817407","items":[{"name":"이뿐네","tel":"031-534-4441","addr":"경기도 포천시 이동면 연곡리 827-2","category":"의류 - 정장"}]},{"lat":"38.01378897","long":"127.37097501","items":[{"name":"인철관광농원","tel":"031-534-2379","addr":"경기도 포천시 이동면 연곡리 476-1번지","category":"음료식품 - 기타음료식품"}]},{"lat":"38.002515101","long":"127.36042124","items":[{"name":"일동햇빛사과농장","tel":"","addr":"경기도 포천시 이동면 연곡리 1090번지","category":"음료식품 - 농·축·수산품"}]},{"lat":"38.019350518","long":"127.37003484","items":[{"name":"전주가마솥곰탕","tel":"532-5392","addr":"경기도 포천시 이동면 연곡리 865-2번지","category":"음식 - 한식"},{"name":"전주가마솥곰탕","tel":"031-532-5392","addr":"경기도 포천시 이동면 연곡리 865-2번지","category":"일반휴게음식 - 일반한식"}]},{"lat":"38.023544991","long":"127.3881069","items":[{"name":"제7862부대","tel":"","addr":"경기도 포천시 이동면 연곡리 20번지","category":"일반휴게음식 - 서양음식"},{"name":"제7862부대 일동회관","tel":"","addr":"경기도 포천시 이동면 연곡리 20번지","category":"일반휴게음식 - 서양음식"}]},{"lat":"38.003294729","long":"127.36472878","items":[{"name":"제비울정미소쌀도소매","tel":"031-534-4819","addr":"경기도 포천시 이동면 연곡리 1067번지","category":"음료식품 - 미곡상"}]},{"lat":"38.015516645","long":"127.3687517","items":[{"name":"짬뽕명가경복궁","tel":"","addr":"경기도 포천시 이동면 연곡리 847-19번지","category":"음식 - 중식"},{"name":"화궁","tel":"031-533-1661","addr":"경기도 포천시 이동면 연곡리 847-19번지 1층","category":"일반휴게음식 - 중국식"}]},{"lat":"38.014574057","long":"127.36181212","items":[{"name":"차 완벽복원","tel":"","addr":"경기도 포천시 이동면 연곡리 960번지","category":"자동차정비 유지 - 자동차정비"}]},{"lat":"38.014843274","long":"127.36800818","items":[{"name":"참이맛","tel":"031-532-4678","addr":"경기도 포천시 이동면 연곡리 829-1번지 가동 1층","category":"일반휴게음식 - 일반한식"},{"name":"참이맛 감자탕","tel":"532-4678","addr":"경기도 포천시 이동면 연곡리 829-1번지","category":"음식 - 한식"}]},{"lat":"38.020017607","long":"127.36408215","items":[{"name":"파인트리","tel":"070-7728-2270","addr":"경기도 포천시 이동면 연곡리 932-2","category":"숙박업 - 여관/기타숙박업"}]},{"lat":"38.016349288","long":"127.36752598","items":[{"name":"평화상회","tel":"031-532-4805","addr":"경기도 포천시 이동면 연곡리 845-1번지","category":"음료식품 - 기타음료식품"}]},{"lat":"37.994624772","long":"127.37441973","items":[{"name":"푸른산마루","tel":"031-531-8885","addr":"경기도 포천시 이동면 연곡리 602-1번지","category":"숙박업 - 여관/기타숙박업"}]},{"lat":"38.004573871","long":"127.37058737","items":[{"name":"현대농산","tel":"031-534-1235","addr":"경기도 포천시 이동면 연곡리 725-5번지","category":"음료식품 - 기타음료식품"}]}]