[{"lat":"37.931808678","long":"127.06033511","items":[{"name":"11시아뜰리에(11PM_Atelier)","tel":"","addr":"경기도 동두천시 동두천동 132-3번지 신창빌라 2동 101호","category":"직물 - 침구·수예점"}]},{"lat":"37.932377098","long":"127.05859522","items":[{"name":"BJ(비제이)","tel":"031-768-0708","addr":"경기도 동두천시 동두천동 135-8번지","category":"유통업 영리 - 편 의 점"},{"name":"카페패널 (cafepanel)","tel":"031-858-9290","addr":"경기도 동두천시 동두천동 135-8번지","category":"일반휴게음식 - 서양음식"}]},{"lat":"37.931098677","long":"127.05667196","items":[{"name":"GS25동두천사랑점","tel":"02-2006-2485","addr":"경기도 동두천시 동두천동 276-7번지","category":"유통업 영리 - 편 의 점"},{"name":"컨츄리꼬꼬","tel":"031-863-5803","addr":"경기도 동두천시 동두천동 276-7번지","category":"일반휴게음식 - 스넥"},{"name":"컨츄리꼬꼬","tel":"031-863-5803","addr":"경기도 동두천시 동두천동 276-7번지","category":"일반휴게음식 - 스넥"}]},{"lat":"37.926397202","long":"127.05359762","items":[{"name":"Good luck (굿럭)","tel":"031-862-3869","addr":"경기도 동두천시 동두천동 524번지 신창비바패밀리1단지 106동 1503호","category":"음료식품 - 농·축·수산품"}]},{"lat":"37.924459847","long":"127.05442655","items":[{"name":"MK(엠케이)꿈","tel":"031-868-3030","addr":"경기도 동두천시 동두천동 206-5번지","category":"보건위생 - 화장품"}]},{"lat":"37.926820915","long":"127.0529496","items":[{"name":"STUDIO92(스튜디오92)","tel":"","addr":"경기도 동두천시 동두천동 524번지 동두천 신창비바패밀리-1단지 상가 112동 106호","category":"의류 - 정장"},{"name":"민헤어","tel":"031-864-7946","addr":"경기도 동두천시 동두천동 524번지 동두천신창비바패밀리1단지 112동 101호","category":"보건위생 - 미용원"},{"name":"신창해피어린이집[아이행복]","tel":"031-865-3936","addr":"경기도 동두천시 동두천동 524번지 동두천신창비바패밀리-1단지 관리-1","category":"학원 - 유아원"},{"name":"이마트24동두천신창비바점","tel":"031-111-1111","addr":"경기도 동두천시 동두천동 524번지 동두천 신창비바패밀리-1단지 112동 1층 102호","category":"유통업 영리 - 편 의 점"}]},{"lat":"37.932737576","long":"127.058368","items":[{"name":"경기북부에어컨","tel":"031-111-1111","addr":"경기도 동두천시 동두천동 136-4번지 삼성그린빌라 가동 202호","category":"용역 서비스 - 기타용역서비스"}]},{"lat":"37.925993017","long":"127.05065154","items":[{"name":"공단자동차공업사","tel":"031-868-3216","addr":"경기도 동두천시 동두천동 521번지","category":"자동차정비 유지 - 자동차정비"},{"name":"림스치킨동두천점","tel":"","addr":"경기도 동두천시 동두천동 521번지 7호,8호","category":"일반휴게음식 - 스넥"},{"name":"크린토피아 신창점","tel":"","addr":"경기도 동두천시 동두천동 521번지 외1필지","category":"수리서비스 - 세탁소"}]},{"lat":"37.935487373","long":"127.05401337","items":[{"name":"금호상회","tel":"031-865-4043","addr":"경기도 동두천시 동두천동 289-14번지","category":"음료식품 - 기타음료식품"}]},{"lat":"37.927145317","long":"127.05279058","items":[{"name":"기연산업 주식회사","tel":"031-859-5715","addr":"경기도 동두천시 동두천동 524번지 신창비바패밀리 103동 501호","category":"기타 - 기계공구"}]},{"lat":"37.930684183","long":"127.05681953","items":[{"name":"김종희미용실","tel":"031-858-8816","addr":"경기도 동두천시 동두천동 271-1번지","category":"보건위생 - 미용원"}]},{"lat":"37.927072887","long":"127.05362083","items":[{"name":"늘솜세탁소","tel":"031-864-8285","addr":"경기도 동두천시 동두천동 220-3번지","category":"수리서비스 - 세탁소"},{"name":"신창반점","tel":"031-859-2532","addr":"경기도 동두천시 동두천동 220-3번지","category":"일반휴게음식 - 중국식"},{"name":"이공숯불구이","tel":"031-858-9603","addr":"경기도 동두천시 동두천동 220-3번지","category":"일반휴게음식 - 일반한식"}]},{"lat":"37.931882456","long":"127.05672941","items":[{"name":"다래향","tel":"031-862-3300","addr":"경기도 동두천시 동두천동 278번지 101호,102호","category":"일반휴게음식 - 중국식"},{"name":"카페더사나레","tel":"031-864-9955","addr":"경기도 동두천시 동두천동 278번지 3층","category":"일반휴게음식 - 서양음식"}]},{"lat":"37.934883404","long":"127.0548092","items":[{"name":"닥엔돈스","tel":"031-862-9277","addr":"경기도 동두천시 동두천동 289-53번지","category":"일반휴게음식 - 중국식"}]},{"lat":"37.937599405","long":"127.06473056","items":[{"name":"달공작업실","tel":"","addr":"경기도 동두천시 동두천동 33-12번지 1층","category":"음료식품 - 제과점"}]},{"lat":"37.932188911","long":"127.05642251","items":[{"name":"대륜이앤에스동두천고객센터","tel":"031-865-0846","addr":"경기도 동두천시 동두천동 282-1번지","category":"용역 서비스 - 기타용역서비스"},{"name":"은아슈퍼","tel":"031-864-6242","addr":"경기도 동두천시 동두천동 282-1번지","category":"유통업 영리 - 슈퍼마켓"},{"name":"은아식당","tel":"031-864-6242","addr":"경기도 동두천시 동두천동 282-1번지","category":"일반휴게음식 - 일반한식"}]},{"lat":"37.935826048","long":"127.06187389","items":[{"name":"대웅자동차공업사","tel":"031-866-1993","addr":"경기도 동두천시 동두천동 78-5번지","category":"자동차정비 유지 - 자동차정비"}]},{"lat":"37.937903008","long":"127.05128491","items":[{"name":"덕산푸드","tel":"031-857-9952","addr":"경기도 동두천시 동두천동 554번지","category":"음료식품 - 정육점"},{"name":"바른푸드","tel":"031-868-2714","addr":"경기도 동두천시 동두천동 554번지","category":"음료식품 - 정육점"}]},{"lat":"37.927018724","long":"127.05387102","items":[{"name":"동네치킨","tel":"031-858-9234","addr":"경기도 동두천시 동두천동 220-23번지","category":"일반휴게음식 - 스넥"}]},{"lat":"37.935181098","long":"127.05392215","items":[{"name":"동원연탄","tel":"031-862-3143","addr":"경기도 동두천시 동두천동 289-81번지","category":"연료판매점 - 기타연료"}]},{"lat":"37.938018292","long":"127.0555622","items":[{"name":"동천골","tel":"031-862-2896","addr":"경기도 동두천시 동두천동 367-2번지","category":"일반휴게음식 - 일반한식"},{"name":"오가네소머리국밥","tel":"031-868-5594","addr":"경기도 동두천시 동두천동 367-2번지 1층","category":"일반휴게음식 - 일반한식"}]},{"lat":"37.924721672","long":"127.05314152","items":[{"name":"드림N","tel":"070-5271-2490","addr":"경기도 동두천시 동두천동 208-17번지 제일빌라 17동 302호","category":"용역 서비스 - 기타용역서비스"}]},{"lat":"37.924297586","long":"127.05464253","items":[{"name":"루크24","tel":"","addr":"경기도 동두천시 동두천동 206-15번지","category":"일반휴게음식 - 서양음식"}]},{"lat":"37.92688356","long":"127.05392779","items":[{"name":"미소정육식당","tel":"031-865-6689","addr":"경기도 동두천시 동두천동 220-9번지 2호","category":"일반휴게음식 - 일반한식"},{"name":"신창고기마을","tel":"031-865-6689","addr":"경기도 동두천시 동두천동 220-9번지 3호","category":"음료식품 - 정육점"}]},{"lat":"37.936021062","long":"127.06792569","items":[{"name":"사단법인 명덕문화원","tel":"031-832-4730","addr":"경기도 동두천시 동두천동 35-30번지","category":"학원 - 기타 교육기관"}]},{"lat":"37.93215331","long":"127.05545564","items":[{"name":"삼립유통(동두천)","tel":"00-1644-2154","addr":"경기도 동두천시 동두천동 289-260번지 2784","category":"유통업 영리 - 편 의 점"},{"name":"씨유동두천동양대점","tel":"080-080-3663","addr":"경기도 동두천시 동두천동 289-260번지","category":"유통업 영리 - 편 의 점"}]},{"lat":"37.926974791","long":"127.05123225","items":[{"name":"삼형기획","tel":"031-832-8888","addr":"경기도 동두천시 동두천동 524-2번지 신창비바패밀리3단지 302동 502호","category":"전기제품 - 기타전기제품"}]},{"lat":"37.926217644","long":"127.0521189","items":[{"name":"샤론의꽃미용아카데미","tel":"031-821-4438","addr":"경기도 동두천시 동두천동 224-14번지","category":"보건위생 - 미용원"},{"name":"아궁이","tel":"031-857-1012","addr":"경기도 동두천시 동두천동 224-14번지","category":"일반휴게음식 - 일반한식"},{"name":"작은공간동두천점","tel":"031-865-7005","addr":"경기도 동두천시 동두천동 224-14번지","category":"일반휴게음식 - 일반한식"},{"name":"치킨생각","tel":"031-858-5777","addr":"경기도 동두천시 동두천동 224-14번지","category":"일반휴게음식 - 스넥"}]},{"lat":"37.934991405","long":"127.05505953","items":[{"name":"서울슈퍼","tel":"031-862-6027","addr":"경기도 동두천시 동두천동 349-26","category":"유통업 영리 - 슈퍼마켓"}]},{"lat":"37.927631369","long":"127.05383732","items":[{"name":"세븐일레븐동두천원터공원점","tel":"","addr":"경기도 동두천시 동두천동 229-2번지 1층","category":"유통업 영리 - 편 의 점"},{"name":"씨스페이스동두천역점","tel":"031-861-7949","addr":"경기도 동두천시 동두천동 229-2번지 1층","category":"유통업 영리 - 편 의 점"}]},{"lat":"37.923937981","long":"127.05286803","items":[{"name":"송내자동차공업사","tel":"031-865-8102","addr":"경기도 동두천시 동두천동 211-6번지","category":"자동차정비 유지 - 자동차정비"}]},{"lat":"37.924162809","long":"127.05381218","items":[{"name":"수원상회","tel":"031-865-3530","addr":"경기도 동두천시 동두천동 211-9번지","category":"유통업 영리 - 슈퍼마켓"}]},{"lat":"37.9246574","long":"127.05589387","items":[{"name":"수피자","tel":"","addr":"경기도 동두천시 동두천동 245-80번지 1층","category":"일반휴게음식 - 서양음식"}]},{"lat":"37.936793069","long":"127.0554817","items":[{"name":"시크릿놀터","tel":"070-4176-9931","addr":"경기도 동두천시 동두천동 362-2번지","category":"음료식품 - 기타음료식품"}]},{"lat":"37.929876214","long":"127.05015359","items":[{"name":"신흥신망애복지원","tel":"031-861-5500","addr":"경기도 동두천시 동두천동 539-2번지","category":"기타의료기관 - 기타의료기관 및 기타"},{"name":"신흥전문요양원","tel":"031-867-4051","addr":"경기도 동두천시 동두천동 539-2번지","category":"기타의료기관 - 기타의료기관 및 기타"}]},{"lat":"37.924298163","long":"127.05331184","items":[{"name":"신흥태양체육관","tel":"031-868-6291","addr":"경기도 동두천시 동두천동 209-12","category":"학원 - 기타 교육기관"}]},{"lat":"37.927460193","long":"127.0538372","items":[{"name":"쏘리소(SORRISO)","tel":"070-8819-4721","addr":"경기도 동두천시 동두천동 229-4번지","category":"일반휴게음식 - 서양음식"},{"name":"컷맨(미용실)","tel":"031-859-2109","addr":"경기도 동두천시 동두천동 229-4번지","category":"보건위생 - 미용원"}]},{"lat":"37.932431405","long":"127.05806065","items":[{"name":"씨유동두천대봉점","tel":"031-864-3660","addr":"경기도 동두천시 동두천동 136-12번지 대봉빌라 1층 101호","category":"유통업 영리 - 편 의 점"}]},{"lat":"37.927244005","long":"127.05375743","items":[{"name":"씨유동두천역점","tel":"031-864-1302","addr":"경기도 동두천시 동두천동 228번지 1층","category":"유통업 영리 - 편 의 점"}]},{"lat":"37.935991245","long":"127.05548112","items":[{"name":"씨유동양대기숙사점","tel":"080-080-3663","addr":"경기도 동두천시 동두천동 359-3번지","category":"유통업 영리 - 편 의 점"}]},{"lat":"37.926766439","long":"127.05392771","items":[{"name":"아름다운미용실","tel":"031-865-0556","addr":"경기도 동두천시 동두천동 220-11번지","category":"보건위생 - 미용원"}]},{"lat":"37.932764458","long":"127.05867514","items":[{"name":"아빠의씽크대","tel":"031-857-4426","addr":"경기도 동두천시 동두천동 109번지 리젠시빌하우스 201호","category":"주방용구 - 주방용구"}]},{"lat":"37.930380793","long":"127.05000604","items":[{"name":"안흥어린이집[아이행복]","tel":"031-862-6423","addr":"경기도 동두천시 동두천동 539-1번지","category":"학원 - 유아원"},{"name":"안흥어린이집[아이행복]","tel":"031-862-6423","addr":"경기도 동두천시 동두천동 539-1번지 안흥어린이집","category":"학원 - 유아원"}]},{"lat":"37.932827366","long":"127.05900505","items":[{"name":"애드온포스트 (ADonPOST)","tel":"070-8956-9621","addr":"경기도 동두천시 동두천동 111-2번지 이레하임 302호","category":"용역 서비스 - 종합용역"}]},{"lat":"37.925686679","long":"127.05070821","items":[{"name":"어트렉션","tel":"","addr":"경기도 동두천시 동두천동 523-2번지","category":"일반휴게음식 - 주점"}]},{"lat":"37.924100158","long":"127.05284539","items":[{"name":"예일피아노","tel":"031-867-2081","addr":"경기도 동두천시 동두천동 210-12","category":"학원 - 예·체능계학원"}]},{"lat":"37.924882431","long":"127.0563376","items":[{"name":"옛날순대국","tel":"031-867-1185","addr":"경기도 동두천시 동두천동 202-2번지","category":"일반휴게음식 - 일반한식"}]},{"lat":"37.924963499","long":"127.05637178","items":[{"name":"오복갈비","tel":"031-865-5030","addr":"경기도 동두천시 동두천동 202-1번지","category":"일반휴게음식 - 스넥"}]},{"lat":"37.933323306","long":"127.05809544","items":[{"name":"우리마켓","tel":"031-862-4673","addr":"경기도 동두천시 동두천동 285-29번지","category":"유통업 영리 - 슈퍼마켓"}]},{"lat":"37.93668517","long":"127.05500385","items":[{"name":"유정부분정비센타","tel":"031-861-3443","addr":"경기도 동두천시 동두천동 348-67번지","category":"자동차정비 유지 - 자동차정비"}]},{"lat":"37.930458915","long":"127.05689899","items":[{"name":"유정식당","tel":"031-863-4491","addr":"경기도 동두천시 동두천동 265-1번지","category":"일반휴게음식 - 일반한식"}]},{"lat":"37.932907461","long":"127.0610412","items":[{"name":"이담","tel":"031-866-0511","addr":"경기도 동두천시 동두천동 115-1번지 1층","category":"일반휴게음식 - 일반한식"}]},{"lat":"37.928990404","long":"127.05689791","items":[{"name":"이코노타이어,제일세차장","tel":"031-864-2475","addr":"경기도 동두천시 동두천동 260-1번지","category":"자동차정비 유지 - 세차장"},{"name":"친환경자동차공업사","tel":"031-867-4266","addr":"경기도 동두천시 동두천동 260-1번지","category":"자동차정비 유지 - 자동차정비"}]},{"lat":"37.924406035","long":"127.05386921","items":[{"name":"재미난시골밥상","tel":"031-867-5340","addr":"경기도 동두천시 동두천동 209-15번지","category":"일반휴게음식 - 일반한식"}]},{"lat":"37.924738267","long":"127.05637162","items":[{"name":"재현철물건재","tel":"031-862-2590","addr":"경기도 동두천시 동두천동 203-8번지","category":"건축자재 - 기타건축자재"}]},{"lat":"37.933380417","long":"127.05114544","items":[{"name":"주식회사 일구","tel":"031-868-6950","addr":"경기도 동두천시 동두천동 537-1번지 3층 거성피엔씨","category":"직물 - 옷감·직물"}]},{"lat":"37.932903286","long":"127.0502579","items":[{"name":"주식회사 황하","tel":"031-847-2000","addr":"경기도 동두천시 동두천동 536-2번지","category":"음료식품 - 정육점"}]},{"lat":"37.938461342","long":"127.05186543","items":[{"name":"중앙LPG충전소","tel":"031-864-8070","addr":"경기도 동두천시 동두천동 420-2번지","category":"연료판매점 - SK가스충전소"}]},{"lat":"37.934910467","long":"127.0547296","items":[{"name":"지니 코리아생수","tel":"031-858-3573","addr":"경기도 동두천시 동두천동 289-52번지","category":"유통업 영리 - 기타유통업"}]},{"lat":"37.931689635","long":"127.06414551","items":[{"name":"지중해어린이집[아이행복]","tel":"031-861-9441","addr":"경기도 동두천시 동두천동 9-27번지","category":"학원 - 유아원"}]},{"lat":"37.934766538","long":"127.05422899","items":[{"name":"창말어린이집[아이행복]","tel":"031-862-8733","addr":"경기도 동두천시 동두천동 289-24번지","category":"학원 - 유아원"}]},{"lat":"37.924351601","long":"127.05473356","items":[{"name":"최씨네감자탕","tel":"031-867-7766","addr":"경기도 동두천시 동두천동 206-16번지","category":"일반휴게음식 - 일반한식"}]},{"lat":"37.93540627","long":"127.05405881","items":[{"name":"케리어에어컨 설비","tel":"031-848-9018","addr":"경기도 동두천시 동두천동 289-65번지 201호","category":"수리서비스 - 가정용품수리"}]},{"lat":"37.936099639","long":"127.05484419","items":[{"name":"크로바","tel":"031-832-3278","addr":"경기도 동두천시 동두천동 348-31번지","category":"음료식품 - 농·축·수산품"}]},{"lat":"37.925280746","long":"127.05195905","items":[{"name":"크린봉봉","tel":"","addr":"경기도 동두천시 동두천동 215-4번지 삼원빌라 102동 302호","category":"용역 서비스 - 종합용역"}]},{"lat":"37.923685828","long":"127.05261764","items":[{"name":"태성손세차","tel":"","addr":"경기도 동두천시 동두천동 212-8번지","category":"자동차정비 유지 - 세차장"}]},{"lat":"37.941549184","long":"127.05718013","items":[{"name":"태양냉동특장","tel":"031-866-5132","addr":"경기도 동두천시 동두천동 436번지","category":"전기제품 - 냉열기기"}]},{"lat":"37.934709025","long":"127.06162275","items":[{"name":"토리아","tel":"","addr":"경기도 동두천시 동두천동 121-37번지","category":"용역 서비스 - 소프트웨어"}]},{"lat":"37.924324658","long":"127.05454019","items":[{"name":"파스텔미용실","tel":"031-868-6131","addr":"경기도 동두천시 동두천동 206-13 2/5","category":"보건위생 - 미용원"}]},{"lat":"37.930828373","long":"127.05672864","items":[{"name":"프레젠트","tel":"070-8816-6209","addr":"경기도 동두천시 동두천동 274-2번지 1층","category":"일반휴게음식 - 일반한식"}]},{"lat":"37.931126004","long":"127.05601226","items":[{"name":"하나실업","tel":"031-865-4564","addr":"경기도 동두천시 동두천동 299-2번지","category":"직물 - 침구·수예점"}]},{"lat":"37.936299278","long":"127.06983699","items":[{"name":"하얀집","tel":"031-868-4216","addr":"경기도 동두천시 동두천동 35-25번지","category":"일반휴게음식 - 일반한식"}]},{"lat":"37.924154083","long":"127.05315251","items":[{"name":"하은이네","tel":"031-862-6347","addr":"경기도 동두천시 동두천동 210-6번지","category":"음료식품 - 농·축·수산품"}]},{"lat":"37.941513794","long":"127.05575809","items":[{"name":"하이브","tel":"031-859-8301","addr":"경기도 동두천시 동두천동 426-13번지","category":"숙박업 - 여관/기타숙박업"}]},{"lat":"37.940963106","long":"127.05820354","items":[{"name":"한승산업","tel":"031-867-2925","addr":"경기도 동두천시 동두천동 47-3","category":"주방용구 - 주방용구"}]},{"lat":"37.936181995","long":"127.05187529","items":[{"name":"한일기계","tel":"031-866-0138","addr":"경기도 동두천시 동두천동 551-2번지","category":"기타 - 기계공구"}]},{"lat":"37.924162591","long":"127.05431261","items":[{"name":"행복한분식","tel":"031-859-5957","addr":"경기도 동두천시 동두천동 211-1번지 유진빌라 102호","category":"일반휴게음식 - 스넥"}]},{"lat":"37.935658465","long":"127.05420686","items":[{"name":"홍어와 빈대떡","tel":"033-123-1234","addr":"경기도 동두천시 동두천동 289-59번지","category":"일반휴게음식 - 일반한식"}]}]