[{"lat":"37.822141811","long":"126.98724226","items":[{"name":"(자)한국청년회의소산하양주청년회의소","tel":"031-836-8296","addr":"경기도 양주시 광적면 가납리 722-3번지 4층","category":"기타 - 비영리/대상"},{"name":"온타이","tel":"031-877-7727","addr":"경기도 양주시 광적면 가납리 722-3번지 2층","category":"보건위생 - 미용재료"}]},{"lat":"37.816835365","long":"126.98812923","items":[{"name":"(주)다은디에이치","tel":"031-848-1029","addr":"경기도 양주시 광적면 가납리 428번지 양주테크노시티 316호","category":"건축자재 - 부동산 분양"},{"name":"(주)아울하이텍","tel":"031-878-9877","addr":"경기도 양주시 광적면 가납리 428번지 경기벤처센터 4층 436호","category":"건축자재 - 기타건축자재"},{"name":"(주)천지오에이","tel":"031-826-3313","addr":"경기도 양주시 광적면 가납리 428번지 양주테크노시티 116호","category":"사무통신 - 사무용 OA기기"},{"name":"GGS","tel":"031-443-3741","addr":"경기도 양주시 광적면 가납리 428번지 양주테크노시티지식산업센터 213호","category":"건축자재 - 조명기구"},{"name":"그루터기","tel":"","addr":"경기도 양주시 광적면 가납리 428번지 양주테크노시티 316호","category":"기타 - 기계공구"},{"name":"드림북","tel":"031-829-7722","addr":"경기도 양주시 광적면 가납리 428번지 양주테크노시티 경기벤처센터(양주)422호","category":"서적문구 - 출판 및 인쇄물"},{"name":"벨라보르사(Bella Borsa)","tel":"031-830-1130","addr":"경기도 양주시 광적면 가납리 428번지 1층 108호 양주테크노시티","category":"신변잡화 - 가방"},{"name":"빛샘애드(LED파라)","tel":"031-837-8904","addr":"경기도 양주시 광적면 가납리 663 양주테크노시티211호","category":"건축자재 - 조명기구"},{"name":"알도커피팩토리","tel":"070-4125-1331","addr":"경기도 양주시 광적면 가납리 428번지 양주테크노시티지식산업센터 2층 219호","category":"음료식품 - 기타음료식품"},{"name":"양주시기업인협의회","tel":"031-859-2935","addr":"경기도 양주시 광적면 가납리 428번지 양주테크노시티 218호","category":"음료식품 - 기타음료식품"},{"name":"양주우리들치과의원","tel":"031-838-2808","addr":"경기도 양주시 광적면 가납리 428번지 양주테크노시티 201호","category":"의원 - 치과의원"},{"name":"엄마손집밥","tel":"031-830-1230","addr":"경기도 양주시 광적면 가납리 428번지 107-1호","category":"일반휴게음식 - 일반한식"},{"name":"유닉트","tel":"031-829-1011","addr":"경기도 양주시 광적면 가납리 428번지 경기벤처센터 437호","category":"사무통신 - 통신기기"},{"name":"주식회사 위즈드림","tel":"02-111-1111","addr":"경기도 양주시 광적면 가납리 428번지 양주테크노시티 316호","category":"사무통신 - 통신기기"},{"name":"캐츠아이","tel":"031-836-4366","addr":"경기도 양주시 광적면 가납리 428번지 양주테크노시티 108호","category":"보건위생 - 화장품"},{"name":"통돼지 식당","tel":"031-829-1610","addr":"경기도 양주시 광적면 가납리 428번지 양주테크노시티 1층 111호","category":"일반휴게음식 - 일반한식"},{"name":"할리스커피 양주테크노점","tel":"031-830-1700","addr":"경기도 양주시 광적면 가납리 428번지 양주테크노시티 1층 109호 109-1호","category":"일반휴게음식 - 서양음식"},{"name":"행복한 약국","tel":"031-829-7783","addr":"경기도 양주시 광적면 가납리 428번지 양주테크노시티 101호","category":"약국 - 약국"}]},{"lat":"37.824141478","long":"126.9843001","items":[{"name":"(주)대도기술단","tel":"02-2217-4176","addr":"경기도 양주시 광적면 가납리 738-11","category":"용역 서비스 - 사무서비스"},{"name":"꽃피는마을","tel":"031-836-1331","addr":"경기도 양주시 광적면 가납리 738-11","category":"문화.취미 - 화원"}]},{"lat":"37.810502448","long":"126.99604561","items":[{"name":"(주)델타코리아","tel":"031-836-6797","addr":"경기도 양주시 광적면 가납리 493-1번지","category":"의류 - 정장"},{"name":"델타코리아","tel":"031-836-6780","addr":"경기도 양주시 광적면 가납리 493-1번지 1층","category":"의류 - 정장"}]},{"lat":"37.826305201","long":"127.00159841","items":[{"name":"(주)동광라이팅","tel":"031-877-7017","addr":"경기도 양주시 광적면 가납리 87-10번지","category":"건축자재 - 조명기구"}]},{"lat":"37.827917889","long":"127.00159838","items":[{"name":"(주)미듬지기","tel":"070-7748-0506","addr":"경기도 양주시 광적면 가납리 82-3번지","category":"음료식품 - 농·축·수산품"}]},{"lat":"37.834197286","long":"126.99642965","items":[{"name":"(주)선봉철강","tel":"031-876-6601","addr":"경기도 양주시 광적면 가납리 225번지","category":"건축자재 - 기타건축자재"}]},{"lat":"37.834422693","long":"127.00173459","items":[{"name":"(주)히로마쓰모토","tel":"031-858-1182","addr":"경기도 양주시 광적면 가납리 33-1번지 2층","category":"레져용품 - 골프용품 전문점"}]},{"lat":"37.824528647","long":"126.98285752","items":[{"name":"365식자재홈마트","tel":"031-872-0365","addr":"경기도 양주시 광적면 가납리 847-5번지","category":"유통업 영리 - 슈퍼마켓"},{"name":"양주식자재마트","tel":"031-872-0365","addr":"경기도 양주시 광적면 가납리 847-5번지 외 3필지","category":"유통업 영리 - 슈퍼마켓"},{"name":"행복한 피부세상","tel":"031-829-7758","addr":"경기도 양주시 광적면 가납리 847-5번지","category":"보건위생 - 화장품"}]},{"lat":"37.81719542","long":"126.98574418","items":[{"name":"59년왕십리불곱창","tel":"031-836-8297","addr":"경기도 양주시 광적면 가납리 652번지 1층","category":"일반휴게음식 - 일반한식"}]},{"lat":"37.824672971","long":"126.98390243","items":[{"name":"59피자","tel":"031-855-5982","addr":"경기도 양주시 광적면 가납리 848-3","category":"일반휴게음식 - 서양음식"},{"name":"꼬까옷","tel":"","addr":"경기도 양주시 광적면 가납리 848-3번지 1층","category":"의류 - 아동의류"},{"name":"요가바디안","tel":"031-863-7451","addr":"경기도 양주시 광적면 가납리 848-3번지 창영빌딩 2층","category":"레저업소 - 헬스클럽"},{"name":"이불이야기","tel":"031-858-9500","addr":"경기도 양주시 광적면 가납리 848-3번지","category":"직물 - 침구·수예점"}]},{"lat":"37.821554941","long":"126.97963274","items":[{"name":"A-ONE SOUND","tel":"031-837-3158","addr":"경기도 양주시 광적면 가납리 774-18","category":"용역 서비스 - 사무서비스"}]},{"lat":"37.824447504","long":"126.9825168","items":[{"name":"AHMAD Halal food(아마드 할랄 푸드)","tel":"031-866-2408","addr":"경기도 양주시 광적면 가납리 847-3번지","category":"일반휴게음식 - 서양음식"},{"name":"돼지우리","tel":"031-878-8254","addr":"경기도 양주시 광적면 가납리 847-3번지 1층","category":"일반휴게음식 - 일반한식"}]},{"lat":"37.825583005","long":"126.98441332","items":[{"name":"BANGKOK THAI(방콕타이)","tel":"070-4843-2521","addr":"경기도 양주시 광적면 가납리 851-4번지","category":"일반휴게음식 - 서양음식"}]},{"lat":"37.830169791","long":"126.99246571","items":[{"name":"BMI","tel":"031-952-4500","addr":"경기도 양주시 광적면 가납리 326번지","category":"기타 - 기계공구"}]},{"lat":"37.823889283","long":"126.98474312","items":[{"name":"GS25양주제일점","tel":"031-532-3296","addr":"경기도 양주시 광적면 가납리 739-1번지 코너","category":"유통업 영리 - 편 의 점"},{"name":"ok당구장","tel":"031-829-3937","addr":"경기도 양주시 광적면 가납리 739-1번지 3층","category":"레저업소 - 당 구 장"},{"name":"아리랑노래연습장","tel":"031-826-0293","addr":"경기도 양주시 광적면 가납리 739-1번지","category":"레저업소 - 노 래 방"},{"name":"케익하우스-예&지","tel":"031-855-2043","addr":"경기도 양주시 광적면 가납리 739-1번지 1층","category":"음료식품 - 제과점"},{"name":"포토아트","tel":"031-836-3933","addr":"경기도 양주시 광적면 가납리 739-1","category":"광학제품 - 사진관"}]},{"lat":"37.814727081","long":"126.98755046","items":[{"name":"K-월드시스템","tel":"070-8279-0613","addr":"경기도 양주시 광적면 가납리 657-24 3-9","category":"사무통신 - 컴퓨터"},{"name":"남광유공압","tel":"031-836-9050","addr":"경기도 양주시 광적면 가납리 657-24 공구상가3동2,3호","category":"기타 - 기계공구"},{"name":"서원배관","tel":"031-871-1918","addr":"경기도 양주시 광적면 가납리 657-24외2필지 13호","category":"건축자재 - 기타건축자재"}]},{"lat":"37.825303659","long":"126.98407264","items":[{"name":"MK 텔레콤","tel":"031-000-0000","addr":"경기도 양주시 광적면 가납리 850-3번지","category":"사무통신 - 통신기기"},{"name":"꼼양","tel":"031-877-1634","addr":"경기도 양주시 광적면 가납리 850-3번지 1층 일부","category":"일반휴게음식 - 일반한식"},{"name":"이디야 양주광적점","tel":"031-829-2270","addr":"경기도 양주시 광적면 가납리 850-3번지","category":"일반휴게음식 - 서양음식"},{"name":"전통의 옛날통닭","tel":"031-855-9666","addr":"경기도 양주시 광적면 가납리 850-3번지 1층","category":"일반휴게음식 - 스넥"}]},{"lat":"37.826141385","long":"126.9831524","items":[{"name":"THE이뿜HAIR(광적점)","tel":"031-877-1021","addr":"경기도 양주시 광적면 가납리 837-1번지","category":"보건위생 - 미용원"},{"name":"더 이뿜 멀티샵","tel":"031-835-8585","addr":"경기도 양주시 광적면 가납리 837-1번지","category":"보건위생 - 화장품"},{"name":"비에이치씨(BHC)치킨광적점","tel":"031-855-8982","addr":"경기도 양주시 광적면 가납리 837-1번지","category":"일반휴게음식 - 주점"},{"name":"육회본가 광적점","tel":"031-829-5155","addr":"경기도 양주시 광적면 가납리 837-1번지 A동 1층","category":"일반휴게음식 - 일반한식"},{"name":"중국식품","tel":"070-7862-6628","addr":"경기도 양주시 광적면 가납리 837-1번지 1층 1호","category":"음료식품 - 기타음료식품"}]},{"lat":"37.824114087","long":"126.98213071","items":[{"name":"The(더)봄헤어","tel":"","addr":"경기도 양주시 광적면 가납리 843-1번지","category":"보건위생 - 미용원"},{"name":"핑크봉하우스","tel":"031-829-9998","addr":"경기도 양주시 광적면 가납리 843-1번지","category":"보건위생 - 피부미용실"}]},{"lat":"37.811979691","long":"126.99196859","items":[{"name":"가구숲","tel":"031-829-6064","addr":"경기도 양주시 광적면 가납리 444-14번지","category":"가구 - 일반가구"},{"name":"가구숲","tel":"031-829-6064","addr":"경기도 양주시 광적면 가납리 444-14번지","category":"가구 - 일반가구"}]},{"lat":"37.819114451","long":"126.98588002","items":[{"name":"가나천막","tel":"031-836-8510","addr":"경기도 양주시 광적면 가납리 679-3번지","category":"직물 - 카페트,커튼,천막,지물"},{"name":"가나화학상사","tel":"031-836-6111","addr":"경기도 양주시 광적면 가납리 679-3번지","category":"건축자재 - 페인트"},{"name":"기동카센타","tel":"031-855-1348","addr":"경기도 양주시 광적면 가납리 679-3번지","category":"자동차정비 유지 - 중장비수리"},{"name":"신아베아링","tel":"031-847-7214","addr":"경기도 양주시 광적면 가납리 679-3번지","category":"기타 - 기계공구"}]},{"lat":"37.820727262","long":"126.98674283","items":[{"name":"가납문구","tel":"031-878-8950","addr":"경기도 양주시 광적면 가납리 872-5번지 1층 일부","category":"서적문구 - 문구용품"}]},{"lat":"37.823673027","long":"126.98455009","items":[{"name":"가대호프","tel":"031-836-1226","addr":"경기도 양주시 광적면 가납리 739-10번지","category":"일반휴게음식 - 주점"},{"name":"스마일꽈배기","tel":"031-855-9726","addr":"경기도 양주시 광적면 가납리 739-10번지 1층","category":"일반휴게음식 - 일반한식"},{"name":"우성주얼리","tel":"031-836-3353","addr":"경기도 양주시 광적면 가납리 739-10번지","category":"신변잡화 - 액세서리"},{"name":"장수삼계탕","tel":"031-871-2901","addr":"경기도 양주시 광적면 가납리 739-10번지","category":"일반휴게음식 - 일반한식"}]},{"lat":"37.814339803","long":"126.98857263","items":[{"name":"가래비도시문화살롱","tel":"","addr":"경기도 양주시 광적면 가납리 627-6번지 2동","category":"용역 서비스 - 종합용역"},{"name":"영림목재인테리어","tel":"02-929-4204","addr":"경기도 양주시 광적면 가납리 627-6번지 1층","category":"건축자재 - 인테리어전문"},{"name":"이놀문화예술발전소","tel":"","addr":"경기도 양주시 광적면 가납리 627-6번지","category":"용역 서비스 - 종합용역"}]},{"lat":"37.820862456","long":"126.98712896","items":[{"name":"가래비목재건재","tel":"031-877-3131","addr":"경기도 양주시 광적면 가납리 703-4번지","category":"건축자재 - 기타건축자재"}]},{"lat":"37.820249777","long":"126.98685651","items":[{"name":"가래비빛나는바다","tel":"031-877-8886","addr":"경기도 양주시 광적면 가납리 704-2번지 가납빌딩 1층 일부","category":"일반휴게음식 - 일반한식"},{"name":"고깃집","tel":"031-879-3533","addr":"경기도 양주시 광적면 가납리 704-2번지 1층일부","category":"일반휴게음식 - 일반한식"},{"name":"베르사유 노래연습장","tel":"031-879-3008","addr":"경기도 양주시 광적면 가납리 704-2번지 3층 가남빌딩","category":"레저업소 - 노 래 방"},{"name":"육마니(광적점)","tel":"","addr":"경기도 양주시 광적면 가납리 704-2번지","category":"일반휴게음식 - 일반한식"},{"name":"탐스피씨카페(Toms PC Cafe)","tel":"070-9130-7300","addr":"경기도 양주시 광적면 가납리 704-2번지 2층","category":"레저업소 - 기타레져업소"}]},{"lat":"37.824006575","long":"126.9858789","items":[{"name":"가래비안경사랑","tel":"031-836-3773","addr":"경기도 양주시 광적면 가납리 741-9번지","category":"보건위생 - 안경"},{"name":"야또보자","tel":"031-878-9688","addr":"경기도 양주시 광적면 가납리 741-9번지 1층 일부","category":"일반휴게음식 - 주점"},{"name":"하스란엔터프라이즈(주)","tel":"031-879-5644","addr":"경기도 양주시 광적면 가납리 741-9번지 1층","category":"음료식품 - 기타음료식품"}]},{"lat":"37.823889187","long":"126.98412979","items":[{"name":"가래비약국","tel":"031-836-3882","addr":"경기도 양주시 광적면 가납리 738-3","category":"약국 - 약국"},{"name":"대지상회","tel":"031-836-3042","addr":"경기도 양주시 광적면 가납리 738-3","category":"음료식품 - 기타음료식품"}]},{"lat":"37.821700484","long":"126.98829862","items":[{"name":"가래비지물","tel":"031-836-8740","addr":"경기도 양주시 광적면 가납리 719-2번지","category":"직물 - 카페트,커튼,천막,지물"}]},{"lat":"37.819889215","long":"126.98555048","items":[{"name":"가래비태평양 약국","tel":"031-876-8734","addr":"경기도 양주시 광적면 가납리 691-1","category":"약국 - 약국"}]},{"lat":"37.822916414","long":"126.98574286","items":[{"name":"가비호프","tel":"031-829-9088","addr":"경기도 양주시 광적면 가납리 732-5번지","category":"일반휴게음식 - 일반한식"},{"name":"패션매장","tel":"","addr":"경기도 양주시 광적면 가납리 732-5번지","category":"의류 - 정장"}]},{"lat":"37.822367087","long":"126.98754888","items":[{"name":"가은커뮤니케이션","tel":"070-4606-7688","addr":"경기도 양주시 광적면 가납리 721-5번지 1층 1호","category":"사무통신 - 통신기기"}]},{"lat":"37.819700092","long":"126.98607297","items":[{"name":"가인광고인쇄용역","tel":"031-840-3338","addr":"경기도 양주시 광적면 가납리 679-14번지","category":"용역 서비스 - 종합용역"},{"name":"명지유공압","tel":"","addr":"경기도 양주시 광적면 가납리 679-14번지","category":"기타 - 기계공구"},{"name":"신한기전","tel":"031-826-3316","addr":"경기도 양주시 광적면 가납리 679-14번지","category":"전기제품 - 기타전기제품"},{"name":"잉크넷","tel":"031-829-0028","addr":"경기도 양주시 광적면 가납리 679-14번지","category":"사무통신 - 기타 사무용품"},{"name":"평화상사","tel":"031-837-3944","addr":"경기도 양주시 광적면 가납리 679-14","category":"의류 - 맞춤복점"}]},{"lat":"37.821474817","long":"126.98515259","items":[{"name":"강진농장직영","tel":"031-871-9888","addr":"경기도 양주시 광적면 가납리 866번지 1층 일부","category":"일반휴게음식 - 일반한식"}]},{"lat":"37.824033329","long":"126.98407296","items":[{"name":"강화설비","tel":"031-855-8445","addr":"경기도 양주시 광적면 가납리 738-4번지","category":"용역 서비스 - 기타용역서비스"},{"name":"광적열쇠","tel":"031-836-0303","addr":"경기도 양주시 광적면 가납리 738-4번지","category":"건축자재 - 목재·석재·철물"},{"name":"수진양품","tel":"031-836-1720","addr":"경기도 양주시 광적면 가납리 738-4번지","category":"의류 - 정장"},{"name":"수진커피호프","tel":"031-877-6399","addr":"경기도 양주시 광적면 가납리 738-4번지","category":"일반휴게음식 - 주점"},{"name":"정육상회(광적점)","tel":"031-837-2292","addr":"경기도 양주시 광적면 가납리 738-4번지","category":"음료식품 - 정육점"}]},{"lat":"37.812727242","long":"126.98968586","items":[{"name":"거성기공","tel":"031-837-3512","addr":"경기도 양주시 광적면 가납리 433-5번지","category":"기타 - 기계공구"},{"name":"신일합판","tel":"031-836-9980","addr":"경기도 양주시 광적면 가납리 433-5번지","category":"건축자재 - 목재·석재·철물"}]},{"lat":"37.823366688","long":"126.98443659","items":[{"name":"건영식당","tel":"031-855-1154","addr":"경기도 양주시 광적면 가납리 739-16번지","category":"일반휴게음식 - 일반한식"}]},{"lat":"37.815366693","long":"126.98710741","items":[{"name":"경기냉난방","tel":"031-878-5552","addr":"경기도 양주시 광적면 가납리 657-16번지 2층 7호","category":"용역 서비스 - 기타용역서비스"},{"name":"대동스프링","tel":"031-836-0131","addr":"경기도 양주시 광적면 가납리 657-16번지 3동 101호","category":"기타 - 기계공구"},{"name":"동산체인모터펌프","tel":"031-837-4044","addr":"경기도 양주시 광적면 가납리 657-16번지 광적종합공구상사 1-9","category":"건축자재 - 보일러·펌프·샷시"},{"name":"동성종합설비","tel":"031-837-3355","addr":"경기도 양주시 광적면 가납리 657-16번지 1층 12호","category":"용역 서비스 - 기타용역서비스"},{"name":"동일공구","tel":"031-836-0942","addr":"경기도 양주시 광적면 가납리 657-16번지 광적공구상가 1-17호","category":"기타 - 기계공구"},{"name":"명성건기(광백미니중기)","tel":"031-836-6618","addr":"경기도 양주시 광적면 가납리 657-16번지 1층 14호","category":"기타 - 기계공구"},{"name":"범영전기","tel":"031-837-3330","addr":"경기도 양주시 광적면 가납리 657-16번지 1층","category":"전기제품 - 기타전기제품"},{"name":"북부친환경상품지원센터","tel":"031-000-0000","addr":"경기도 양주시 광적면 가납리 657-16번지 3동 1층 5호(공구상사)","category":"사무통신 - 기타 사무용품"},{"name":"아주설비","tel":"031-826-0449","addr":"경기도 양주시 광적면 가납리 657-16번지 공구 상가 1동 8-1호","category":"수리서비스 - 기타수리서비스"},{"name":"에스제이툴링","tel":"031-855-4758","addr":"경기도 양주시 광적면 가납리 657-16번지 1동 1층","category":"건축자재 - 목재·석재·철물"},{"name":"에이치앤디필름(HND필름)","tel":"031-879-9556","addr":"경기도 양주시 광적면 가납리 657-16번지 3동 2층 204호","category":"건축자재 - 기타건축자재"},{"name":"조영테크","tel":"031-855-9242","addr":"경기도 양주시 광적면 가납리 657-16","category":"기타 - 기계공구"},{"name":"주식회사 북부친환경상품지원센터","tel":"031-111-1111","addr":"경기도 양주시 광적면 가납리 657-16번지 3동 1층 5호","category":"신변잡화 - 기타잡화"},{"name":"중부에프에이","tel":"031-836-2797","addr":"경기도 양주시 광적면 가납리 657-16번지 광적종합공구상가 1동 10호","category":"기타 - 기계공구"},{"name":"중앙수도배관","tel":"031-836-8041","addr":"경기도 양주시 광적면 가납리 657-16번지 제2층7호,1층8호","category":"건축자재 - 기타건축자재"},{"name":"카드테크","tel":"031-836-4768","addr":"경기도 양주시 광적면 가납리 657-16번지 광적공구상가 2동 205호","category":"기타 - 기타 전문점"},{"name":"현대설비","tel":"031-876-8204","addr":"경기도 양주시 광적면 가납리 657-16번지 (2동1층13호)","category":"용역 서비스 - 기타용역서비스"},{"name":"현대정밀","tel":"031-855-2210","addr":"경기도 양주시 광적면 가납리 657-16번지 9동","category":"가구 - 기타가구"}]},{"lat":"37.814727756","long":"126.99416002","items":[{"name":"경기창호산업","tel":"031-877-1959","addr":"경기도 양주시 광적면 가납리 465-2번지","category":"건축자재 - 기타건축자재"}]},{"lat":"37.813195696","long":"126.98935644","items":[{"name":"경기콤푸레샤","tel":"031-836-1800","addr":"경기도 양주시 광적면 가납리 433-1번지","category":"기타 - 기계공구"},{"name":"대명타일","tel":"031-840-7588","addr":"경기도 양주시 광적면 가납리 433-1번지","category":"건축자재 - 건축용 요업제품"}]},{"lat":"37.821006198","long":"126.9843236","items":[{"name":"경동나비엔양주대리점","tel":"031-837-4411","addr":"경기도 양주시 광적면 가납리 864-3번지 가-1(가동1호~2호)","category":"건축자재 - 보일러·펌프·샷시"},{"name":"무궁화식당","tel":"031-855-1313","addr":"경기도 양주시 광적면 가납리 864-3번지","category":"일반휴게음식 - 일반한식"}]},{"lat":"37.821087343","long":"126.98470974","items":[{"name":"경성덴트칼라","tel":"031-836-2361","addr":"경기도 양주시 광적면 가납리 866-3","category":"자동차정비 유지 - 자동차정비"}]},{"lat":"37.820727427","long":"126.98799216","items":[{"name":"경원상사","tel":"031-44-9202","addr":"경기도 양주시 광적면 가납리 709-1번지","category":"자동차정비 유지 - 자동차정비"},{"name":"경원타이어백화점","tel":"031-837-9202","addr":"경기도 양주시 광적면 가납리 709-1번지","category":"자동차정비 유지 - 자동차시트·타이어"}]},{"lat":"37.820474974","long":"126.98657252","items":[{"name":"경원콤푸상사","tel":"031-878-7014","addr":"경기도 양주시 광적면 가납리 703-6","category":"기타 - 기계공구"}]},{"lat":"37.82361018","long":"126.98601529","items":[{"name":"고기먹고갈래","tel":"031-876-0348","addr":"경기도 양주시 광적면 가납리 741-15번지","category":"일반휴게음식 - 일반한식"},{"name":"아시아마트","tel":"031-876-8144","addr":"경기도 양주시 광적면 가납리 741-15번지","category":"유통업 영리 - 슈퍼마켓"}]},{"lat":"37.820447916","long":"126.98635673","items":[{"name":"골프존파크 광적 단 스크린","tel":"031-855-4221","addr":"경기도 양주시 광적면 가납리 873번지 2층","category":"레저업소 - 스크린골프"},{"name":"단","tel":"031-855-4221","addr":"경기도 양주시 광적면 가납리 873번지","category":"레저업소 - 스크린골프"},{"name":"단","tel":"031-855-4221","addr":"경기도 양주시 광적면 가납리 873번지","category":"레저업소 - 헬스클럽"},{"name":"단(체력단련장업)","tel":"031-855-4225","addr":"경기도 양주시 광적면 가납리 873번지 3층","category":"레저업소 - 헬스클럽"},{"name":"롯데리아(양주광적점)","tel":"","addr":"경기도 양주시 광적면 가납리 873번지","category":"일반휴게음식 - 서양음식"}]},{"lat":"37.820754256","long":"126.98649296","items":[{"name":"공간","tel":"031-836-6543","addr":"경기도 양주시 광적면 가납리 872-3번지 A동 1층","category":"일반휴게음식 - 서양음식"},{"name":"다솔","tel":"031-836-6543","addr":"경기도 양주시 광적면 가납리 872-3번지","category":"의류 - 내의판매"},{"name":"다솔피아노학원","tel":"031-836-6543","addr":"경기도 양주시 광적면 가납리 872-3번지 3층","category":"학원 - 예·체능계학원"}]},{"lat":"37.822393898","long":"126.98595878","items":[{"name":"공간기획","tel":"031-837-1313","addr":"경기도 양주시 광적면 가납리 732-3번지","category":"용역 서비스 - 종합용역"},{"name":"이쁜손네일아트","tel":"031-829-9998","addr":"경기도 양주시 광적면 가납리 732-3번지","category":"보건위생 - 피부미용실"},{"name":"재래식품","tel":"070-4567-4444","addr":"경기도 양주시 광적면 가납리 732-3번지","category":"음료식품 - 기타음료식품"},{"name":"티는미용실","tel":"","addr":"경기도 양주시 광적면 가납리 732-3번지 1층 일부","category":"보건위생 - 미용원"}]},{"lat":"37.822113442","long":"126.97921233","items":[{"name":"광덕주방","tel":"031-872-7117","addr":"경기도 양주시 광적면 가납리 773-1번지","category":"주방용구 - 주방용구"}]},{"lat":"37.810259017","long":"126.99349054","items":[{"name":"광명인테리어","tel":"031-879-8608","addr":"경기도 양주시 광적면 가납리 504-1번지","category":"직물 - 카페트,커튼,천막,지물"}]},{"lat":"37.824087434","long":"126.98437962","items":[{"name":"광어9900","tel":"031-837-4545","addr":"경기도 양주시 광적면 가납리 738-12번지","category":"일반휴게음식 - 일반한식"}]},{"lat":"37.824474723","long":"126.9836526","items":[{"name":"광적면주민자치위원회","tel":"031-8082-4133","addr":"경기도 양주시 광적면 가납리 848-2번지","category":"문화.취미 - 문화취미기타"}]},{"lat":"37.816645875","long":"126.98596009","items":[{"name":"광적사우나","tel":"031-836-2024","addr":"경기도 양주시 광적면 가납리 652-5번지","category":"보건위생 - 사우나"},{"name":"정웅자동차정비공업사","tel":"031-836-8666","addr":"경기도 양주시 광적면 가납리 652-5번지","category":"자동차정비 유지 - 자동차정비"}]},{"lat":"37.822447923","long":"126.98574297","items":[{"name":"광적설비공사","tel":"031-836-3865","addr":"경기도 양주시 광적면 가납리 732-17번지 1층","category":"용역 서비스 - 기타용역서비스"},{"name":"수제디저트 달 보드레","tel":"031-836-3865","addr":"경기도 양주시 광적면 가납리 732-17번지","category":"문화.취미 - 문화취미기타"}]},{"lat":"37.824727104","long":"126.98437946","items":[{"name":"광적세차장","tel":"","addr":"경기도 양주시 광적면 가납리 849-4번지","category":"자동차정비 유지 - 세차장"}]},{"lat":"37.82380804","long":"126.98374364","items":[{"name":"광적쌀상회","tel":"031-836-3024","addr":"경기도 양주시 광적면 가납리 736-6번지","category":"음료식품 - 미곡상"}]},{"lat":"37.824420774","long":"126.98432274","items":[{"name":"광적약국","tel":"031-829-0267","addr":"경기도 양주시 광적면 가납리 738-17","category":"약국 - 약국"}]},{"lat":"37.822501567","long":"126.98310794","items":[{"name":"광적요양원","tel":"031-829-0035","addr":"경기도 양주시 광적면 가납리 859-1번지","category":"기타의료기관 - 기타의료기관 및 기타"}]},{"lat":"37.806952489","long":"126.99279828","items":[{"name":"광적자동차부품","tel":"031-836-2686","addr":"경기도 양주시 광적면 가납리 565-4","category":"자동차정비 유지 - 자동차부품"}]},{"lat":"37.813448023","long":"126.98991286","items":[{"name":"광적장례식장","tel":"031-876-4448","addr":"경기도 양주시 광적면 가납리 432-8번지","category":"용역 서비스 - 가례서비스업"},{"name":"광적장례식장","tel":"031-876-4448","addr":"경기도 양주시 광적면 가납리 432-8번지","category":"용역 서비스 - 가례서비스업"}]},{"lat":"37.822313048","long":"126.98768518","items":[{"name":"광적전자담배","tel":"031-829-8222","addr":"경기도 양주시 광적면 가납리 721-13번지","category":"기타 - 기타 전문점"},{"name":"둥지식당","tel":"031-829-2040","addr":"경기도 양주시 광적면 가납리 721-13번지 1층 일부","category":"일반휴게음식 - 일반한식"},{"name":"시간여행노래연습장","tel":"031-569-0045","addr":"경기도 양주시 광적면 가납리 721-13번지","category":"레저업소 - 노 래 방"}]},{"lat":"37.809592387","long":"126.99441045","items":[{"name":"광적점현대자동차","tel":"031-836-8804","addr":"경기도 양주시 광적면 가납리 498-8번지","category":"자동차정비 유지 - 자동차정비"}]},{"lat":"37.810727374","long":"126.99193471","items":[{"name":"광적종합철강","tel":"031-836-8188","addr":"경기도 양주시 광적면 가납리 511-18","category":"건축자재 - 기타건축자재"}]},{"lat":"37.821889495","long":"126.98685615","items":[{"name":"광적청년회","tel":"031-837-9254","addr":"경기도 양주시 광적면 가납리 702-18번지 2층","category":"기타 - 비영리/비대상"},{"name":"아름다운세상","tel":"031-879-1334","addr":"경기도 양주시 광적면 가납리 702-18번지","category":"보건위생 - 피부미용실"},{"name":"오리마을","tel":"031-836-1823","addr":"경기도 양주시 광적면 가납리 702-18번지","category":"일반휴게음식 - 일반한식"}]},{"lat":"37.82355605","long":"126.98551555","items":[{"name":"광적체육사","tel":"031-836-3539","addr":"경기도 양주시 광적면 가납리 741-19번지","category":"레져용품 - 스포츠·레져용품"}]},{"lat":"37.824447784","long":"126.98420916","items":[{"name":"광적치과의원","tel":"031-871-2870","addr":"경기도 양주시 광적면 가납리 737-13번지 3층","category":"의원 - 치과의원"},{"name":"바글바글","tel":"031-836-4524","addr":"경기도 양주시 광적면 가납리 737-13번지","category":"일반휴게음식 - 일반한식"},{"name":"양주새롬의원","tel":"031-877-2119","addr":"경기도 양주시 광적면 가납리 737-13번지 201호","category":"의원 - 의원"}]},{"lat":"37.822312395","long":"126.983267","items":[{"name":"광진특수","tel":"031-836-8008","addr":"경기도 양주시 광적면 가납리 859-2번지","category":"자동차정비 유지 - 견인서비스"}]},{"lat":"37.822033805","long":"126.9880714","items":[{"name":"구제몰","tel":"","addr":"경기도 양주시 광적면 가납리 721-8번지 1층","category":"의류 - 정장"},{"name":"대현카센타","tel":"031-855-5803","addr":"경기도 양주시 광적면 가납리 721-8번지","category":"자동차정비 유지 - 자동차정비"}]},{"lat":"37.825168025","long":"126.9812104","items":[{"name":"국물집","tel":"031-855-0228","addr":"경기도 양주시 광적면 가납리 841-4번지 1층","category":"일반휴게음식 - 일반한식"},{"name":"대성식당","tel":"031-855-4252","addr":"경기도 양주시 광적면 가납리 841-4번지 나동 A호","category":"일반휴게음식 - 일반한식"},{"name":"목로주점","tel":"031-875-4369","addr":"경기도 양주시 광적면 가납리 841-4번지 C,D동","category":"일반휴게음식 - 일반한식"},{"name":"성우스크린골프","tel":"031-829-0033","addr":"경기도 양주시 광적면 가납리 841-4번지","category":"레저업소 - 스크린골프"},{"name":"이지헤어","tel":"02-111-1111","addr":"경기도 양주시 광적면 가납리 841-4번지","category":"보건위생 - 미용원"}]},{"lat":"37.809835624","long":"126.99416059","items":[{"name":"국제타이어","tel":"031-874-7942","addr":"경기도 양주시 광적면 가납리 498-1번지","category":"자동차정비 유지 - 자동차시트·타이어"}]},{"lat":"37.819393755","long":"126.98595946","items":[{"name":"굿모닝인쇄","tel":"031-829-3160","addr":"경기도 양주시 광적면 가납리 679-25","category":"용역 서비스 - 종합용역"},{"name":"밀레니엄","tel":"031-829-9333","addr":"경기도 양주시 광적면 가납리 679-25","category":"수리서비스 - 사무·통신기기수리"},{"name":"신세계","tel":"031-836-9222","addr":"경기도 양주시 광적면 가납리 679-25번지 2층","category":"보건위생 - 기타대인서비스"}]},{"lat":"37.823393794","long":"126.98493633","items":[{"name":"그린사","tel":"031-836-9747","addr":"경기도 양주시 광적면 가납리 739-6번지","category":"수리서비스 - 세탁소"},{"name":"우거지품은순대국(광적점)","tel":"031-836-3217","addr":"경기도 양주시 광적면 가납리 739-6번지","category":"일반휴게음식 - 일반한식"},{"name":"이태리안경점","tel":"031-836-2263","addr":"경기도 양주시 광적면 가납리 739-6번지","category":"보건위생 - 안경"}]},{"lat":"37.813979442","long":"126.98870898","items":[{"name":"금강상사","tel":"031-837-3337","addr":"경기도 양주시 광적면 가납리 627-2번지","category":"건축자재 - 페인트"},{"name":"라온시스템","tel":"031-836-4342","addr":"경기도 양주시 광적면 가납리 627-2번지","category":"수리서비스 - 사무·통신기기수리"},{"name":"진영공업","tel":"031-836-0486","addr":"경기도 양주시 광적면 가납리 627-2번지 1층 일부","category":"기타 - 기계공구"}]},{"lat":"37.825754031","long":"126.98345918","items":[{"name":"금광족발","tel":"031-837-3399","addr":"경기도 양주시 광적면 가납리 838-1번지","category":"일반휴게음식 - 일반한식"},{"name":"닭발이랑곱창이랑","tel":"031-879-2136","addr":"경기도 양주시 광적면 가납리 838-1","category":"일반휴게음식 - 일반한식"},{"name":"맛있는김밥","tel":"031-836-1122","addr":"경기도 양주시 광적면 가납리 838-1번지 111호","category":"일반휴게음식 - 일반한식"},{"name":"멀티아이","tel":"031-855-2047","addr":"경기도 양주시 광적면 가납리 838-1번지 838-3 101,102호","category":"사무통신 - 컴퓨터"},{"name":"파리바게트 (양주광적점)","tel":"031-836-9007","addr":"경기도 양주시 광적면 가납리 838-1번지 1층 일부","category":"음료식품 - 제과점"},{"name":"헤라텔레콤","tel":"031-873-3010","addr":"경기도 양주시 광적면 가납리 838-1번지 105호","category":"사무통신 - 통신기기"},{"name":"헤어펌미용실","tel":"031-879-0807","addr":"경기도 양주시 광적면 가납리 838-1번지 108호","category":"보건위생 - 미용원"}]},{"lat":"37.811889447","long":"126.99045823","items":[{"name":"금오안전산업","tel":"031-874-9119","addr":"경기도 양주시 광적면 가납리 435-10","category":"기타 - 기계공구"}]},{"lat":"37.822249776","long":"126.98616325","items":[{"name":"기발한치킨(광적점)","tel":"031-855-9155","addr":"경기도 양주시 광적면 가납리 728-7번지","category":"일반휴게음식 - 스넥"}]},{"lat":"37.82378111","long":"126.98435698","items":[{"name":"김밥천국","tel":"031-837-1009","addr":"경기도 양주시 광적면 가납리 738-15번지 1층","category":"일반휴게음식 - 일반한식"},{"name":"자매커피 (sister coffee)","tel":"070-4001-3044","addr":"경기도 양주시 광적면 가납리 738-15번지 1층","category":"일반휴게음식 - 서양음식"},{"name":"희망","tel":"031-836-3116","addr":"경기도 양주시 광적면 가납리 738-15번지 2층","category":"일반휴게음식 - 일반한식"}]},{"lat":"37.834197434","long":"127.0002692","items":[{"name":"김썬테크","tel":"031-000-0000","addr":"경기도 양주시 광적면 가납리 210-1번지","category":"자동차정비 유지 - 자동차부품"},{"name":"동진모터스","tel":"031-837-3077","addr":"경기도 양주시 광적면 가납리 210-1","category":"기타 - 기계공구"}]},{"lat":"37.825249549","long":"126.98374327","items":[{"name":"깜시미장","tel":"031-837-8872","addr":"경기도 양주시 광적면 가납리 839-5번지 A동 6호","category":"보건위생 - 미용원"},{"name":"민텔레콤","tel":"031-878-0600","addr":"경기도 양주시 광적면 가납리 839-5번지 1동 3층(A)","category":"사무통신 - 통신기기"}]},{"lat":"37.824168329","long":"126.98320972","items":[{"name":"깡통소금구이","tel":"031-876-0348","addr":"경기도 양주시 광적면 가납리 846-6번지 1층","category":"일반휴게음식 - 일반한식"},{"name":"양주가마솥곰탕","tel":"031-856-1666","addr":"경기도 양주시 광적면 가납리 846-6번지 1층","category":"일반휴게음식 - 일반한식"}]},{"lat":"37.823312759","long":"126.98526573","items":[{"name":"꼬레랑옛날통닭","tel":"031-855-8595","addr":"경기도 양주시 광적면 가납리 739-3번지 1층","category":"일반휴게음식 - 스넥"}]},{"lat":"37.824916443","long":"126.98529942","items":[{"name":"꽃게미반 간장게장","tel":"031-873-9455","addr":"경기도 양주시 광적면 가납리 852-12번지 1층","category":"일반휴게음식 - 일반한식"}]},{"lat":"37.818672182","long":"126.98099651","items":[{"name":"날으는자동차정비","tel":"031-829-4477","addr":"경기도 양주시 광적면 가납리 907-9번지","category":"자동차정비 유지 - 자동차부품"}]},{"lat":"37.820979601","long":"126.9872993","items":[{"name":"네네치킨","tel":"031-836-3436","addr":"경기도 양주시 광적면 가납리 703-3번지","category":"일반휴게음식 - 주점"}]},{"lat":"37.823916281","long":"126.98455003","items":[{"name":"농민후계자한우일번지","tel":"031-837-3822","addr":"경기도 양주시 광적면 가납리 738-13번지","category":"음료식품 - 정육점"},{"name":"돼지카페","tel":"031-836-3294","addr":"경기도 양주시 광적면 가납리 738-13번지","category":"일반휴게음식 - 일반한식"}]},{"lat":"37.80670001","long":"126.99054994","items":[{"name":"능안식당","tel":"031-864-2539","addr":"경기도 양주시 광적면 가납리 567-8번지 1층","category":"일반휴게음식 - 일반한식"}]},{"lat":"37.825474331","long":"126.9811308","items":[{"name":"다비축산물도소매직판장","tel":"031-877-1857","addr":"경기도 양주시 광적면 가납리 841-2번지 일부 좌측","category":"음료식품 - 정육점"}]},{"lat":"37.811619317","long":"126.99201407","items":[{"name":"다영상사","tel":"031-836-6557","addr":"경기도 양주시 광적면 가납리 444-33번지","category":"자동차정비 유지 - 자동차부품"},{"name":"씨유양주부흥로점","tel":"031-855-7496","addr":"경기도 양주시 광적면 가납리 444-33번지","category":"유통업 영리 - 편 의 점"},{"name":"일미왕족발","tel":"031-836-9998","addr":"경기도 양주시 광적면 가납리 444-33번지","category":"일반휴게음식 - 일반한식"},{"name":"현대음향","tel":"031-205-1636","addr":"경기도 양주시 광적면 가납리 444-33번지","category":"전기제품 - 기타전기제품"}]},{"lat":"37.826170046","long":"127.00067838","items":[{"name":"다온","tel":"","addr":"경기도 양주시 광적면 가납리 87-5번지","category":"사무통신 - 컴퓨터"}]},{"lat":"37.8137272","long":"126.98890208","items":[{"name":"대기문구사 광적점","tel":"031-829-8007","addr":"경기도 양주시 광적면 가납리 627-4번지 외2필지","category":"서적문구 - 문구용품"}]},{"lat":"37.81078152","long":"126.99293403","items":[{"name":"대동전기조명","tel":"031-836-0616","addr":"경기도 양주시 광적면 가납리 504-8번지","category":"전기제품 - 기타전기제품"},{"name":"신세기수출포장","tel":"031-836-2290","addr":"경기도 양주시 광적면 가납리 504-8번지 A-5호","category":"기타 - 기타 전문점"},{"name":"엘림정밀조각","tel":"02-2269-4808","addr":"경기도 양주시 광적면 가납리 504-8번지","category":"기타 - 기계공구"},{"name":"친절한작업반장","tel":"031-7114-0202","addr":"경기도 양주시 광적면 가납리 504-8번지","category":"기타 - 기계공구"}]},{"lat":"37.81691625","long":"126.98660738","items":[{"name":"대박곰탕","tel":"031-875-3767","addr":"경기도 양주시 광적면 가납리 651번지 1층","category":"일반휴게음식 - 일반한식"},{"name":"용 당구장","tel":"","addr":"경기도 양주시 광적면 가납리 651번지 2층","category":"레저업소 - 당 구 장"},{"name":"용당구장","tel":"","addr":"경기도 양주시 광적면 가납리 651번지 2층","category":"레저업소 - 당 구 장"},{"name":"용스크린골프","tel":"070-8161-3830","addr":"경기도 양주시 광적면 가납리 651번지","category":"레저업소 - 스크린골프"}]},{"lat":"37.814952287","long":"126.98732328","items":[{"name":"대성상사","tel":"031-836-3334","addr":"경기도 양주시 광적면 가납리 657-20번지","category":"기타 - 기타 전문점"},{"name":"동현자동화","tel":"031-855-1178","addr":"경기도 양주시 광적면 가납리 657-20광적공구상가 2-2","category":"기타 - 기타 전문점"},{"name":"명성건기","tel":"031-872-9101","addr":"경기도 양주시 광적면 가납리 657-20","category":"기타 - 기계공구"},{"name":"오토코리아북부","tel":"031-879-6452","addr":"경기도 양주시 광적면 가납리 657-20번지 1층 16","category":"자동차정비 유지 - 자동차부품"},{"name":"현대지게차","tel":"031-977-8585","addr":"경기도 양주시 광적면 가납리 657-20 (1층 14호)","category":"자동차판매 - 기타운송"}]},{"lat":"37.820276669","long":"126.98587976","items":[{"name":"대승카센타","tel":"031-855-1572","addr":"경기도 양주시 광적면 가납리 873-2번지","category":"자동차정비 유지 - 자동차정비"},{"name":"양주대우센터","tel":"","addr":"경기도 양주시 광적면 가납리 873-2번지","category":"기타 - 기계공구"}]},{"lat":"37.810619291","long":"126.99226405","items":[{"name":"대신종합기계","tel":"031-872-8585","addr":"경기도 양주시 광적면 가납리 511-24번지","category":"건축자재 - 보일러·펌프·샷시"}]},{"lat":"37.823060508","long":"126.98535666","items":[{"name":"대영","tel":"031-836-4676","addr":"경기도 양주시 광적면 가납리 732-6","category":"사무통신 - 통신기기"},{"name":"양주가납SK","tel":"","addr":"경기도 양주시 광적면 가납리 732-6번지","category":"사무통신 - 통신기기"}]},{"lat":"37.822610271","long":"126.98701501","items":[{"name":"대영장식","tel":"031-837-2247","addr":"경기도 양주시 광적면 가납리 740-8번지","category":"직물 - 카페트,커튼,천막,지물"},{"name":"월드컵노래연습장","tel":"031-836-3312","addr":"경기도 양주시 광적면 가납리 740-8번지","category":"레저업소 - 노 래 방"},{"name":"유한먹거리","tel":"","addr":"경기도 양주시 광적면 가납리 740-8번지","category":"일반휴게음식 - 일반한식"},{"name":"중앙미용실","tel":"031-836-5454","addr":"경기도 양주시 광적면 가납리 740-8번지","category":"보건위생 - 미용원"}]},{"lat":"37.82308764","long":"126.9860722","items":[{"name":"대지식당","tel":"031-836-3590","addr":"경기도 양주시 광적면 가납리 740-4번지","category":"일반휴게음식 - 일반한식"},{"name":"형제 타바코","tel":"031-000-0000","addr":"경기도 양주시 광적면 가납리 740-4번지 1층","category":"음료식품 - 기타음료식품"}]},{"lat":"37.824582598","long":"126.98224416","items":[{"name":"더봄날","tel":"031-8848-3527","addr":"경기도 양주시 광적면 가납리 847-1번지 103호","category":"의류 - 정장"},{"name":"쌀눈쌀현미누룽지","tel":"031-877-3739","addr":"경기도 양주시 광적면 가납리 847-1번지 1층","category":"음료식품 - 기타음료식품"},{"name":"양주 용인대 국가대표 태권도장","tel":"031-000-0000","addr":"경기도 양주시 광적면 가납리 847-1번지 2층","category":"학원 - 예·체능계학원"},{"name":"주마등","tel":"031-879-7654","addr":"경기도 양주시 광적면 가납리 847-1번지","category":"일반휴게음식 - 일반한식"},{"name":"지인인테리어","tel":"031-878-0456","addr":"경기도 양주시 광적면 가납리 847-1번지 105호","category":"건축자재 - 인테리어전문"}]},{"lat":"37.821114768","long":"126.98749235","items":[{"name":"동성철물","tel":"031-843-2245","addr":"경기도 양주시 광적면 가납리 703-1번지","category":"기타 - 기계공구"}]},{"lat":"37.812583106","long":"126.98982216","items":[{"name":"동양콤푸레샤","tel":"031-837-0240","addr":"경기도 양주시 광적면 가납리 433-4번지 1층","category":"기타 - 기계공구"},{"name":"두원자동차유리","tel":"031-837-5180","addr":"경기도 양주시 광적면 가납리 433-4번지 상가 1층","category":"건축자재 - 유리"},{"name":"종합콘테이너","tel":"031-836-9424","addr":"경기도 양주시 광적면 가납리 433-4번지","category":"기타 - 기타 전문점"}]},{"lat":"37.823943473","long":"126.98562904","items":[{"name":"동희우렁쌈밥","tel":"031-879-2401","addr":"경기도 양주시 광적면 가납리 741-10번지","category":"일반휴게음식 - 일반한식"}]},{"lat":"37.807168079","long":"126.98701831","items":[{"name":"드림전동차","tel":"070-8812-3811","addr":"경기도 양주시 광적면 가납리 591-2번지","category":"자동차판매 - 기타운송"}]},{"lat":"37.822528204","long":"126.98090451","items":[{"name":"드림환경","tel":"031-837-2277","addr":"경기도 양주시 광적면 가납리 770","category":"용역 서비스 - 기타용역서비스"}]},{"lat":"37.823447946","long":"126.98557236","items":[{"name":"디에스정보통신","tel":"031-829-1773","addr":"경기도 양주시 광적면 가납리 742-14번지 1층","category":"사무통신 - 통신기기"}]},{"lat":"37.822862475","long":"126.986572","items":[{"name":"디지털전자프라자","tel":"031-866-3003","addr":"경기도 양주시 광적면 가납리 740-11번지","category":"전기제품 - 가전제품"},{"name":"영보한의원","tel":"031-847-2155","addr":"경기도 양주시 광적면 가납리 740-11번지","category":"의원 - 한의원"}]},{"lat":"37.823366897","long":"126.98582226","items":[{"name":"땡큐노래연습장","tel":"031-826-0805","addr":"경기도 양주시 광적면 가납리 741-7번지 지하","category":"레저업소 - 노 래 방"},{"name":"뷰티아로","tel":"","addr":"경기도 양주시 광적면 가납리 741-7번지","category":"보건위생 - 화장품"},{"name":"스위티 플러스PC방","tel":"070-7997-4036","addr":"경기도 양주시 광적면 가납리 741-7번지","category":"레저업소 - 기타레져업소"}]},{"lat":"37.825528891","long":"126.98404987","items":[{"name":"뚜레쥬르 양주광적(2)","tel":"031-875-6150","addr":"경기도 양주시 광적면 가납리 850-1번지","category":"음료식품 - 제과점"}]},{"lat":"37.820500749","long":"126.97919013","items":[{"name":"라라점핑","tel":"031-111-1111","addr":"경기도 양주시 광적면 가납리 909-6번지","category":"건강식품 - 기타건강식품"}]},{"lat":"37.824420804","long":"126.98451583","items":[{"name":"라마다모텔","tel":"","addr":"경기도 양주시 광적면 가납리 738-41번지","category":"숙박업 - 여관/기타숙박업"}]},{"lat":"37.812979487","long":"126.98951547","items":[{"name":"라이브 노래연습장","tel":"031-873-8581","addr":"경기도 양주시 광적면 가납리 433-6번지","category":"레저업소 - 노 래 방"},{"name":"수랏간양평해장국가래비점","tel":"031-829-1099","addr":"경기도 양주시 광적면 가납리 433-6번지 1층","category":"일반휴게음식 - 일반한식"},{"name":"이대감","tel":"031-876-5460","addr":"경기도 양주시 광적면 가납리 433-6번지","category":"일반휴게음식 - 일반한식"}]},{"lat":"37.8194749","long":"126.98637967","items":[{"name":"래투스 (LAETUS)","tel":"031-855-5196","addr":"경기도 양주시 광적면 가납리 704-3번지","category":"일반휴게음식 - 서양음식"},{"name":"래투스 (LAETUS)","tel":"031-855-0358","addr":"경기도 양주시 광적면 가납리 704-3번지 건강빌딩 1층 일부","category":"일반휴게음식 - 서양음식"},{"name":"래투스(LAETUS)","tel":"031-855-5196","addr":"경기도 양주시 광적면 가납리 704-3번지 건강빌딩 1층 일부","category":"일반휴게음식 - 서양음식"},{"name":"엔터프라이즈SDG","tel":"031-855-5196","addr":"경기도 양주시 광적면 가납리 704-3번지 건강빌딩 201호","category":"음료식품 - 농·축·수산품"}]},{"lat":"37.821277507","long":"126.99273954","items":[{"name":"로얄팩토리","tel":"","addr":"경기도 양주시 광적면 가납리 375-2번지","category":"건강식품 - 인삼제품"}]},{"lat":"37.822394","long":"126.98668568","items":[{"name":"루비다방","tel":"031-877-2148","addr":"경기도 양주시 광적면 가납리 728-8번지 지하1층","category":"일반휴게음식 - 서양음식"}]},{"lat":"37.818834204","long":"126.98021281","items":[{"name":"리디아학원","tel":"","addr":"경기도 양주시 광적면 가납리 907-1번지 2층","category":"학원 - 보습학원"}]},{"lat":"37.821727403","long":"126.98743543","items":[{"name":"리라한식부페","tel":"031-829-6805","addr":"경기도 양주시 광적면 가납리 722-11번지","category":"일반휴게음식 - 일반한식"},{"name":"황실","tel":"031-877-3110","addr":"경기도 양주시 광적면 가납리 722-11번지","category":"보건위생 - 기타대인서비스"}]},{"lat":"37.824222575","long":"126.98437958","items":[{"name":"마미쿡 광적점","tel":"031-829-8886","addr":"경기도 양주시 광적면 가납리 738-16번지","category":"일반휴게음식 - 스넥"},{"name":"왓포","tel":"031-829-7322","addr":"경기도 양주시 광적면 가납리 738-16번지 2층","category":"보건위생 - 피부미용실"},{"name":"프린세스","tel":"","addr":"경기도 양주시 광적면 가납리 738-16번지","category":"주방용구 - 주방용식기"},{"name":"효촌한우직판장","tel":"031-826-4545","addr":"경기도 양주시 광적면 가납리 738-16번지","category":"음료식품 - 정육점"}]},{"lat":"37.823916048","long":"126.98310756","items":[{"name":"마음시소","tel":"031-836-1189","addr":"경기도 양주시 광적면 가납리 845-2번지","category":"문화.취미 - 화원"},{"name":"올가드림뷰티(Orga Dream Beauty)","tel":"","addr":"경기도 양주시 광적면 가납리 845-2번지 1층 일부호","category":"보건위생 - 피부미용실"}]},{"lat":"37.822249886","long":"126.98695829","items":[{"name":"만석식당","tel":"031-836-3117","addr":"경기도 양주시 광적면 가납리 722-2번지","category":"일반휴게음식 - 일반한식"},{"name":"만석식당","tel":"031-836-3117","addr":"경기도 양주시 광적면 가납리 722-2번지","category":"일반휴게음식 - 일반한식"}]},{"lat":"37.826006263","long":"126.98326602","items":[{"name":"머리이야기","tel":"031-836-7774","addr":"경기도 양주시 광적면 가납리 837-4번지 105호","category":"보건위생 - 미용원"},{"name":"미스터정뚝배기","tel":"070-8243-9145","addr":"경기도 양주시 광적면 가납리 837-4번지 1층","category":"일반휴게음식 - 일반한식"}]},{"lat":"37.822556124","long":"126.98635626","items":[{"name":"메이비","tel":"031-855-5082","addr":"경기도 양주시 광적면 가납리 728-12","category":"일반휴게음식 - 스넥"}]},{"lat":"37.831089147","long":"126.99892893","items":[{"name":"명가리","tel":"031-836-7669","addr":"경기도 양주시 광적면 가납리 164-2번지","category":"일반휴게음식 - 일반한식"}]},{"lat":"37.813727617","long":"126.99301313","items":[{"name":"무명","tel":"","addr":"경기도 양주시 광적면 가납리 463-17번지 금정홈타운 304호","category":"음료식품 - 기타음료식품"}]},{"lat":"37.824249777","long":"126.98551539","items":[{"name":"미가","tel":"031-855-1594","addr":"경기도 양주시 광적면 가납리 742-1","category":"일반휴게음식 - 일반한식"},{"name":"탑노래방","tel":"070-8950-0795","addr":"경기도 양주시 광적면 가납리 742-1번지","category":"레저업소 - 노 래 방"}]},{"lat":"37.831863969","long":"126.99929238","items":[{"name":"미니스톱양주로드점","tel":"031-1577-9621","addr":"경기도 양주시 광적면 가납리 161-5번지","category":"유통업 영리 - 편 의 점"}]},{"lat":"37.823366798","long":"126.98515214","items":[{"name":"미소부대찌게","tel":"031-855-3013","addr":"경기도 양주시 광적면 가납리 739-4번지","category":"일반휴게음식 - 일반한식"},{"name":"스카이노래연습장","tel":"031-837-0656","addr":"경기도 양주시 광적면 가납리 739-4번지","category":"레저업소 - 노 래 방"},{"name":"썬염색방","tel":"031-836-3550","addr":"경기도 양주시 광적면 가납리 739-4번지 1층","category":"보건위생 - 미용원"},{"name":"현대미용실","tel":"031-836-3550","addr":"경기도 양주시 광적면 가납리 739-4","category":"보건위생 - 미용원"}]},{"lat":"37.819528724","long":"126.98480098","items":[{"name":"미엔바디","tel":"","addr":"경기도 양주시 광적면 가납리 688-1번지 2층 2호","category":"보건위생 - 화장품"},{"name":"진선미","tel":"031-842-0285","addr":"경기도 양주시 광적면 가납리 688-1번지","category":"의류 - 정장"}]},{"lat":"37.822808445","long":"126.98676509","items":[{"name":"미용재료","tel":"","addr":"경기도 양주시 광적면 가납리 740-7번지 2층","category":"보건위생 - 미용재료"},{"name":"카비르할라푸드(KABIR HALALFOOD)","tel":"031-879-1015","addr":"경기도 양주시 광적면 가납리 740-7번지 왼편상가 1층 2호","category":"유통업 영리 - 슈퍼마켓"}]},{"lat":"37.824006251","long":"126.9837663","items":[{"name":"미진종합유통","tel":"031-827-9284","addr":"경기도 양주시 광적면 가납리 736-2번지 1층","category":"음료식품 - 기타음료식품"},{"name":"지디엠아세아마트","tel":"","addr":"경기도 양주시 광적면 가납리 736-2번지 1층","category":"유통업 영리 - 슈퍼마켓"},{"name":"페인트가게","tel":"031-829-5568","addr":"경기도 양주시 광적면 가납리 736-2번지 외1필지","category":"용역 서비스 - 기타용역서비스"}]},{"lat":"37.823862452","long":"126.98607202","items":[{"name":"민헤어샵","tel":"031-859-6667","addr":"경기도 양주시 광적면 가납리 741-12번지 1층","category":"보건위생 - 미용원"}]},{"lat":"37.823753978","long":"126.98370958","items":[{"name":"백가네곰탕","tel":"","addr":"경기도 양주시 광적면 가납리 736-7번지","category":"일반휴게음식 - 일반한식"}]},{"lat":"37.823943191","long":"126.98380039","items":[{"name":"백년치킨","tel":"031-855-9289","addr":"경기도 양주시 광적면 가납리 736-4번지","category":"일반휴게음식 - 일반한식"}]},{"lat":"37.82078136","long":"126.98704947","items":[{"name":"백조씽크","tel":"031-836-4476","addr":"경기도 양주시 광적면 가납리 703-5번지","category":"주방용구 - 주방용구"}]},{"lat":"37.820167886","long":"126.98174566","items":[{"name":"벨라S#(에스샵)","tel":"","addr":"경기도 양주시 광적면 가납리 899번지 1층","category":"보건위생 - 미용원"}]},{"lat":"37.819753445","long":"126.98171171","items":[{"name":"벨라세탁소","tel":"031-855-1230","addr":"경기도 양주시 광적면 가납리 904번지 104호","category":"수리서비스 - 세탁소"},{"name":"행운식당","tel":"031-877-8306","addr":"경기도 양주시 광적면 가납리 904번지 106호","category":"일반휴게음식 - 일반한식"}]},{"lat":"37.819394311","long":"126.99041154","items":[{"name":"벨루스","tel":"","addr":"경기도 양주시 광적면 가납리 393-3번지","category":"의류 - 내의판매"}]},{"lat":"37.824114231","long":"126.98295985","items":[{"name":"별","tel":"031-111-1111","addr":"경기도 양주시 광적면 가납리 846-5번지","category":"의류 - 정장"},{"name":"싹쓰리(광적점)","tel":"031-829-3460","addr":"경기도 양주시 광적면 가납리 846-5번지","category":"일반휴게음식 - 일반한식"},{"name":"울밥집","tel":"031-829-5655","addr":"경기도 양주시 광적면 가납리 846-5번지 101호","category":"일반휴게음식 - 일반한식"}]},{"lat":"37.814313013","long":"126.99068496","items":[{"name":"보건","tel":"031-000-0000","addr":"경기도 양주시 광적면 가납리 440-2번지","category":"직물 - 옷감·직물"}]},{"lat":"37.821087991","long":"126.98954808","items":[{"name":"보원 털랭이 매운탕","tel":"031-829-1066","addr":"경기도 양주시 광적면 가납리 384-21번지","category":"일반휴게음식 - 일반한식"}]},{"lat":"37.82347481","long":"126.98449335","items":[{"name":"봉평메밀촌","tel":"031-829-7878","addr":"경기도 양주시 광적면 가납리 739-12번지 1층","category":"일반휴게음식 - 일반한식"}]},{"lat":"37.823808231","long":"126.98495895","items":[{"name":"뵈러브(Bhairwa)","tel":"031-837-9990","addr":"경기도 양주시 광적면 가납리 742-11번지 2층 전체","category":"일반휴게음식 - 서양음식"},{"name":"새날반점","tel":"031-855-6422","addr":"경기도 양주시 광적면 가납리 742-11","category":"일반휴게음식 - 일반한식"},{"name":"예쁜강쥐","tel":"031-837-0711","addr":"경기도 양주시 광적면 가납리 742-11번지 1층","category":"문화.취미 - 애완동물"}]},{"lat":"37.810060754","long":"126.99282057","items":[{"name":"부뚜막돌솥밥","tel":"031-837-0411","addr":"경기도 양주시 광적면 가납리 539번지","category":"일반휴게음식 - 일반한식"},{"name":"태기산더덕순대","tel":"031-836-1288","addr":"경기도 양주시 광적면 가납리 539번지","category":"일반휴게음식 - 일반한식"}]},{"lat":"37.828665596","long":"126.99848607","items":[{"name":"불곡산장어양어장","tel":"031-836-9597","addr":"경기도 양주시 광적면 가납리 117","category":"음료식품 - 농·축·수산품"}]},{"lat":"37.822808329","long":"126.98593597","items":[{"name":"불타는생선","tel":"031-829-7959","addr":"경기도 양주시 광적면 가납리 732-13번지","category":"일반휴게음식 - 일반한식"}]},{"lat":"37.820033422","long":"126.9859366","items":[{"name":"비젼C.C","tel":"031-836-2430","addr":"경기도 양주시 광적면 가납리 692-10번지","category":"사무통신 - 컴퓨터"}]},{"lat":"37.817727207","long":"126.98740219","items":[{"name":"빵오레","tel":"031-000-0000","addr":"경기도 양주시 광적면 가납리 666-6번지","category":"음료식품 - 제과점"},{"name":"이주원통닭","tel":"","addr":"경기도 양주시 광적면 가납리 666-6번지 1층 일부","category":"일반휴게음식 - 스넥"}]},{"lat":"37.822006801","long":"126.98826449","items":[{"name":"산골가든","tel":"031-864-7994","addr":"경기도 양주시 광적면 가납리 721-9번지","category":"일반휴게음식 - 스넥"},{"name":"산골가든","tel":"031-837-8375","addr":"경기도 양주시 광적면 가납리 721-9번지","category":"일반휴게음식 - 일반한식"}]},{"lat":"37.824420442","long":"126.98232372","items":[{"name":"삼성영어광적학원","tel":"031-837-3405","addr":"경기도 양주시 광적면 가납리 847-2번지","category":"학원 - 보습학원"}]},{"lat":"37.821863051","long":"126.99196714","items":[{"name":"삼신상사","tel":"031-865-9186","addr":"경기도 양주시 광적면 가납리 380-2","category":"유통업 영리 - 편 의 점"}]},{"lat":"37.813781208","long":"126.98849324","items":[{"name":"삼일산업","tel":"031-837-2364","addr":"경기도 양주시 광적면 가납리 624-1번지","category":"자동차정비 유지 - 자동차부품"}]},{"lat":"37.819889067","long":"126.98457374","items":[{"name":"삼천리자전거광적점","tel":"031-836-5077","addr":"경기도 양주시 광적면 가납리 688-9번지","category":"레져용품 - 스포츠·레져용품"}]},{"lat":"37.823393708","long":"126.98437979","items":[{"name":"삼호식당","tel":"031-855-9023","addr":"경기도 양주시 광적면 가납리 739-17번지","category":"일반휴게음식 - 일반한식"}]},{"lat":"37.821808034","long":"126.98430068","items":[{"name":"생산자직영축산물판매장","tel":"031-836-6689","addr":"경기도 양주시 광적면 가납리 863-3번지","category":"음료식품 - 정육점"},{"name":"현대고기마을","tel":"031-836-6689","addr":"경기도 양주시 광적면 가납리 863-3번지 2층","category":"일반휴게음식 - 일반한식"}]},{"lat":"37.823528981","long":"126.98524296","items":[{"name":"생활꽃공간","tel":"031-836-0289","addr":"경기도 양주시 광적면 가납리 743-7번지 1층","category":"문화.취미 - 화원"},{"name":"쥬비코스르네셀","tel":"031-837-7705","addr":"경기도 양주시 광적면 가납리 743-7번지","category":"회원제형태 - 기타1"}]},{"lat":"37.824889255","long":"126.98426584","items":[{"name":"샤인","tel":"031-826-2607","addr":"경기도 양주시 광적면 가납리 849-1","category":"신변잡화 - 액세서리"},{"name":"한스마트","tel":"031-855-0448","addr":"경기도 양주시 광적면 가납리 849-1","category":"신변잡화 - 기타잡화"}]},{"lat":"37.811673419","long":"126.99251373","items":[{"name":"설악인천메아리전자","tel":"033-636-7664","addr":"경기도 양주시 광적면 가납리 444-38번지 6호 7호","category":"전기제품 - 가전제품"}]},{"lat":"37.821835612","long":"126.98818502","items":[{"name":"성일오토바이센타","tel":"031-836-3514","addr":"경기도 양주시 광적면 가납리 720-2번지","category":"수리서비스 - 기타수리서비스"}]},{"lat":"37.822168817","long":"126.98707189","items":[{"name":"성하네식당","tel":"031-829-0045","addr":"경기도 양주시 광적면 가납리 722-4","category":"일반휴게음식 - 일반한식"},{"name":"크루어타이","tel":"031-111-1111","addr":"경기도 양주시 광적면 가납리 722-4번지 1층","category":"일반휴게음식 - 서양음식"},{"name":"하지레스토랑&할랄푸드","tel":"031-858-7077","addr":"경기도 양주시 광적면 가납리 722-4번지 1층","category":"일반휴게음식 - 서양음식"}]},{"lat":"37.817249567","long":"126.98638016","items":[{"name":"세무사김원조사무소","tel":"031-837-4047","addr":"경기도 양주시 광적면 가납리 654-4번지 거송빌딩 3층","category":"용역 서비스 - 법률회계서비스(개인)"}]},{"lat":"37.821979685","long":"126.98757167","items":[{"name":"세븐일레븐양주가래비점","tel":"","addr":"경기도 양주시 광적면 가납리 722-8번지","category":"유통업 영리 - 편 의 점"},{"name":"슬기건강원","tel":"031-837-7954","addr":"경기도 양주시 광적면 가납리 722-8번지","category":"건강식품 - 기타건강식품"}]},{"lat":"37.825727129","long":"126.98424291","items":[{"name":"세븐일레븐양주광적점","tel":"031-1577-0711","addr":"경기도 양주시 광적면 가납리 851-2번지","category":"유통업 영리 - 편 의 점"},{"name":"하나로","tel":"031-855-1520","addr":"경기도 양주시 광적면 가납리 851-2번지","category":"일반휴게음식 - 일반한식"}]},{"lat":"37.812141695","long":"126.9902992","items":[{"name":"세진유통","tel":"031-878-3356","addr":"경기도 양주시 광적면 가납리 435-11번지 1층","category":"신변잡화 - 기타잡화"}]},{"lat":"37.815528925","long":"126.987573","items":[{"name":"센스당구클럽","tel":"","addr":"경기도 양주시 광적면 가납리 657-3번지 3층","category":"레저업소 - 당 구 장"},{"name":"소풍","tel":"031-855-8839","addr":"경기도 양주시 광적면 가납리 657-3번지","category":"음료식품 - 정육점"},{"name":"소풍","tel":"031-855-8839","addr":"경기도 양주시 광적면 가납리 657-3번지","category":"일반휴게음식 - 일반한식"}]},{"lat":"37.821114579","long":"126.98610672","items":[{"name":"소돼지다먹기","tel":"031-873-6783","addr":"경기도 양주시 광적면 가납리 870-4번지","category":"일반휴게음식 - 일반한식"}]},{"lat":"37.824087332","long":"126.98374357","items":[{"name":"소머리국밥","tel":"031-855-8884","addr":"경기도 양주시 광적면 가납리 736-10번지","category":"일반휴게음식 - 일반한식"}]},{"lat":"37.819419358","long":"126.97794116","items":[{"name":"수다","tel":"031-836-0468","addr":"경기도 양주시 광적면 가납리 910-2번지 1층","category":"일반휴게음식 - 일반한식"},{"name":"진미국대","tel":"031-829-7297","addr":"경기도 양주시 광적면 가납리 910-2번지","category":"일반휴게음식 - 일반한식"}]},{"lat":"37.826141581","long":"126.98435639","items":[{"name":"수제양정순대국","tel":"031-877-6665","addr":"경기도 양주시 광적면 가납리 835-5번지 1층","category":"일반휴게음식 - 일반한식"}]},{"lat":"37.819222342","long":"126.98440355","items":[{"name":"수피자","tel":"031-829-7725","addr":"경기도 양주시 광적면 가납리 685","category":"일반휴게음식 - 스넥"},{"name":"신도시오토바이(BIKE TOP)광백점","tel":"031-829-7766","addr":"경기도 양주시 광적면 가납리 685번지","category":"자동차판매 - 이륜차판매"},{"name":"영재종합설비","tel":"031-836-2811","addr":"경기도 양주시 광적면 가납리 685번지","category":"용역 서비스 - 기타용역서비스"}]},{"lat":"37.820500719","long":"126.97904248","items":[{"name":"숙이네 염소","tel":"031-837-0133","addr":"경기도 양주시 광적면 가납리 909-5번지 1층","category":"일반휴게음식 - 일반한식"}]},{"lat":"37.825060573","long":"126.98516309","items":[{"name":"순헤어샵","tel":"031-855-0798","addr":"경기도 양주시 광적면 가납리 852-3번지","category":"보건위생 - 미용원"}]},{"lat":"37.825447819","long":"126.9841294","items":[{"name":"술집","tel":"034-837-0000","addr":"경기도 양주시 광적면 가납리 850-2번지 1층","category":"일반휴게음식 - 주점"}]},{"lat":"37.820167227","long":"126.97834978","items":[{"name":"숲속마을희망센터협동조합","tel":"031-855-3455","addr":"경기도 양주시 광적면 가납리 909번지 2층","category":"학원 - 기타 교육기관"},{"name":"엄지식당","tel":"","addr":"경기도 양주시 광적면 가납리 909번지","category":"일반휴게음식 - 일반한식"}]},{"lat":"37.822502181","long":"126.9871854","items":[{"name":"시린 (SHIRIN)","tel":"031-123-4567","addr":"경기도 양주시 광적면 가납리 740-9번지","category":"음료식품 - 기타음료식품"},{"name":"중앙공구사","tel":"031-836-3831","addr":"경기도 양주시 광적면 가납리 740-9번지 상가","category":"주방용구 - 주방용구"},{"name":"페리카나","tel":"031-855-6126","addr":"경기도 양주시 광적면 가납리 740-9번지","category":"일반휴게음식 - 스넥"}]},{"lat":"37.823889128","long":"126.98376633","items":[{"name":"시장닭집","tel":"031-836-6660","addr":"경기도 양주시 광적면 가납리 736-5","category":"음료식품 - 정육점"}]},{"lat":"37.819006041","long":"126.98393795","items":[{"name":"신도백석사무기","tel":"031-875-3330","addr":"경기도 양주시 광적면 가납리 682-2번지","category":"사무통신 - 사무용 OA기기"}]},{"lat":"37.822312904","long":"126.98660619","items":[{"name":"신바람포차","tel":"031-877-6882","addr":"경기도 양주시 광적면 가납리 728-9번지 1층","category":"일반휴게음식 - 일반한식"}]},{"lat":"37.822646183","long":"126.98610637","items":[{"name":"신용사진관","tel":"031-829-2933","addr":"경기도 양주시 광적면 가납리 728-10","category":"광학제품 - 사진관"}]},{"lat":"37.81572711","long":"126.98740261","items":[{"name":"신진볼트백화점","tel":"031-837-6800","addr":"경기도 양주시 광적면 가납리 657-12번지","category":"기타 - 기계공구"}]},{"lat":"37.815168583","long":"126.987857","items":[{"name":"신진철물","tel":"031-855-4758","addr":"경기도 양주시 광적면 가납리 657-28번지 1층 3","category":"기타 - 기계공구"}]},{"lat":"37.834224419","long":"126.99873565","items":[{"name":"심호전자냉난방시스템","tel":"031-848-4912","addr":"경기도 양주시 광적면 가납리 224-2번지","category":"전기제품 - 냉열기기"}]},{"lat":"37.814033587","long":"126.9894585","items":[{"name":"씨씨티비(CCTV)하이정보","tel":"031-1544-6045","addr":"경기도 양주시 광적면 가납리 431-1번지 2층","category":"전기제품 - 기타전기제품"},{"name":"애드스토리","tel":"031-836-3700","addr":"경기도 양주시 광적면 가납리 431-1번지","category":"서적문구 - 출판 및 인쇄물"},{"name":"양주창호","tel":"031-837-3839","addr":"경기도 양주시 광적면 가납리 431-1번지 104호","category":"건축자재 - 기타건축자재"},{"name":"양주타일","tel":"031-836-9352","addr":"경기도 양주시 광적면 가납리 431-1번지 1층","category":"건축자재 - 건축용 요업제품"},{"name":"하이정보","tel":"031-879-6448","addr":"경기도 양주시 광적면 가납리 431-1번지 주훈빌딩 202호","category":"전기제품 - 기타전기제품"}]},{"lat":"37.824645997","long":"126.98424318","items":[{"name":"씨유양주광적중앙점","tel":"031-878-8205","addr":"경기도 양주시 광적면 가납리 849-3번지","category":"유통업 영리 - 편 의 점"}]},{"lat":"37.836998918","long":"126.99232843","items":[{"name":"아림산업","tel":"070-4282-2467","addr":"경기도 양주시 광적면 가납리 271-3번지","category":"의류 - 정장"}]},{"lat":"37.825141348","long":"126.98320946","items":[{"name":"아모레/김창순","tel":"031-855-6831","addr":"경기도 양주시 광적면 가납리 839-1번지 성내빌딩 5층","category":"보건위생 - 화장품"},{"name":"아모레/이금자","tel":"031-855-6831","addr":"경기도 양주시 광적면 가납리 839-1번지 성내빌딩 5층","category":"보건위생 - 화장품"},{"name":"아모레카운셀러","tel":"031-856-6831","addr":"경기도 양주시 광적면 가납리 839-1번지 성내빌딩 5층","category":"보건위생 - 화장품"},{"name":"아모레카운셀러","tel":"031-855-6831","addr":"경기도 양주시 광적면 가납리 839-1번지 성내빌딩 5층","category":"보건위생 - 화장품"},{"name":"아모레카운셀러","tel":"031-855-6831","addr":"경기도 양주시 광적면 가납리 839-1번지 성내빌딩 5층","category":"보건위생 - 화장품"},{"name":"아모레카운셀러","tel":"031-855-6831","addr":"경기도 양주시 광적면 가납리 839-1번지 성내빌딩 5층","category":"보건위생 - 화장품"},{"name":"아모레카운셀러","tel":"031-855-6831","addr":"경기도 양주시 광적면 가납리 839-1번지 성내빌딩 5층","category":"보건위생 - 화장품"},{"name":"아모레카운셀러","tel":"031-855-6831","addr":"경기도 양주시 광적면 가납리 839-1번지 성내빌딩 5층","category":"보건위생 - 화장품"},{"name":"아모레카운셀러","tel":"031-855-6831","addr":"경기도 양주시 광적면 가납리 839-1번지 성내빌딩 5층","category":"보건위생 - 화장품"},{"name":"아모레카운셀러","tel":"031-855-6831","addr":"경기도 양주시 광적면 가납리 839-1번지 성내빌딩 5층","category":"보건위생 - 화장품"},{"name":"아모레카운셀러","tel":"031-855-6831","addr":"경기도 양주시 광적면 가납리 839-1번지 성내빌딩 5층","category":"보건위생 - 화장품"},{"name":"아모레카운셀러","tel":"031-878-5413","addr":"경기도 양주시 광적면 가납리 839-1번지 5층","category":"보건위생 - 화장품"},{"name":"아모레카운셀러","tel":"031-855-6831","addr":"경기도 양주시 광적면 가납리 839-1번지 성내빌딩 5층","category":"보건위생 - 화장품"},{"name":"아모레카운셀러","tel":"031-855-6831","addr":"경기도 양주시 광적면 가납리 839-1번지 성내빌딩 5층","category":"보건위생 - 화장품"},{"name":"아모레카운셀러","tel":"031-855-6831","addr":"경기도 양주시 광적면 가납리 839-1번지 성내빌딩 5층","category":"보건위생 - 화장품"},{"name":"아모레카운셀러","tel":"031-855-6831","addr":"경기도 양주시 광적면 가납리 839-1번지 성내빌딩 5층","category":"보건위생 - 화장품"},{"name":"아모레카운셀러","tel":"031-855-6831","addr":"경기도 양주시 광적면 가납리 839-1번지 성내빌딩 5층","category":"보건위생 - 화장품"},{"name":"아모레카운셀러","tel":"031-855-6831","addr":"경기도 양주시 광적면 가납리 839-1번지 성내빌딩 5층","category":"보건위생 - 화장품"},{"name":"아모레카운셀러","tel":"031-855-6831","addr":"경기도 양주시 광적면 가납리 839-1번지 성내빌딩 5층","category":"보건위생 - 화장품"},{"name":"아모레카운셀러","tel":"031-855-6831","addr":"경기도 양주시 광적면 가납리 839-1번지 성내빌딩 5층","category":"보건위생 - 화장품"},{"name":"아모레카운셀러","tel":"031-855-6831","addr":"경기도 양주시 광적면 가납리 839-1번지 성내빌딩 5층 아모레","category":"보건위생 - 화장품"},{"name":"아모레카운셀러/김정은","tel":"031-855-6831","addr":"경기도 양주시 광적면 가납리 839-1번지 성내빌딩 5층","category":"보건위생 - 화장품"},{"name":"아모레카운셀러/최창숙","tel":"031-855-6831","addr":"경기도 양주시 광적면 가납리 839-1번지 성내빌딩 5층","category":"보건위생 - 화장품"},{"name":"아이비스PC 양주광적점","tel":"070-5020-5314","addr":"경기도 양주시 광적면 가납리 839-1번지 2층","category":"레저업소 - 기타레져업소"},{"name":"오성당구클럽","tel":"031-878-4939","addr":"경기도 양주시 광적면 가납리 839-1번지 3층","category":"레저업소 - 당 구 장"}]},{"lat":"37.816312677","long":"126.98705043","items":[{"name":"아토가구","tel":"031-876-6622","addr":"경기도 양주시 광적면 가납리 657-1번지","category":"가구 - 일반가구"}]},{"lat":"37.825033481","long":"126.98474284","items":[{"name":"아향옹기해물수제비","tel":"031-826-4569","addr":"경기도 양주시 광적면 가납리 850-7번지 1층 전체","category":"일반휴게음식 - 일반한식"},{"name":"카라","tel":"031-876-6029","addr":"경기도 양주시 광적면 가납리 850-7","category":"의류 - 정장"}]},{"lat":"37.813447944","long":"126.98920876","items":[{"name":"안성상가","tel":"031-836-5212","addr":"경기도 양주시 광적면 가납리 626-2번지","category":"기타 - 기계공구"}]},{"lat":"37.83244945","long":"126.99627077","items":[{"name":"알리수빈주식회사","tel":"031-894-7288","addr":"경기도 양주시 광적면 가납리 193번지","category":"음료식품 - 기타음료식품"},{"name":"우정기계","tel":"031-836-8522","addr":"경기도 양주시 광적면 가납리 193번지","category":"기타 - 기계공구"}]},{"lat":"37.822222813","long":"126.98662892","items":[{"name":"얌전히닭발.포차","tel":"031-855-7477","addr":"경기도 양주시 광적면 가납리 727번지","category":"일반휴게음식 - 일반한식"}]},{"lat":"37.825970441","long":"126.98460632","items":[{"name":"양말천국","tel":"","addr":"경기도 양주시 광적면 가납리 853-2번지 1층 우측 1 칸","category":"의류 - 기타의류"},{"name":"울엄마칼국수","tel":"031-826-2344","addr":"경기도 양주시 광적면 가납리 853-2번지","category":"일반휴게음식 - 일반한식"}]},{"lat":"37.82506147","long":"126.99273902","items":[{"name":"양주 광적성","tel":"031-855-0010","addr":"경기도 양주시 광적면 가납리 354-16번지","category":"일반휴게음식 - 중국식"}]},{"lat":"37.823609731","long":"126.98313036","items":[{"name":"양주골 흑돼지","tel":"031-877-1872","addr":"경기도 양주시 광적면 가납리 845-4번지 1층","category":"일반휴게음식 - 일반한식"},{"name":"양주파머스마켓","tel":"","addr":"경기도 양주시 광적면 가납리 845-4번지","category":"음료식품 - 농·축·수산품"}]},{"lat":"37.82225","long":"126.98782149","items":[{"name":"양주돼지국밥","tel":"031-855-1143","addr":"경기도 양주시 광적면 가납리 721-6번지 1층","category":"일반휴게음식 - 일반한식"},{"name":"양주아나바다","tel":"031-876-1143","addr":"경기도 양주시 광적면 가납리 721-6번지","category":"신변잡화 - 기타잡화"}]},{"lat":"37.824808018","long":"126.98332313","items":[{"name":"양주스포츠","tel":"031-852-1954","addr":"경기도 양주시 광적면 가납리 848-1번지","category":"의류 - 스포츠의류"},{"name":"연주헤어샵","tel":"031-829-1812","addr":"경기도 양주시 광적면 가납리 848-1번지 1층","category":"보건위생 - 미용원"},{"name":"음주구역","tel":"031-877-5656","addr":"경기도 양주시 광적면 가납리 848-1번지","category":"일반휴게음식 - 주점"},{"name":"토평한우소곱창","tel":"031-829-9885","addr":"경기도 양주시 광적면 가납리 848-1번지","category":"일반휴게음식 - 일반한식"},{"name":"호구의족발보쌈 (양주점)","tel":"031-876-1599","addr":"경기도 양주시 광적면 가납리 848-1번지 1층","category":"일반휴게음식 - 일반한식"}]},{"lat":"37.819754628","long":"126.98985497","items":[{"name":"양주실버케어센터","tel":"031-836-9803","addr":"경기도 양주시 광적면 가납리 394-4번지","category":"기타의료기관 - 기타의료기관 및 기타"}]},{"lat":"37.822502087","long":"126.98649257","items":[{"name":"양주한우마을정육점","tel":"031-855-9282","addr":"경기도 양주시 광적면 가납리 728-2번지 1층","category":"음료식품 - 정육점"},{"name":"짜오프라야","tel":"031-999-8888","addr":"경기도 양주시 광적면 가납리 728-2번지 2층","category":"일반휴게음식 - 서양음식"}]},{"lat":"37.821223145","long":"126.98966163","items":[{"name":"양지 김치말이 국수","tel":"031-840-0332","addr":"경기도 양주시 광적면 가납리 384-1번지 가동 1층","category":"일반휴게음식 - 일반한식"}]},{"lat":"37.819979258","long":"126.98520974","items":[{"name":"연세의원","tel":"031-836-8412","addr":"경기도 양주시 광적면 가납리 873-6","category":"의원 - 의원"}]},{"lat":"37.809394222","long":"126.99502369","items":[{"name":"열린가공","tel":"031-879-9660","addr":"경기도 양주시 광적면 가납리 482-1번지","category":"기타 - 기계공구"},{"name":"옛날집","tel":"031-862-8970","addr":"경기도 양주시 광적면 가납리 482-1번지","category":"일반휴게음식 - 일반한식"},{"name":"전주한방콩나물국밥","tel":"031-829-0530","addr":"경기도 양주시 광적면 가납리 482-1번지","category":"일반휴게음식 - 일반한식"},{"name":"필사운드카오디오","tel":"031-836-8838","addr":"경기도 양주시 광적면 가납리 482-1","category":"자동차정비 유지 - 자동차부품"}]},{"lat":"37.833476637","long":"126.99873569","items":[{"name":"예다움","tel":"031-855-0070","addr":"경기도 양주시 광적면 가납리 222-6번지","category":"일반휴게음식 - 일반한식"}]},{"lat":"37.824366337","long":"126.98205114","items":[{"name":"오븐에빠진닭","tel":"031-855-5892","addr":"경기도 양주시 광적면 가납리 842-5번지","category":"일반휴게음식 - 스넥"}]},{"lat":"37.822727263","long":"126.98607228","items":[{"name":"오빠","tel":"031-837-5850","addr":"경기도 양주시 광적면 가납리 728-4번지 1층","category":"일반휴게음식 - 일반한식"}]},{"lat":"37.815393801","long":"126.98770931","items":[{"name":"와이엔케이로지스(Y&K Logis)","tel":"00-1544-9525","addr":"경기도 양주시 광적면 가납리 658-10번지 외1필지","category":"기타 - 기타 전문점"}]},{"lat":"37.819699869","long":"126.98457379","items":[{"name":"와이제이(YJ)","tel":"031-855-3417","addr":"경기도 양주시 광적면 가납리 688-10번지 1층","category":"레저업소 - 테니스장"},{"name":"힐링스크린골프","tel":"070-8268-0753","addr":"경기도 양주시 광적면 가납리 688-10번지 2층","category":"레저업소 - 스크린골프"}]},{"lat":"37.821556041","long":"126.98610662","items":[{"name":"우리헤어샵","tel":"070-7433-0565","addr":"경기도 양주시 광적면 가납리 871-1번지 1층 1호","category":"보건위생 - 미용원"},{"name":"포차어게인","tel":"031-892-8991","addr":"경기도 양주시 광적면 가납리 871-1번지","category":"일반휴게음식 - 주점"}]},{"lat":"37.821394346","long":"126.98985468","items":[{"name":"우정대리점","tel":"","addr":"경기도 양주시 광적면 가납리 384-18번지","category":"자동차정비 유지 - 자동차시트·타이어"},{"name":"중앙모타","tel":"","addr":"경기도 양주시 광적면 가납리 384-18번지","category":"수리서비스 - 기타수리서비스"},{"name":"중앙모타","tel":"031-855-1458","addr":"경기도 양주시 광적면 가납리 384-18번지","category":"수리서비스 - 기타수리서비스"}]},{"lat":"37.823807971","long":"126.98332339","items":[{"name":"원일식자재","tel":"031-851-9628","addr":"경기도 양주시 광적면 가납리 845-6번지","category":"음료식품 - 기타음료식품"}]},{"lat":"37.824087578","long":"126.98532234","items":[{"name":"월드푸드인태국슈퍼","tel":"031-836-1066","addr":"경기도 양주시 광적면 가납리 742-7","category":"음료식품 - 기타음료식품"}]},{"lat":"37.822366614","long":"126.98426647","items":[{"name":"유가네사철탕","tel":"031-855-5654","addr":"경기도 양주시 광적면 가납리 861-6번지","category":"일반휴게음식 - 일반한식"}]},{"lat":"37.824339505","long":"126.98318695","items":[{"name":"윤성(오리랑닭이랑)","tel":"031-866-5990","addr":"경기도 양주시 광적면 가납리 846-7번지","category":"음료식품 - 정육점"}]},{"lat":"37.824835137","long":"126.98387967","items":[{"name":"이안컴퓨터","tel":"031-878-4546","addr":"경기도 양주시 광적면 가납리 848-4","category":"사무통신 - 컴퓨터"}]},{"lat":"37.813980016","long":"126.99477336","items":[{"name":"이엠텍(EMTech)","tel":"031-837-7655","addr":"경기도 양주시 광적면 가납리 463-6번지 A동","category":"기타 - 기계공구"}]},{"lat":"37.824276667","long":"126.98460673","items":[{"name":"이종훈치과","tel":"031-837-0102","addr":"경기도 양주시 광적면 가납리 738-42","category":"의원 - 치과의원"},{"name":"한사랑의원","tel":"031-879-5297","addr":"경기도 양주시 광적면 가납리 738-42번지 수국빌딩 2층","category":"의원 - 의원"}]},{"lat":"37.823447685","long":"126.98388003","items":[{"name":"이한우육류도소매센터","tel":"031-855-3712","addr":"경기도 양주시 광적면 가납리 735-3번지 (외1)","category":"음료식품 - 정육점"}]},{"lat":"37.821393616","long":"126.98440301","items":[{"name":"일미해물칼국수","tel":"031-855-7880","addr":"경기도 양주시 광적면 가납리 865-4번지","category":"일반휴게음식 - 일반한식"}]},{"lat":"37.821862577","long":"126.98768527","items":[{"name":"일차돌 광적점","tel":"031-829-4915","addr":"경기도 양주시 광적면 가납리 722-9번지","category":"일반휴게음식 - 일반한식"},{"name":"최윤호치과의원","tel":"031-837-8221","addr":"경기도 양주시 광적면 가납리 722-9번지","category":"의원 - 치과의원"}]},{"lat":"37.823834953","long":"126.98305079","items":[{"name":"장원숯불갈비","tel":"031-829-8864","addr":"경기도 양주시 광적면 가납리 845-1번지 1층","category":"일반휴게음식 - 일반한식"}]},{"lat":"37.823276527","long":"126.98401637","items":[{"name":"장터방앗간","tel":"031-836-3213","addr":"경기도 양주시 광적면 가납리 735-7번지","category":"음료식품 - 제과점"}]},{"lat":"37.810033813","long":"126.99391074","items":[{"name":"재영전기","tel":"031-873-1200","addr":"경기도 양주시 광적면 가납리 498-6번지","category":"전기제품 - 기타전기제품"}]},{"lat":"37.826673066","long":"126.98391328","items":[{"name":"전쟁터","tel":"","addr":"경기도 양주시 광적면 가납리 835-11번지","category":"일반휴게음식 - 일반한식"}]},{"lat":"37.827782393","long":"126.9936587","items":[{"name":"정가네기사식당","tel":"031-858-8865","addr":"경기도 양주시 광적면 가납리 337-9번지","category":"일반휴게음식 - 일반한식"}]},{"lat":"37.822168932","long":"126.9879578","items":[{"name":"제이바버샵","tel":"031-000-0000","addr":"경기도 양주시 광적면 가납리 721-7번지","category":"보건위생 - 미용원"}]},{"lat":"37.811312909","long":"126.99110563","items":[{"name":"좋은식당","tel":"000-0000-0000","addr":"경기도 양주시 광적면 가납리 510-3번지","category":"일반휴게음식 - 일반한식"}]},{"lat":"37.823889391","long":"126.98545868","items":[{"name":"주식회사 세계로디앤씨","tel":"031-826-3032","addr":"경기도 양주시 광적면 가납리 742-8번지 1층 3호","category":"건축자재 - 부동산 분양"}]},{"lat":"37.823971434","long":"126.99404535","items":[{"name":"주식회사 신덕아이앤씨","tel":"070-4651-1761","addr":"경기도 양주시 광적면 가납리 367-21번지","category":"의류 - 아동의류"}]},{"lat":"37.817727618","long":"126.99093425","items":[{"name":"주식회사 양주라이노스","tel":"031-873-0991","addr":"경기도 양주시 광적면 가납리 406-2번지","category":"용역 서비스 - 사무서비스"}]},{"lat":"37.819646389","long":"126.98876468","items":[{"name":"주식회사 카즈","tel":"031-836-7337","addr":"경기도 양주시 광적면 가납리 397번지","category":"자동차정비 유지 - 자동차부품"}]},{"lat":"37.807285315","long":"126.98788131","items":[{"name":"주식회사 한일전기","tel":"02-318-6277","addr":"경기도 양주시 광적면 가납리 583-2번지","category":"전기제품 - 기타전기제품"},{"name":"주식회사 화승이앤씨","tel":"031-871-6177","addr":"경기도 양주시 광적면 가납리 583-2번지","category":"전기제품 - 기타전기제품"}]},{"lat":"37.810421216","long":"126.99385391","items":[{"name":"주식회사경기종합약품","tel":"031-879-4000","addr":"경기도 양주시 광적면 가납리 504-10번지","category":"약국 - 제약회사"}]},{"lat":"37.811060779","long":"126.99254789","items":[{"name":"준성유통","tel":"031-836-3802","addr":"경기도 양주시 광적면 가납리 506-3번지","category":"음료식품 - 기타음료식품"}]},{"lat":"37.820447775","long":"126.98537999","items":[{"name":"지운미쟝","tel":"031-877-3940","addr":"경기도 양주시 광적면 가납리 869-7번지","category":"보건위생 - 미용원"}]},{"lat":"37.821222398","long":"126.98415318","items":[{"name":"지호한방삼계탕","tel":"","addr":"경기도 양주시 광적면 가납리 864-2번지","category":"일반휴게음식 - 일반한식"}]},{"lat":"37.827503245","long":"126.99573736","items":[{"name":"진남엔지니어링","tel":"031-40-9142","addr":"경기도 양주시 광적면 가납리 104번지","category":"건축자재 - 보일러·펌프·샷시"}]},{"lat":"37.817447751","long":"126.98620976","items":[{"name":"진원비니루","tel":"031-836-0181","addr":"경기도 양주시 광적면 가납리 654-21번지","category":"농업 - 기타농업관련"},{"name":"한신콤프레샤","tel":"031-837-1571","addr":"경기도 양주시 광적면 가납리 654-21번지","category":"기타 - 기계공구"}]},{"lat":"37.837224541","long":"126.99838332","items":[{"name":"차차차","tel":"031-855-7598","addr":"경기도 양주시 광적면 가납리 245-54번지","category":"자동차정비 유지 - 자동차정비"}]},{"lat":"37.824754105","long":"126.98420908","items":[{"name":"처갓집치킨","tel":"031-836-9191","addr":"경기도 양주시 광적면 가납리 849-2번지","category":"일반휴게음식 - 일반한식"}]},{"lat":"37.818529008","long":"126.98710674","items":[{"name":"천마특장산업","tel":"031-836-5223","addr":"경기도 양주시 광적면 가납리 674-1번지","category":"자동차정비 유지 - 자동차정비"}]},{"lat":"37.824033076","long":"126.98255098","items":[{"name":"청계식당","tel":"031-836-5800","addr":"경기도 양주시 광적면 가납리 846-3","category":"일반휴게음식 - 일반한식"}]},{"lat":"37.82375372","long":"126.9821876","items":[{"name":"청진도가니탕","tel":"031-836-4132","addr":"경기도 양주시 광적면 가납리 843-8번지 1층","category":"일반휴게음식 - 일반한식"}]},{"lat":"37.822366987","long":"126.98679926","items":[{"name":"총각네야채슈퍼","tel":"031-829-9010","addr":"경기도 양주시 광적면 가납리 728-3번지","category":"유통업 영리 - 슈퍼마켓"}]},{"lat":"37.835197488","long":"127.00067812","items":[{"name":"친정엄마","tel":"031-855-6692","addr":"경기도 양주시 광적면 가납리 28번지","category":"일반휴게음식 - 일반한식"}]},{"lat":"37.822420986","long":"126.98637901","items":[{"name":"카라미용실","tel":"031-837-1215","addr":"경기도 양주시 광적면 가납리 728-17번지","category":"보건위생 - 미용원"}]},{"lat":"37.809889409","long":"126.99104907","items":[{"name":"카스전자저울 경기점","tel":"031-767-7760","addr":"경기도 양주시 광적면 가납리 537-6번지","category":"주방용구 - 주방용구"}]},{"lat":"37.821979558","long":"126.98662898","items":[{"name":"카페알도","tel":"031-878-1331","addr":"경기도 양주시 광적면 가납리 702-9번지 1층","category":"일반휴게음식 - 서양음식"}]},{"lat":"37.823222678","long":"126.98535662","items":[{"name":"커피마마 양주점","tel":"031-855-6976","addr":"경기도 양주시 광적면 가납리 732-28번지","category":"일반휴게음식 - 일반한식"}]},{"lat":"37.827278192","long":"127.00004227","items":[{"name":"케이 에이치 트레이드 (KH Trade)","tel":"","addr":"경기도 양주시 광적면 가납리 114-2번지","category":"건축자재 - 인테리어전문"}]},{"lat":"37.822943541","long":"126.98643568","items":[{"name":"코리아노래연습장","tel":"031-836-6564","addr":"경기도 양주시 광적면 가납리 740-6번지 2층","category":"레저업소 - 노 래 방"}]},{"lat":"37.828143131","long":"127.00257523","items":[{"name":"콘보이(CONVOY)","tel":"031-1111-1111","addr":"경기도 양주시 광적면 가납리 79-6번지","category":"자동차정비 유지 - 자동차부품"}]},{"lat":"37.823610037","long":"126.98504986","items":[{"name":"쿨보이","tel":"031-855-6216","addr":"경기도 양주시 광적면 가납리 743-6번지 1층 일부","category":"보건위생 - 미용원"}]},{"lat":"37.824033425","long":"126.9846863","items":[{"name":"크린크린빨래방","tel":"031-836-4491","addr":"경기도 양주시 광적면 가납리 744-1","category":"수리서비스 - 세탁소"}]},{"lat":"37.81022312","long":"126.99546648","items":[{"name":"큰길장례문화원","tel":"031-872-4444","addr":"경기도 양주시 광적면 가납리 495-2번지 지하1층,1층 일부","category":"용역 서비스 - 가례서비스업"}]},{"lat":"37.823087565","long":"126.98554973","items":[{"name":"탑텔레콤","tel":"031-876-3700","addr":"경기도 양주시 광적면 가납리 732-45번지","category":"사무통신 - 통신기기"}]},{"lat":"37.812835104","long":"126.98760763","items":[{"name":"태광산업전기","tel":"031-836-0660","addr":"경기도 양주시 광적면 가납리 619-3번지","category":"건축자재 - 기타건축자재"}]},{"lat":"37.83635972","long":"127.00201855","items":[{"name":"태양크리스탈","tel":"031-837-7034","addr":"경기도 양주시 광적면 가납리 26-1","category":"음료식품 - 기타음료식품"}]},{"lat":"37.822555688","long":"126.98349409","items":[{"name":"티샷골프","tel":"031-879-0010","addr":"경기도 양주시 광적면 가납리 860-2번지","category":"레져용품 - 골프용품 전문점"}]},{"lat":"37.835557874","long":"127.00126882","items":[{"name":"평화서비스","tel":"031-878-8674","addr":"경기도 양주시 광적면 가납리 27번지","category":"자동차정비 유지 - 자동차부품"},{"name":"평화용접","tel":"031-855-4014","addr":"경기도 양주시 광적면 가납리 27번지","category":"용역 서비스 - 기타용역서비스"}]},{"lat":"37.820835402","long":"126.98693588","items":[{"name":"평화포장비니루","tel":"031-879-8945","addr":"경기도 양주시 광적면 가납리 872-6번지","category":"기타 - 기타 전문점"}]},{"lat":"37.825195461","long":"126.98355019","items":[{"name":"포동리한우","tel":"031-829-3766","addr":"경기도 양주시 광적면 가납리 839-4번지","category":"일반휴게음식 - 일반한식"}]},{"lat":"37.824222699","long":"126.98518601","items":[{"name":"포장마차","tel":"","addr":"경기도 양주시 광적면 가납리 742-5번지","category":"일반휴게음식 - 일반한식"}]},{"lat":"37.816582945","long":"126.9869368","items":[{"name":"푸른 정보통신","tel":"031-826-5557","addr":"경기도 양주시 광적면 가납리 657-7번지","category":"사무통신 - 통신기기"}]},{"lat":"37.821781506","long":"126.98779887","items":[{"name":"푸짐한한정식밥상","tel":"031-836-1179","addr":"경기도 양주시 광적면 가납리 722-10번지","category":"일반휴게음식 - 일반한식"}]},{"lat":"37.820754616","long":"126.98932099","items":[{"name":"풍천장어랑 힐링하세요","tel":"031-872-1597","addr":"경기도 양주시 광적면 가납리 384-23번지 1층","category":"일반휴게음식 - 일반한식"}]},{"lat":"37.812222863","long":"126.99110548","items":[{"name":"프로현대공업사","tel":"031-866-4104","addr":"경기도 양주시 광적면 가납리 445-4번지","category":"자동차정비 유지 - 자동차정비"}]},{"lat":"37.827530233","long":"126.99510127","items":[{"name":"한강퍼니처","tel":"031-836-4766","addr":"경기도 양주시 광적면 가납리 102-1번지","category":"주방용구 - 주방용구"}]},{"lat":"37.826754282","long":"126.98474242","items":[{"name":"한소담","tel":"031-876-5816","addr":"경기도 양주시 광적면 가납리 834-8번지","category":"음료식품 - 제과점"}]},{"lat":"37.818699271","long":"126.98132587","items":[{"name":"한일보습학원","tel":"031-836-1582","addr":"경기도 양주시 광적면 가납리 907-7번지 3층","category":"학원 - 보습학원"}]},{"lat":"37.809925642","long":"126.99318398","items":[{"name":"해성 오토카","tel":"031-855-2468","addr":"경기도 양주시 광적면 가납리 548-2번지 1층","category":"자동차정비 유지 - 카인테리어"},{"name":"해성오토카","tel":"031-855-2468","addr":"경기도 양주시 광적면 가납리 548-2번지 1층","category":"자동차정비 유지 - 자동차정비"}]},{"lat":"37.831332405","long":"126.99904251","items":[{"name":"해오름","tel":"031-861-7282","addr":"경기도 양주시 광적면 가납리 164-5번지 1층","category":"일반휴게음식 - 일반한식"}]},{"lat":"37.827503391","long":"126.99879282","items":[{"name":"행복미트앤피플(주)","tel":"031-878-5555","addr":"경기도 양주시 광적면 가납리 111","category":"음료식품 - 정육점"}]},{"lat":"37.814393962","long":"126.98943572","items":[{"name":"혜성리싸이클","tel":"","addr":"경기도 양주시 광적면 가납리 431-8번지","category":"신변잡화 - 기타잡화"}]},{"lat":"37.820500652","long":"126.97871311","items":[{"name":"호안시멘트","tel":"031-877-3361","addr":"경기도 양주시 광적면 가납리 909-3번지,909-4,909-11","category":"건축자재 - 기타건축자재"}]},{"lat":"37.823312534","long":"126.98382327","items":[{"name":"화성식당","tel":"031-836-3167","addr":"경기도 양주시 광적면 가납리 761-14번지","category":"일반휴게음식 - 일반한식"}]},{"lat":"37.824420915","long":"126.98524275","items":[{"name":"황도야지 얼큰집","tel":"031-836-7434","addr":"경기도 양주시 광적면 가납리 742-4번지","category":"일반휴게음식 - 일반한식"}]},{"lat":"37.818726984","long":"126.9854599","items":[{"name":"효성모타","tel":"031-836-0321","addr":"경기도 양주시 광적면 가납리 677-4번지","category":"수리서비스 - 기타수리서비스"}]},{"lat":"37.823006583","long":"126.9862653","items":[{"name":"히말라야키친","tel":"031-829-6618","addr":"경기도 양주시 광적면 가납리 740-5번지 2층","category":"일반휴게음식 - 서양음식"}]}]