[{"lat":"37.479861971","long":"127.5647535","items":[{"name":"(주)동양","tel":"070-4100-8552","addr":"경기도 양평군 용문면 삼성리 831-2","category":"농업 - 농기계"}]},{"lat":"37.479587424","long":"127.58608507","items":[{"name":"LW기업","tel":"070-8282-8097","addr":"경기도 양평군 용문면 삼성리 산49-2번지","category":"레저업소 - 기타레져업소"},{"name":"지원완구","tel":"031-775-9911","addr":"경기도 양평군 용문면 삼성리 산49-2번지 양평레일바이크","category":"서적문구 - 완구점"}]},{"lat":"37.478887331","long":"127.57633432","items":[{"name":"SN기숙학원","tel":"031-771-0300","addr":"경기도 양평군 용문면 삼성리 304번지","category":"음료식품 - 기타음료식품"},{"name":"에스엔","tel":"031-771-0300","addr":"경기도 양평군 용문면 삼성리 304번지 SN독학기숙학원 매점","category":"음료식품 - 기타음료식품"}]},{"lat":"37.474388335","long":"127.57324765","items":[{"name":"대신천막기업","tel":"031-773-8654","addr":"경기도 양평군 용문면 삼성리 417번지","category":"직물 - 카페트,커튼,천막,지물"}]},{"lat":"37.466420731","long":"127.56633714","items":[{"name":"들꽃향기머무는곳(민박)","tel":"031-772-6195","addr":"경기도 양평군 용문면 삼성리 549-1번지 나동","category":"숙박업 - 여관/기타숙박업"}]},{"lat":"37.482862945","long":"127.55697478","items":[{"name":"롯데칠성(주)양평대리점","tel":"031-774-0703","addr":"경기도 양평군 용문면 삼성리 852번지","category":"음료식품 - 기타음료식품"}]},{"lat":"37.474226032","long":"127.56386345","items":[{"name":"맑은물펜션","tel":"031-772-5350","addr":"경기도 양평군 용문면 삼성리 710-7번지","category":"숙박업 - 여관/기타숙박업"}]},{"lat":"37.481919898","long":"127.57524951","items":[{"name":"맛고은집","tel":"031-774-2681","addr":"경기도 양평군 용문면 삼성리 281-6번지 1층","category":"일반휴게음식 - 일반한식"}]},{"lat":"37.481305773","long":"127.57555008","items":[{"name":"배양리 두루치기","tel":"031-775-2272","addr":"경기도 양평군 용문면 삼성리 283-1번지","category":"일반휴게음식 - 일반한식"}]},{"lat":"37.469806261","long":"127.56300522","items":[{"name":"별내체험마을협동조합","tel":"070-8868-5456","addr":"경기도 양평군 용문면 삼성리 654-1번지","category":"음료식품 - 농·축·수산품"},{"name":"별내체험마을협동조합(체험농장)","tel":"070-8868-5456","addr":"경기도 양평군 용문면 삼성리 654-1번지","category":"레저업소 - 기타레져업소"}]},{"lat":"37.483946051","long":"127.57546848","items":[{"name":"비앤비모텔","tel":"031-775-5547","addr":"경기도 양평군 용문면 삼성리 246-1번지 1층","category":"숙박업 - 여관/기타숙박업"},{"name":"비앤비모텔","tel":"031-774-5547","addr":"경기도 양평군 용문면 삼성리 246-1번지","category":"숙박업 - 여관/기타숙박업"}]},{"lat":"37.467444678","long":"127.56511271","items":[{"name":"산과강","tel":"031-773-8913","addr":"경기도 양평군 용문면 삼성리 568-1번지","category":"숙박업 - 여관/기타숙박업"}]},{"lat":"37.484473826","long":"127.57810688","items":[{"name":"새천년낚시","tel":"031-771-6720","addr":"경기도 양평군 용문면 삼성리 220-17번지","category":"레져용품 - 스포츠·레져용품"},{"name":"여기가좋겠네 주유소","tel":"031-772-7382","addr":"경기도 양평군 용문면 삼성리 220-17번지","category":"연료판매점 - SK주유소"}]},{"lat":"37.484224641","long":"127.57747181","items":[{"name":"세븐일레븐양평여기가좋겠네점","tel":"031-1577-0711","addr":"경기도 양평군 용문면 삼성리 220-2번지","category":"유통업 영리 - 편 의 점"}]},{"lat":"37.480414369","long":"127.56794585","items":[{"name":"수진원농장","tel":"031-773-3747","addr":"경기도 양평군 용문면 삼성리 810-5","category":"음료식품 - 기타음료식품"}]},{"lat":"37.466834793","long":"127.56641937","items":[{"name":"아나톨레펜션","tel":"031-775-7114","addr":"경기도 양평군 용문면 삼성리 542번지","category":"숙박업 - 여관/기타숙박업"}]},{"lat":"37.482920403","long":"127.57330119","items":[{"name":"양평SN유스호스텔","tel":"031-771-7300","addr":"경기도 양평군 용문면 삼성리 268-1번지","category":"숙박업 - 여관/기타숙박업"},{"name":"양평매점","tel":"","addr":"경기도 양평군 용문면 삼성리 268-1번지","category":"음료식품 - 기타음료식품"},{"name":"이투스투포세븐기숙학원 양평점","tel":"031-567-0247","addr":"경기도 양평군 용문면 삼성리 268-1번지","category":"학원 - 보습학원"}]},{"lat":"37.474469021","long":"127.56392179","items":[{"name":"양평야생화","tel":"031-772-1652","addr":"경기도 양평군 용문면 삼성리 711-7번지","category":"문화.취미 - 화원"}]},{"lat":"37.484107627","long":"127.5774483","items":[{"name":"여기가좋겠네휴게소 의류매장","tel":"031-775-0783","addr":"경기도 양평군 용문면 삼성리 220-1","category":"의류 - 정장"}]},{"lat":"37.47905343","long":"127.58474687","items":[{"name":"용문현대모터스","tel":"031-774-3600","addr":"경기도 양평군 용문면 삼성리 133-3번지","category":"자동차정비 유지 - 자동차정비"}]},{"lat":"37.472276662","long":"127.5588297","items":[{"name":"우영농장","tel":"031-0000-0000","addr":"경기도 양평군 용문면 삼성리 733번지","category":"음료식품 - 농·축·수산품"}]},{"lat":"37.476778448","long":"127.57085781","items":[{"name":"울프캠프","tel":"031-775-2409","addr":"경기도 양평군 용문면 삼성리 796번지","category":"음료식품 - 기타음료식품"}]},{"lat":"37.473224765","long":"127.56789172","items":[{"name":"윤설화","tel":"070-7783-9919","addr":"경기도 양평군 용문면 삼성리 495-3번지","category":"신변잡화 - 기타잡화"}]},{"lat":"37.473278555","long":"127.56606078","items":[{"name":"자연농원","tel":"031-774-1825","addr":"경기도 양평군 용문면 삼성리 692-3번지","category":"일반휴게음식 - 일반한식"}]},{"lat":"37.467253756","long":"127.565473","items":[{"name":"토브의강가펜션","tel":"031-771-5590","addr":"경기도 양평군 용문면 삼성리 576-5번지","category":"숙박업 - 여관/기타숙박업"}]},{"lat":"37.478444445","long":"127.58582747","items":[{"name":"행복한뜰","tel":"031-773-0101","addr":"경기도 양평군 용문면 삼성리 118","category":"일반휴게음식 - 서양음식"}]}]