[{"lat":"37.232434615","long":"126.98144888","items":[{"name":"(주)다사리싸이클링","tel":"031-224-4288","addr":"경기도 수원시 권선구 오목천동 739-10번지","category":"의류 - 정장"}]},{"lat":"37.255992523","long":"126.96509748","items":[{"name":"(주)션킴모터스","tel":"031-225-7781","addr":"경기도 수원시 권선구 오목천동 11-2번지","category":"자동차정비 유지 - 자동차정비"},{"name":"사단법인 한국환경문화사랑","tel":"031-225-7781","addr":"경기도 수원시 권선구 오목천동 11-2번지 2층","category":"기타 - 비영리/비대상"}]},{"lat":"37.233847846","long":"126.97478854","items":[{"name":"(주)수일","tel":"031-294-2784","addr":"경기도 수원시 권선구 오목천동 853-2번지","category":"여행 - 택시회사"}]},{"lat":"37.239681839","long":"126.9592566","items":[{"name":"(주)신안전자동차공업사","tel":"031-293-6036","addr":"경기도 수원시 권선구 오목천동 408번지","category":"자동차정비 유지 - 자동차시트·타이어"}]},{"lat":"37.245187822","long":"126.96112435","items":[{"name":"(주)우성자원","tel":"031-227-0100","addr":"경기도 수원시 권선구 오목천동 361-2","category":"연료판매점 - 주유소"},{"name":"우주종합주방","tel":"031-292-4499","addr":"경기도 수원시 권선구 오목천동 361-2번지","category":"주방용구 - 주방용구"},{"name":"태광사","tel":"031-295-0279","addr":"경기도 수원시 권선구 오목천동 361-2번지","category":"기타 - 기계공구"},{"name":"하이웨이주유소","tel":"031-294-5189","addr":"경기도 수원시 권선구 오목천동 361-2번지","category":"연료판매점 - GS주유소"}]},{"lat":"37.240242697","long":"126.96575899","items":[{"name":"BHC오목천점 (비에이치씨 오목천점)","tel":"031-291-7576","addr":"경기도 수원시 권선구 오목천동 431-1번지 로뎀프라자 1층","category":"일반휴게음식 - 스넥"},{"name":"굽네치킨","tel":"031-291-9229","addr":"경기도 수원시 권선구 오목천동 431-1번지 로뎀프라자 102~1호","category":"일반휴게음식 - 일반한식"},{"name":"굽네치킨오목천점","tel":"031-291-9229","addr":"경기도 수원시 권선구 오목천동 431-1번지 로뎀프라자 1층 102호","category":"일반휴게음식 - 스넥"},{"name":"김밥천국","tel":"031-291-0510","addr":"경기도 수원시 권선구 오목천동 431-1번지 로뎀프라자 102호","category":"일반휴게음식 - 스넥"},{"name":"뉴-소리엘음악학원","tel":"031-292-0677","addr":"경기도 수원시 권선구 오목천동 431-1번지 로뎀프라자 203호","category":"학원 - 예·체능계학원"},{"name":"더프라임영수학원","tel":"031-227-5242","addr":"경기도 수원시 권선구 오목천동 431-1번지 로뎀프라자 201호","category":"학원 - 보습학원"},{"name":"딸기공주","tel":"031-291-2562","addr":"경기도 수원시 권선구 오목천동 431-1 로뎀프라자 1층 101-1","category":"의류 - 정장"},{"name":"미술정원학원","tel":"031-291-3737","addr":"경기도 수원시 권선구 오목천동 431-1번지 로뎀프라자 202호","category":"학원 - 예·체능계학원"},{"name":"상오","tel":"031-294-9990","addr":"경기도 수원시 권선구 오목천동 431-1번지 로뎀프라자 107호","category":"건축자재 - 인테리어전문"},{"name":"송이#","tel":"031-890-2305","addr":"경기도 수원시 권선구 오목천동 431-1번지 로뎀프라자","category":"보건위생 - 미용원"},{"name":"수원축산물도소매센터(한우물프랜즈)","tel":"031-291-7788","addr":"경기도 수원시 권선구 오목천동 431-1번지 로뎀프라자","category":"음료식품 - 정육점"},{"name":"진미숯불갈비","tel":"031-291-0987","addr":"경기도 수원시 권선구 오목천동 431-1번지 로뎀프라자 1층 103호","category":"일반휴게음식 - 일반한식"},{"name":"하늘땅인테리어","tel":"031-294-6969","addr":"경기도 수원시 권선구 오목천동 431-1번지","category":"직물 - 카페트,커튼,천막,지물"},{"name":"황금골뱅이","tel":"031-292-8290","addr":"경기도 수원시 권선구 오목천동 431-1번지 로뎀프라자 106호","category":"일반휴게음식 - 일반한식"}]},{"lat":"37.244458905","long":"126.9638184","items":[{"name":"GS25권선오목천점","tel":"02-2006-2118","addr":"경기도 수원시 권선구 오목천동 498-5번지","category":"유통업 영리 - 편 의 점"},{"name":"또봉이통닭","tel":"031-278-9601","addr":"경기도 수원시 권선구 오목천동 498-5번지","category":"일반휴게음식 - 일반한식"},{"name":"한성수한의원","tel":"031-296-0194","addr":"경기도 수원시 권선구 오목천동 498-5번지","category":"의원 - 한의원"}]},{"lat":"37.234794092","long":"126.9754756","items":[{"name":"GS25오목천그린점","tel":"","addr":"경기도 수원시 권선구 오목천동 824-1번지 2상가 206호","category":"유통업 영리 - 편 의 점"},{"name":"그린마트","tel":"","addr":"경기도 수원시 권선구 오목천동 824-1번지 꿈에그린 단지내상가 109호","category":"유통업 영리 - 슈퍼마켓"},{"name":"뉴할인마트","tel":"031-000-0000","addr":"경기도 수원시 권선구 오목천동 824-1번지 꿈에그린단지내상가2단지호","category":"유통업 영리 - 슈퍼마켓"},{"name":"크린토피아 수원권선오목천꿈에그린점","tel":"031-292-3104","addr":"경기도 수원시 권선구 오목천동 824-1번지 수원권선꿈에그린 단지네상가2단지 1호","category":"수리서비스 - 세탁소"}]},{"lat":"37.244323839","long":"126.96408896","items":[{"name":"J.Strading","tel":"031-258-7808","addr":"경기도 수원시 권선구 오목천동 498-1번지","category":"자동차정비 유지 - 자동차부품"},{"name":"아이앤조이(I&JOY)","tel":"031-292-4511","addr":"경기도 수원시 권선구 오목천동 498-1번지 1동 2층","category":"서적문구 - 기타서적문구"},{"name":"킴벌리샵","tel":"031-613-0020","addr":"경기도 수원시 권선구 오목천동 498-1번지","category":"신변잡화 - 기타잡화"}]},{"lat":"37.247630195","long":"126.9627911","items":[{"name":"S헤어","tel":"031-8004-7101","addr":"경기도 수원시 권선구 오목천동 1170번지 서희스타힐스아파트","category":"보건위생 - 미용원"},{"name":"서희세탁소","tel":"031-297-9981","addr":"경기도 수원시 권선구 오목천동 1170번지 서희스타힐스아파트 상가동 204호","category":"수리서비스 - 세탁소"},{"name":"서희피아노교습소","tel":"031-291-0690","addr":"경기도 수원시 권선구 오목천동 1170번지 서희스타힐스아파트 202호","category":"학원 - 예·체능계학원"},{"name":"용인대오현태권도","tel":"031-295-2367","addr":"경기도 수원시 권선구 오목천동 1170번지 서희스타힐스아파트 상가동 201호","category":"학원 - 예·체능계학원"},{"name":"피자미뇽","tel":"031-293-0993","addr":"경기도 수원시 권선구 오목천동 1170번지 서희스타힐스아파트 상가동 105호","category":"일반휴게음식 - 서양음식"}]},{"lat":"37.245657735","long":"126.96522662","items":[{"name":"handmade 공방","tel":"031-278-7161","addr":"경기도 수원시 권선구 오목천동 314-48번지 대유빌딩 101호","category":"문화.취미 - 문화취미기타"},{"name":"갓볶은커피","tel":"031-291-5952","addr":"경기도 수원시 권선구 오목천동 314-48번지 대유빌딩 112호","category":"일반휴게음식 - 서양음식"},{"name":"김밥천국오목천동점","tel":"031-291-5655","addr":"경기도 수원시 권선구 오목천동 314-48번지 대유빌딩 103호","category":"일반휴게음식 - 스넥"},{"name":"더드림마트","tel":"031-292-3608","addr":"경기도 수원시 권선구 오목천동 314-48번지 대유빌딩 B01호","category":"유통업 영리 - 슈퍼마켓"},{"name":"드림방방","tel":"031-292-3608","addr":"경기도 수원시 권선구 오목천동 314-48번지 대유빌딩 지층 101호","category":"레저업소 - 기타레져업소"},{"name":"라온 태권도장","tel":"031-293-5873","addr":"경기도 수원시 권선구 오목천동 314-48번지 대유빌딩 201호","category":"학원 - 예·체능계학원"},{"name":"마스터제이학원","tel":"031-548-0747","addr":"경기도 수원시 권선구 오목천동 314-48번지 대유빌딩 203호","category":"학원 - 보습학원"},{"name":"모이라헤어","tel":"031-294-6660","addr":"경기도 수원시 권선구 오목천동 314-48번지 대유빌딩 102호","category":"보건위생 - 미용원"},{"name":"미코영어수학학원","tel":"070-7576-2907","addr":"경기도 수원시 권선구 오목천동 314-48번지 대유빌딩 202호","category":"학원 - 보습학원"},{"name":"사랑이가득한치과의원","tel":"031-295-2804","addr":"경기도 수원시 권선구 오목천동 314-48번지 대유빌딩 401호","category":"의원 - 치과의원"},{"name":"센타약국","tel":"031-296-0064","addr":"경기도 수원시 권선구 오목천동 314-48번지 대유빌딩 108,109호","category":"약국 - 약국"},{"name":"신성제약주식회사메디칼사업부","tel":"031-245-6170","addr":"경기도 수원시 권선구 오목천동 314-48번지 대유빌딩 402호","category":"약국 - 제약회사"},{"name":"신전떡볶이 오목천점","tel":"031-292-2988","addr":"경기도 수원시 권선구 오목천동 314-48번지 대유빌딩 107호","category":"일반휴게음식 - 스넥"},{"name":"에림홀콘서트음악학원","tel":"031-295-0901","addr":"경기도 수원시 권선구 오목천동 314-48번지 대유빌딩 301호","category":"학원 - 예·체능계학원"},{"name":"엘리트독서실","tel":"031-291-7900","addr":"경기도 수원시 권선구 오목천동 314-48번지 대유빌딩 403호","category":"학원 - 독서실"},{"name":"연세해맑은소아과의원","tel":"031-291-4288","addr":"경기도 수원시 권선구 오목천동 314-48번지 대유빌딩 302호","category":"의원 - 의원"},{"name":"영분떡방앗간","tel":"031-291-7607","addr":"경기도 수원시 권선구 오목천동 314-48번지 대유빌딩 113호","category":"음료식품 - 기타음료식품"},{"name":"오메가학원","tel":"031-295-6770","addr":"경기도 수원시 권선구 오목천동 314-48번지 대유빌딩 3층 304호","category":"학원 - 보습학원"},{"name":"이안미장원","tel":"031-295-3545","addr":"경기도 수원시 권선구 오목천동 314-48번지","category":"보건위생 - 미용원"},{"name":"피자스쿨 (오목천점)","tel":"","addr":"경기도 수원시 권선구 오목천동 314-48번지 대유빌딩 104호","category":"일반휴게음식 - 서양음식"},{"name":"해피랄라","tel":"031-227-9400","addr":"경기도 수원시 권선구 오목천동 314-48번지 대유빌딩 106호","category":"의류 - 아동의류"}]},{"lat":"37.24515255","long":"126.96336722","items":[{"name":"가나수치과의원","tel":"031-295-2221","addr":"경기도 수원시 권선구 오목천동 369-3번지 2층","category":"의원 - 치과의원"},{"name":"밝은아이","tel":"031-291-2134","addr":"경기도 수원시 권선구 오목천동 369-3번지","category":"보건위생 - 안경"},{"name":"파리바게뜨","tel":"031-292-2110","addr":"경기도 수원시 권선구 오목천동 369-3번지","category":"음료식품 - 제과점"}]},{"lat":"37.244656994","long":"126.96340129","items":[{"name":"가또브랑제리","tel":"031-291-5272","addr":"경기도 수원시 권선구 오목천동 371-4번지","category":"음료식품 - 제과점"},{"name":"달인짬뽕","tel":"031-306-2143","addr":"경기도 수원시 권선구 오목천동 371-4번지 1층 일부","category":"일반휴게음식 - 중국식"},{"name":"명랑시대쌀핫도그 오목천동점","tel":"031-298-6764","addr":"경기도 수원시 권선구 오목천동 371-4번지","category":"일반휴게음식 - 일반한식"},{"name":"뮤직노래연습장","tel":"031-291-0710","addr":"경기도 수원시 권선구 오목천동 371-4번지","category":"레저업소 - 노 래 방"},{"name":"스타당구장","tel":"","addr":"경기도 수원시 권선구 오목천동 371-4","category":"레저업소 - 당 구 장"},{"name":"오목안경원","tel":"031-292-1217","addr":"경기도 수원시 권선구 오목천동 371-4번지","category":"보건위생 - 안경"}]},{"lat":"37.23635236","long":"126.97331133","items":[{"name":"가또브랑제리","tel":"031-227-0222","addr":"경기도 수원시 권선구 오목천동 1180번지 수원권선꿈에그린아파트 309동 101호","category":"음료식품 - 제과점"},{"name":"제니스펍 (Jenny''s Pub)","tel":"","addr":"경기도 수원시 권선구 오목천동 1180번지 권선꿈에그린단지내 2단지 2호,3호","category":"일반휴게음식 - 일반한식"}]},{"lat":"37.233937456","long":"126.97278264","items":[{"name":"가온모터스","tel":"031-000-0000","addr":"경기도 수원시 권선구 오목천동 661번지","category":"자동차정비 유지 - 자동차정비"}]},{"lat":"37.24524274","long":"126.96362639","items":[{"name":"간지","tel":"031-306-9458","addr":"경기도 수원시 권선구 오목천동 320-11번지 1층","category":"의류 - 정장"},{"name":"오구쌀피자","tel":"031-294-5599","addr":"경기도 수원시 권선구 오목천동 320-11번지","category":"일반휴게음식 - 서양음식"},{"name":"화성종합건재","tel":"031-291-6325","addr":"경기도 수원시 권선구 오목천동 320-11번지","category":"기타 - 기계공구"}]},{"lat":"37.244819161","long":"126.96334485","items":[{"name":"감 노래연습장","tel":"031-291-2918","addr":"경기도 수원시 권선구 오목천동 371-2번지 지하1층","category":"레저업소 - 노 래 방"},{"name":"노난족발&보쌈","tel":"031-891-6979","addr":"경기도 수원시 권선구 오목천동 371-2번지 2층 201호","category":"일반휴게음식 - 일반한식"},{"name":"폴PC방","tel":"070-7171-3544","addr":"경기도 수원시 권선구 오목천동 371-2번지 3층","category":"레저업소 - 기타레져업소"}]},{"lat":"37.244882372","long":"126.96376183","items":[{"name":"감탄떡볶이(오목천점)","tel":"031-294-1251","addr":"경기도 수원시 권선구 오목천동 500-1번지 1층","category":"일반휴게음식 - 일반한식"},{"name":"경기사관학원","tel":"031-308-7070","addr":"경기도 수원시 권선구 오목천동 500-1번지 2층","category":"학원 - 보습학원"},{"name":"레인보우텔레콤(오목천동점)","tel":"031-292-7010","addr":"경기도 수원시 권선구 오목천동 500-1번지","category":"사무통신 - 통신기기"},{"name":"바다약국","tel":"070-8246-7072","addr":"경기도 수원시 권선구 오목천동 500-1번지","category":"약국 - 약국"},{"name":"생츄어리오목천점","tel":"031-292-1298","addr":"경기도 수원시 권선구 오목천동 500-1번지 1층","category":"일반휴게음식 - 서양음식"},{"name":"성모플러스이비인후과","tel":"031-227-8841","addr":"경기도 수원시 권선구 오목천동 500-1번지","category":"의원 - 의원"},{"name":"아이스비어","tel":"031-291-5494","addr":"경기도 수원시 권선구 오목천동 500-1번지","category":"유통업 영리 - 슈퍼마켓"},{"name":"우리집손만두","tel":"031-291-0733","addr":"경기도 수원시 권선구 오목천동 500-1번지 1층","category":"일반휴게음식 - 스넥"},{"name":"페리카나오목동점","tel":"031-295-7944","addr":"경기도 수원시 권선구 오목천동 500-1번지","category":"일반휴게음식 - 주점"}]},{"lat":"37.252513989","long":"126.96339719","items":[{"name":"강피지오","tel":"031-293-0070","addr":"경기도 수원시 권선구 오목천동 산1-6번지 수원여자대학","category":"보건위생 - 기타대인서비스"},{"name":"미니스톱수원여대인제점","tel":"031-1577-9621","addr":"경기도 수원시 권선구 오목천동 산1-6번지 학생회관 1층 매점","category":"유통업 영리 - 편 의 점"},{"name":"수원여대구내","tel":"070-7745-6199","addr":"경기도 수원시 권선구 오목천동 산1-6번지 수원여자대학 한울관 1층","category":"서적문구 - 일반서적"}]},{"lat":"37.238132792","long":"126.96128601","items":[{"name":"건영카세차장","tel":"031-294-0262","addr":"경기도 수원시 권선구 오목천동 416-6번지","category":"자동차정비 유지 - 자동차정비"},{"name":"타이어신발보다싸다","tel":"031-294-0262","addr":"경기도 수원시 권선구 오목천동 416-6번지 건영빌딩 1층","category":"자동차정비 유지 - 자동차시트·타이어"}]},{"lat":"37.237632174","long":"126.97473079","items":[{"name":"경기도인쇄정보산업협동조합","tel":"031-253-3311","addr":"경기도 수원시 권선구 오목천동 690번지 3층","category":"유통업 영리 - 기타유통업"}]},{"lat":"37.239181393","long":"126.97247627","items":[{"name":"경기도장애인복지종합지원센터","tel":"031-299-5000","addr":"경기도 수원시 권선구 오목천동 677번지","category":"학원 - 기타 교육기관"},{"name":"경기도장애인종합복지관","tel":"031-299-5000","addr":"경기도 수원시 권선구 오목천동 677번지","category":"학원 - 기타 교육기관"}]},{"lat":"37.241575125","long":"126.96239986","items":[{"name":"고기나무","tel":"031-213-9298","addr":"경기도 수원시 권선구 오목천동 444-26번지 1층 마트내","category":"음료식품 - 정육점"},{"name":"뉴하나마트","tel":"031-296-0049","addr":"경기도 수원시 권선구 오목천동 444-26번지 상가 1층","category":"유통업 영리 - 슈퍼마켓"}]},{"lat":"37.242964534","long":"126.96812442","items":[{"name":"공주뷰띠샵","tel":"031-223-5214","addr":"경기도 수원시 권선구 오목천동 526-16번지 1층","category":"보건위생 - 화장품"},{"name":"지현헤어","tel":"031-000-0000","addr":"경기도 수원시 권선구 오목천동 526-16번지 1층","category":"보건위생 - 미용원"}]},{"lat":"37.237549186","long":"126.96765359","items":[{"name":"국립축산과학원","tel":"031-292-4511","addr":"경기도 수원시 권선구 오목천동 562번지","category":"유통업 비영리 - 공무원 연금 매점"}]},{"lat":"37.239765718","long":"126.96761875","items":[{"name":"굿샷골프존","tel":"031-291-6111","addr":"경기도 수원시 권선구 오목천동 558-3번지 한양빌딩 301호","category":"레저업소 - 스크린골프"},{"name":"주식회사디엔씨투어","tel":"00-1600-6684","addr":"경기도 수원시 권선구 오목천동 558-3번지 한양빌딩 401호","category":"여행 - 관광여행"},{"name":"지후아동발달센터","tel":"031-291-1935","addr":"경기도 수원시 권선구 오목천동 558-3번지 한양빌딩 2층 202호","category":"보건위생 - 기타대인서비스"},{"name":"차이나공","tel":"031-8003-4118","addr":"경기도 수원시 권선구 오목천동 558-3번지 한양빌딩 101호","category":"일반휴게음식 - 중국식"}]},{"lat":"37.24535125","long":"126.96480975","items":[{"name":"궁전인테리어","tel":"031-292-2943","addr":"경기도 수원시 권선구 오목천동 314-2번지","category":"건축자재 - 인테리어전문"}]},{"lat":"37.245071196","long":"126.96258959","items":[{"name":"그루밍카","tel":"","addr":"경기도 수원시 권선구 오목천동 368-1번지","category":"자동차정비 유지 - 자동차부품"},{"name":"뉴현대카서비스 오목천동","tel":"031-258-1619","addr":"경기도 수원시 권선구 오목천동 368-1번지","category":"자동차정비 유지 - 자동차정비"}]},{"lat":"37.243459793","long":"126.96708732","items":[{"name":"그린모닝","tel":"070-8281-0074","addr":"경기도 수원시 권선구 오목천동 527-43, 중부주택 9-201 36/5","category":"신변잡화 - 기타잡화"}]},{"lat":"37.243018685","long":"126.96842869","items":[{"name":"글로벌세탁","tel":"031-292-2233","addr":"경기도 수원시 권선구 오목천동 227-9번지","category":"수리서비스 - 세탁소"},{"name":"오현음악미술학원","tel":"031-294-7905","addr":"경기도 수원시 권선구 오목천동 227-9번지 3층","category":"학원 - 예·체능계학원"},{"name":"용인대오현태권도","tel":"031-295-2367","addr":"경기도 수원시 권선구 오목천동 227-9번지 4층","category":"학원 - 예·체능계학원"},{"name":"코사마트오목천점","tel":"031-294-2023","addr":"경기도 수원시 권선구 오목천동 227-9번지","category":"유통업 영리 - 슈퍼마켓"}]},{"lat":"37.245296847","long":"126.96376161","items":[{"name":"금성정육점","tel":"031-291-6612","addr":"경기도 수원시 권선구 오목천동 320-8번지","category":"음료식품 - 정육점"},{"name":"희자카야","tel":"","addr":"경기도 수원시 권선구 오목천동 320-8번지 1층","category":"일반휴게음식 - 일반한식"}]},{"lat":"37.244575562","long":"126.96239825","items":[{"name":"김가옥","tel":"031-293-3988","addr":"경기도 수원시 권선구 오목천동 373-8번지","category":"일반휴게음식 - 일반한식"},{"name":"소문난녹두전집","tel":"031-292-6891","addr":"경기도 수원시 권선구 오목천동 373-8번지","category":"일반휴게음식 - 일반한식"}]},{"lat":"37.246937005","long":"126.96461735","items":[{"name":"김밥천국","tel":"031-292-7005","addr":"경기도 수원시 권선구 오목천동 318-44번지 1층","category":"일반휴게음식 - 일반한식"}]},{"lat":"37.239881778","long":"126.9641814","items":[{"name":"꼬마자동차카오디오","tel":"031-298-5254","addr":"경기도 수원시 권선구 오목천동 438-7번지","category":"자동차정비 유지 - 자동차부품"},{"name":"사과꽃","tel":"031-291-9996","addr":"경기도 수원시 권선구 오목천동 438-7번지","category":"보건위생 - 미용재료"},{"name":"사과꽃집","tel":"","addr":"경기도 수원시 권선구 오목천동 438-7번지 102호","category":"문화.취미 - 화원"},{"name":"사과꽃향기","tel":"031-291-9996","addr":"경기도 수원시 권선구 오목천동 438-7번지 1층 101호","category":"보건위생 - 미용원"},{"name":"자갈치마당","tel":"031-227-0288","addr":"경기도 수원시 권선구 오목천동 438-7번지","category":"일반휴게음식 - 일식·회집"}]},{"lat":"37.233551154","long":"126.97767349","items":[{"name":"꿈에그린헤어","tel":"031-295-1203","addr":"경기도 수원시 권선구 오목천동 1182-1번지 그린메디프라자 202호","category":"보건위생 - 미용원"},{"name":"세븐일레븐수원그린메디피아점","tel":"031-1577-0711","addr":"경기도 수원시 권선구 오목천동 1182-1번지 그린메디프라자 1층 103,104호","category":"유통업 영리 - 편 의 점"},{"name":"엉클스치킨(오목천점)","tel":"031-293-2233","addr":"경기도 수원시 권선구 오목천동 1182-1번지 그린메디프라자 101호","category":"일반휴게음식 - 스넥"},{"name":"엉클스캐빈","tel":"031-292-8898","addr":"경기도 수원시 권선구 오목천동 1182-1번지 그린메디프라자 2층 201호","category":"일반휴게음식 - 일반한식"}]},{"lat":"37.243099856","long":"126.96869914","items":[{"name":"나르는미트","tel":"031-292-3515","addr":"경기도 수원시 권선구 오목천동 227-2번지 성화빌딩 104호","category":"음료식품 - 정육점"},{"name":"뉴포르테음악학원","tel":"031-296-5615","addr":"경기도 수원시 권선구 오목천동 227-2번지","category":"학원 - 예·체능계학원"},{"name":"리쌤헤어","tel":"070-4140-0093","addr":"경기도 수원시 권선구 오목천동 227-2번지 성화빌딩 1층 103호","category":"보건위생 - 미용원"},{"name":"탑영수전문학원","tel":"031-291-0060","addr":"경기도 수원시 권선구 오목천동 227-2번지 성화빌딩","category":"학원 - 보습학원"}]},{"lat":"37.239513651","long":"126.96837394","items":[{"name":"남도식당","tel":"031-269-5826","addr":"경기도 수원시 권선구 오목천동 558-7번지 105호","category":"일반휴게음식 - 일반한식"},{"name":"디앤피","tel":"031-355-4478","addr":"경기도 수원시 권선구 오목천동 558-7번지","category":"용역 서비스 - 종합용역"},{"name":"밀조아생바지락칼국수","tel":"031-293-2613","addr":"경기도 수원시 권선구 오목천동 558-7번지","category":"일반휴게음식 - 일반한식"},{"name":"세븐일레븐수원오목천대로점","tel":"","addr":"경기도 수원시 권선구 오목천동 558-7번지 101호~102호","category":"유통업 영리 - 편 의 점"},{"name":"알파고 당구클럽","tel":"031-291-4939","addr":"경기도 수원시 권선구 오목천동 558-7번지 2층 217-220호","category":"레저업소 - 당 구 장"},{"name":"언니꼬마김밥","tel":"031-295-8999","addr":"경기도 수원시 권선구 오목천동 558-7번지 1층 110호","category":"일반휴게음식 - 스넥"},{"name":"예하씨앤피","tel":"031-292-2837","addr":"경기도 수원시 권선구 오목천동 558-7번지 201호","category":"음료식품 - 기타음료식품"},{"name":"육대장","tel":"031-294-6458","addr":"경기도 수원시 권선구 오목천동 558-7번지 1층 112호","category":"일반휴게음식 - 일반한식"},{"name":"종가집 소머리국밥","tel":"031-293-0666","addr":"경기도 수원시 권선구 오목천동 558-7번지 1층 116,117호","category":"일반휴게음식 - 일반한식"},{"name":"창우씨앤씨","tel":"031-293-1750","addr":"경기도 수원시 권선구 오목천동 558-7번지","category":"사무통신 - 컴퓨터"},{"name":"초류향","tel":"031-293-4516","addr":"경기도 수원시 권선구 오목천동 558-7번지 108호","category":"일반휴게음식 - 중국식"},{"name":"통돼지김치찌개","tel":"031-293-6969","addr":"경기도 수원시 권선구 오목천동 558-7번지","category":"일반휴게음식 - 일반한식"},{"name":"후지냉동","tel":"031-292-8626","addr":"경기도 수원시 권선구 오목천동 558-7번지","category":"전기제품 - 냉열기기"}]},{"lat":"37.24609946","long":"126.96592518","items":[{"name":"노가리앤비어","tel":"031-291-6918","addr":"경기도 수원시 권선구 오목천동 314-20번지 1층 101호","category":"일반휴게음식 - 주점"},{"name":"신뢰치과의원","tel":"031-245-7575","addr":"경기도 수원시 권선구 오목천동 314-20번지 3층","category":"의원 - 치과의원"},{"name":"오목천한마음약국","tel":"031-227-0559","addr":"경기도 수원시 권선구 오목천동 314-20번지 1층","category":"약국 - 약국"},{"name":"최태혁내과의원","tel":"031-294-1700","addr":"경기도 수원시 권선구 오목천동 314-20번지 2층","category":"의원 - 의원"}]},{"lat":"37.24751463","long":"126.96772785","items":[{"name":"뉴금강주유소","tel":"031-246-5151","addr":"경기도 수원시 권선구 오목천동 274-1번지","category":"연료판매점 - 현대정유(오일뱅크)"},{"name":"행복드림주유소","tel":"031-246-5151","addr":"경기도 수원시 권선구 오목천동 274-1번지","category":"연료판매점 - 주유소"}]},{"lat":"37.245513268","long":"126.96429122","items":[{"name":"니드아트미술교습소","tel":"031-278-3533","addr":"경기도 수원시 권선구 오목천동 923-52번지 1층","category":"학원 - 예·체능계학원"},{"name":"에젤헤어","tel":"031-291-6751","addr":"경기도 수원시 권선구 오목천동 923-52번지","category":"보건위생 - 미용원"}]},{"lat":"37.245378194","long":"126.96453925","items":[{"name":"다솔한의원","tel":"031-292-0883","addr":"경기도 수원시 권선구 오목천동 314-11번지","category":"의원 - 한의원"}]},{"lat":"37.245765446","long":"126.96395297","items":[{"name":"다올모바일","tel":"070-7434-9374","addr":"경기도 수원시 권선구 오목천동 321-4번지","category":"사무통신 - 통신기기"}]},{"lat":"37.239847451","long":"126.96983886","items":[{"name":"다정코다리","tel":"031-251-3993","addr":"경기도 수원시 권선구 오목천동 212-4번지","category":"일반휴게음식 - 일반한식"}]},{"lat":"37.245819754","long":"126.96470808","items":[{"name":"대도","tel":"031-292-7552","addr":"경기도 수원시 권선구 오목천동 318-2번지","category":"직물 - 카페트,커튼,천막,지물"},{"name":"하얀피부","tel":"031-000-0000","addr":"경기도 수원시 권선구 오목천동 318-2번지 101호","category":"보건위생 - 화장품"}]},{"lat":"37.24671156","long":"126.96404265","items":[{"name":"대박점핑","tel":"070-8780-2150","addr":"경기도 수원시 권선구 오목천동 327-4번지 2층 202호","category":"건강식품 - 기타건강식품"},{"name":"서희수산바다이야기","tel":"031-0000-0000","addr":"경기도 수원시 권선구 오목천동 327-4번지 1층","category":"일반휴게음식 - 일반한식"}]},{"lat":"37.246179701","long":"126.96328779","items":[{"name":"대영식당","tel":"031-292-6332","addr":"경기도 수원시 권선구 오목천동 322-3번지","category":"일반휴게음식 - 일반한식"}]},{"lat":"37.246486554","long":"126.96482045","items":[{"name":"대우사","tel":"031-295-2177","addr":"경기도 수원시 권선구 오목천동 318-8","category":"용역 서비스 - 종합용역"},{"name":"비엔비건설기계","tel":"031-294-9966","addr":"경기도 수원시 권선구 오목천동 318-8","category":"기타 - 기계공구"},{"name":"아피스낚시","tel":"031-293-4293","addr":"경기도 수원시 권선구 오목천동 318-8,1층","category":"레져용품 - 스포츠·레져용품"}]},{"lat":"37.239738342","long":"126.96648051","items":[{"name":"더웨이카페(The way cafe)","tel":"031-232-9056","addr":"경기도 수원시 권선구 오목천동 559번지 1층 101호","category":"일반휴게음식 - 서양음식"}]},{"lat":"37.240937481","long":"126.96906076","items":[{"name":"더피아노음악학원","tel":"031-000-0000","addr":"경기도 수원시 권선구 오목천동 961번지 영조아름다운나날1단지 201호","category":"학원 - 예·체능계학원"}]},{"lat":"37.247297744","long":"126.96564282","items":[{"name":"데일리카페","tel":"031-292-6031","addr":"경기도 수원시 권선구 오목천동 329-9번지 , 1,2층","category":"일반휴게음식 - 일반한식"},{"name":"서울우유오목대리점","tel":"031-291-9717","addr":"경기도 수원시 권선구 오목천동 329-9번지","category":"음료식품 - 기타음료식품"}]},{"lat":"37.245404802","long":"126.96325438","items":[{"name":"도로시헤어","tel":"031-296-3137","addr":"경기도 수원시 권선구 오목천동 367-30번지 1층","category":"보건위생 - 미용원"},{"name":"세모 수학 공부방","tel":"","addr":"경기도 수원시 권선구 오목천동 367-30번지 302호","category":"학원 - 보습학원"},{"name":"애플노래연습장","tel":"031-295-7177","addr":"경기도 수원시 권선구 오목천동 367-30번지 지하","category":"레저업소 - 노 래 방"},{"name":"우먼로드","tel":"031-294-8244","addr":"경기도 수원시 권선구 오목천동 367-30번지","category":"직물 - 침구·수예점"},{"name":"이형근의원","tel":"031-295-8400","addr":"경기도 수원시 권선구 오목천동 367-30번지","category":"의원 - 의원"},{"name":"하나약국","tel":"031-292-5146","addr":"경기도 수원시 권선구 오목천동 367-30번지","category":"약국 - 약국"}]},{"lat":"37.247090339","long":"126.96511319","items":[{"name":"독서논술","tel":"","addr":"경기도 수원시 권선구 오목천동 328-8번지 성은해피넬 A동 301호","category":"학원 - 기타 교육기관"},{"name":"아라네일(Ara nail)","tel":"031-293-5495","addr":"경기도 수원시 권선구 오목천동 328-8번지 성은해피넬 A동 101호","category":"보건위생 - 피부미용실"}]},{"lat":"37.245269971","long":"126.96423499","items":[{"name":"동네당구클럽","tel":"031-252-3474","addr":"경기도 수원시 권선구 오목천동 313-1번지 2층","category":"레저업소 - 당 구 장"},{"name":"일인자감자탕","tel":"031-292-9490","addr":"경기도 수원시 권선구 오목천동 313-1번지","category":"일반휴게음식 - 일반한식"},{"name":"채플린노래연숩장","tel":"070-9127-8304","addr":"경기도 수원시 권선구 오목천동 313-1번지","category":"레저업소 - 노 래 방"}]},{"lat":"37.244160673","long":"126.96120381","items":[{"name":"동방타이어","tel":"031-293-5690","addr":"경기도 수원시 권선구 오목천동 379-3번지","category":"자동차정비 유지 - 자동차정비"}]},{"lat":"37.245846836","long":"126.96486586","items":[{"name":"동양","tel":"031-296-2855","addr":"경기도 수원시 권선구 오목천동 318-45번지","category":"레저업소 - 노 래 방"},{"name":"코리안바베큐","tel":"031-292-1292","addr":"경기도 수원시 권선구 오목천동 318-45번지 1층","category":"일반휴게음식 - 스넥"}]},{"lat":"37.232684769","long":"126.97181402","items":[{"name":"동원샘물수원총판","tel":"031-291-6660","addr":"경기도 수원시 권선구 오목천동 656-2번지","category":"유통업 영리 - 기타유통업"}]},{"lat":"37.245964235","long":"126.96569983","items":[{"name":"동인당한의원","tel":"031-242-2726","addr":"경기도 수원시 권선구 오목천동 314-18번지","category":"의원 - 한의원"},{"name":"뮤엠영어오현학원","tel":"031-291-4999","addr":"경기도 수원시 권선구 오목천동 314-18번지 2층","category":"학원 - 보습학원"}]},{"lat":"37.24429578","long":"126.96106849","items":[{"name":"동일샷시","tel":"031-296-7804","addr":"경기도 수원시 권선구 오목천동 378-4번지","category":"건축자재 - 보일러·펌프·샷시"},{"name":"정희건설","tel":"031-225-8277","addr":"경기도 수원시 권선구 오목천동 378-4번지","category":"건축자재 - 페인트"}]},{"lat":"37.245017886","long":"126.96486628","items":[{"name":"동화나라어린이집[아이행복]","tel":"031-292-8712","addr":"경기도 수원시 권선구 오목천동 962번지 남광하우스토리 101동 104호","category":"학원 - 유아원"}]},{"lat":"37.244711265","long":"126.96403241","items":[{"name":"돼꼬","tel":"031-295-0842","addr":"경기도 수원시 권선구 오목천동 501번지 남현빌딩 1층 102호","category":"일반휴게음식 - 일반한식"},{"name":"복닭복닭닭갈비","tel":"031-293-5542","addr":"경기도 수원시 권선구 오목천동 501번지 1층","category":"일반휴게음식 - 일반한식"},{"name":"에스지(SG)골프","tel":"031-291-0594","addr":"경기도 수원시 권선구 오목천동 501번지 남현빌딩","category":"레저업소 - 골프연습장"},{"name":"이디야 수원오목천점","tel":"031-291-0874","addr":"경기도 수원시 권선구 오목천동 501번지 남현빌딩 1층 101호","category":"일반휴게음식 - 서양음식"},{"name":"피지에이골프연습장","tel":"031-293-0085","addr":"경기도 수원시 권선구 오목천동 501번지 남현빌딩","category":"레저업소 - 골프연습장"}]},{"lat":"37.245098727","long":"126.96408856","items":[{"name":"돼지","tel":"031-296-3336","addr":"경기도 수원시 권선구 오목천동 313-3번지 1층","category":"일반휴게음식 - 일반한식"},{"name":"에이원피시카페","tel":"070-9322-8420","addr":"경기도 수원시 권선구 오목천동 313-3번지 2층","category":"레저업소 - 기타레져업소"},{"name":"치킨마루오목천점","tel":"031-298-4070","addr":"경기도 수원시 권선구 오목천동 313-3번지","category":"일반휴게음식 - 스넥"},{"name":"헤어지지마","tel":"031-298-0173","addr":"경기도 수원시 권선구 오목천동 313-3번지 102호","category":"보건위생 - 미용원"}]},{"lat":"37.232299877","long":"126.98389422","items":[{"name":"드랍더미트","tel":"","addr":"경기도 수원시 권선구 오목천동 763번지 대성빌딩 1-2층","category":"일반휴게음식 - 일반한식"}]},{"lat":"37.245044344","long":"126.96311932","items":[{"name":"떡앤홀릭 (떡&HOLIC)","tel":"031-291-5432","addr":"경기도 수원시 권선구 오목천동 367-12번지 1층","category":"음료식품 - 제과점"},{"name":"생도야지마을","tel":"031-296-3774","addr":"경기도 수원시 권선구 오목천동 367-12번지","category":"일반휴게음식 - 일반한식"}]},{"lat":"37.240216623","long":"126.96894838","items":[{"name":"러블리헤어","tel":"031-292-8021","addr":"경기도 수원시 권선구 오목천동 551-6번지","category":"보건위생 - 미용원"},{"name":"본죽오목천점","tel":"031-226-6566","addr":"경기도 수원시 권선구 오목천동 551-6번지 1층 102호","category":"일반휴게음식 - 일반한식"},{"name":"준핏(JUNFIT)","tel":"031-226-6566","addr":"경기도 수원시 권선구 오목천동 551-6번지 3층","category":"레저업소 - 헬스클럽"}]},{"lat":"37.232461852","long":"126.98262082","items":[{"name":"레삐수원지사(뷰띠앙)","tel":"031-221-1097","addr":"경기도 수원시 권선구 오목천동 735번지 ,1~2층","category":"보건위생 - 미용재료"}]},{"lat":"37.246153391","long":"126.96550814","items":[{"name":"롯데리아 오목천D/T점/주식회사 지유컴퍼니","tel":"031-295-9991","addr":"경기도 수원시 권선구 오목천동 316-1번지 1,2층","category":"일반휴게음식 - 서양음식"},{"name":"서당주유소","tel":"031-291-2929","addr":"경기도 수원시 권선구 오목천동 316-1번지","category":"연료판매점 - 주유소"}]},{"lat":"37.245964341","long":"126.96603796","items":[{"name":"루바토","tel":"02-2025-1170","addr":"경기도 수원시 권선구 오목천동 314-27번지 101호","category":"일반휴게음식 - 서양음식"}]},{"lat":"37.237244774","long":"126.97492251","items":[{"name":"마디프(MadiF)","tel":"031-295-9844","addr":"경기도 수원시 권선구 오목천동 689-5번지 1층","category":"일반휴게음식 - 서양음식"}]},{"lat":"37.246549218","long":"126.96356936","items":[{"name":"마루조명LED","tel":"031-298-1100","addr":"경기도 수원시 권선구 오목천동 327-6번지 101호","category":"건축자재 - 조명기구"},{"name":"화스킨앤바디","tel":"031-264-6398","addr":"경기도 수원시 권선구 오목천동 327-6번지 202호","category":"보건위생 - 피부미용실"}]},{"lat":"37.241990257","long":"126.96437191","items":[{"name":"마리엔모리 수원권선점","tel":"031-293-2001","addr":"경기도 수원시 권선구 오목천동 452-2번지 1층","category":"서적문구 - 문구용품"},{"name":"영신서점","tel":"031-291-9930","addr":"경기도 수원시 권선구 오목천동 452-2번지","category":"서적문구 - 일반서적"},{"name":"제일좋은이벤트","tel":"054-283-0083","addr":"경기도 수원시 권선구 오목천동 452-2번지","category":"신변잡화 - 기타잡화"}]},{"lat":"37.240270021","long":"126.96670565","items":[{"name":"마산아구찜장충왕족발","tel":"031-292-9696","addr":"경기도 수원시 권선구 오목천동 541-6번지","category":"일반휴게음식 - 일반한식"},{"name":"우리수산","tel":"031-296-1194","addr":"경기도 수원시 권선구 오목천동 541-6번지","category":"일반휴게음식 - 일반한식"}]},{"lat":"37.251406309","long":"126.96520121","items":[{"name":"마하모터스(Mach motors)","tel":"031-296-0305","addr":"경기도 수원시 권선구 오목천동 35-5번지","category":"자동차정비 유지 - 자동차부품"},{"name":"주식회사 마하모터스","tel":"031-296-0305","addr":"경기도 수원시 권선구 오목천동 35-5번지","category":"자동차정비 유지 - 자동차부품"}]},{"lat":"37.240963259","long":"126.96492466","items":[{"name":"만년설비","tel":"","addr":"경기도 수원시 권선구 오목천동 446번지 효창주택 102호","category":"용역 서비스 - 기타용역서비스"}]},{"lat":"37.243458565","long":"126.96323286","items":[{"name":"맘스치킨","tel":"031-295-4459","addr":"경기도 수원시 권선구 오목천동 472-24번지","category":"일반휴게음식 - 서양음식"},{"name":"미용재료BK","tel":"031-291-4510","addr":"경기도 수원시 권선구 오목천동 472-24번지 1층","category":"보건위생 - 화장품"},{"name":"외출하는날","tel":"031-295-3644","addr":"경기도 수원시 권선구 오목천동 472-24번지 정면좌측3번째","category":"보건위생 - 미용원"},{"name":"잉글루수원권선제2학습관","tel":"031-292-0533","addr":"경기도 수원시 권선구 오목천동 472-24번지 청구빌딩 2층","category":"학원 - 기타 교육기관"},{"name":"해피데이","tel":"031-296-8880","addr":"경기도 수원시 권선구 오목천동 472-24번지","category":"일반휴게음식 - 주점"}]},{"lat":"37.245603104","long":"126.96347969","items":[{"name":"명가홈인테리어","tel":"031-291-7629","addr":"경기도 수원시 권선구 오목천동 320-3번지 1층","category":"건축자재 - 인테리어전문"},{"name":"행복한치과","tel":"031-294-5252","addr":"경기도 수원시 권선구 오목천동 320-3번지 2층","category":"의원 - 치과의원"}]},{"lat":"37.245874089","long":"126.96556463","items":[{"name":"모자오토바이","tel":"031-291-8925","addr":"경기도 수원시 권선구 오목천동 314-17번지","category":"수리서비스 - 레져용품수리"},{"name":"오목천삼겹살","tel":"","addr":"경기도 수원시 권선구 오목천동 314-17번지 1층","category":"일반휴게음식 - 일반한식"}]},{"lat":"37.245431908","long":"126.96347978","items":[{"name":"무궁화세탁","tel":"031-292-2950","addr":"경기도 수원시 권선구 오목천동 320-12번지","category":"수리서비스 - 세탁소"}]},{"lat":"37.233660076","long":"126.98175279","items":[{"name":"무쏘","tel":"031-294-9222","addr":"경기도 수원시 권선구 오목천동 732-2번지 ,1-3층","category":"일반휴게음식 - 일반한식"}]},{"lat":"37.244575704","long":"126.96281526","items":[{"name":"무영쌈밥정식","tel":"031-296-1445","addr":"경기도 수원시 권선구 오목천동 372-5번지","category":"일반휴게음식 - 일반한식"},{"name":"에스제이코퍼레이션","tel":"070-8817-1558","addr":"경기도 수원시 권선구 오목천동 372-5번지","category":"건축자재 - 기타건축자재"}]},{"lat":"37.245793187","long":"126.96617329","items":[{"name":"미디어앤피플 미디어협동조합","tel":"031-225-2300","addr":"경기도 수원시 권선구 오목천동 314-85번지 301호","category":"용역 서비스 - 종합용역"},{"name":"아이랩프랜드","tel":"031-304-3024","addr":"경기도 수원시 권선구 오목천동 314-85번지 101호","category":"서적문구 - 과학기자재"}]},{"lat":"37.243629881","long":"126.96359342","items":[{"name":"미르라인","tel":"031-294-8055","addr":"경기도 수원시 권선구 오목천동 472-7번지","category":"용역 서비스 - 종합용역"}]},{"lat":"37.242712261","long":"126.96818089","items":[{"name":"박카트럭","tel":"","addr":"경기도 수원시 권선구 오목천동 523-5번지 오목그린타운 301호","category":"용역 서비스 - 기타용역서비스"}]},{"lat":"37.246378903","long":"126.96631952","items":[{"name":"반품할인매장","tel":"031-292-2228","addr":"경기도 수원시 권선구 오목천동 314-6번지","category":"전기제품 - 가전제품"},{"name":"장현주무용학원","tel":"031-292-3338","addr":"경기도 수원시 권선구 오목천동 314-6번지","category":"학원 - 예·체능계학원"},{"name":"착한광고","tel":"031-308-2445","addr":"경기도 수원시 권선구 오목천동 314-6번지 2층","category":"건축자재 - 인테리어전문"}]},{"lat":"37.246045135","long":"126.96509117","items":[{"name":"버블타임","tel":"031-291-1284","addr":"경기도 수원시 권선구 오목천동 318-10번지 2층","category":"보건위생 - 화장품"},{"name":"장풍참숯화로갈비","tel":"031-292-2525","addr":"경기도 수원시 권선구 오목천동 318-10번지 1층","category":"일반휴게음식 - 일반한식"}]},{"lat":"37.244397129","long":"126.96796597","items":[{"name":"보나바이핸드","tel":"","addr":"경기도 수원시 권선구 오목천동 956번지 오목천동푸르지오2단지 203동 105호","category":"신변잡화 - 액세서리"},{"name":"아이트랩 (냄새프로)","tel":"031-1599-9557","addr":"경기도 수원시 권선구 오목천동 956번지 오목천동푸르지오2단지 203동 510호","category":"용역 서비스 - 기타용역서비스"},{"name":"주르 도자기 공방","tel":"","addr":"경기도 수원시 권선구 오목천동 956번지 오목천동푸르지오2단지 203동 301호","category":"문화.취미 - 문화취미기타"}]},{"lat":"37.240351944","long":"126.96953436","items":[{"name":"보니스 PC방","tel":"031-358-8570","addr":"경기도 수원시 권선구 오목천동 551-1번지 2층","category":"레저업소 - 기타레져업소"},{"name":"스카이당구클럽","tel":"031-292-3979","addr":"경기도 수원시 권선구 오목천동 551-1번지 401호","category":"레저업소 - 당 구 장"},{"name":"파리바게뜨오목천중앙점","tel":"031-293-0182","addr":"경기도 수원시 권선구 오목천동 551-1번지 1층","category":"음료식품 - 제과점"},{"name":"허브","tel":"031-297-2434","addr":"경기도 수원시 권선구 오목천동 551-1번지 4층","category":"레저업소 - 노 래 방"},{"name":"훼밀리스크린골프","tel":"031-292-4230","addr":"경기도 수원시 권선구 오목천동 551-1번지","category":"회원제형태 - 레져업소"}]},{"lat":"37.242793953","long":"126.97028839","items":[{"name":"본가장수촌오목천점","tel":"031-291-5256","addr":"경기도 수원시 권선구 오목천동 221-2번지","category":"일반휴게음식 - 일반한식"}]},{"lat":"37.233966478","long":"126.98203443","items":[{"name":"봉가네","tel":"031-291-9272","addr":"경기도 수원시 권선구 오목천동 731-4번지","category":"일반휴게음식 - 일반한식"}]},{"lat":"37.245044639","long":"126.9640097","items":[{"name":"봉구스밥버거 오목천점","tel":"031-293-0955","addr":"경기도 수원시 권선구 오목천동 313-5번지 1층","category":"일반휴게음식 - 일반한식"},{"name":"천일통신","tel":"031-291-1599","addr":"경기도 수원시 권선구 오목천동 313-5번지","category":"사무통신 - 통신기기"},{"name":"휴대폰마트 오목천점","tel":"","addr":"경기도 수원시 권선구 오목천동 313-5번지 1층","category":"사무통신 - 통신기기"}]},{"lat":"37.239988161","long":"126.95917753","items":[{"name":"부강자동차정비공업사","tel":"031-292-2600","addr":"경기도 수원시 권선구 오목천동 407-5번지","category":"자동차정비 유지 - 자동차정비"}]},{"lat":"37.245764898","long":"126.96231872","items":[{"name":"부흥유통","tel":"031-236-0970","addr":"경기도 수원시 권선구 오목천동 363번지 태산 상가 105호","category":"유통업 영리 - 슈퍼마켓"}]},{"lat":"37.244575477","long":"126.9621503","items":[{"name":"북경반점","tel":"031-291-2195","addr":"경기도 수원시 권선구 오목천동 373-5번지","category":"일반휴게음식 - 중국식"},{"name":"착한미용실","tel":"031-291-4229","addr":"경기도 수원시 권선구 오목천동 373-5번지","category":"보건위생 - 미용원"}]},{"lat":"37.245098462","long":"126.96328835","items":[{"name":"비바호프","tel":"","addr":"경기도 수원시 권선구 오목천동 367-7번지 광원빌딩 2층","category":"일반휴게음식 - 일반한식"},{"name":"비바호프","tel":"031-292-1937","addr":"경기도 수원시 권선구 오목천동 367-7번지 광원빌딩 2층","category":"일반휴게음식 - 주점"},{"name":"에이스1차","tel":"031-292-8786","addr":"경기도 수원시 권선구 오목천동 367-7번지 광원빌딩 1층","category":"음료식품 - 정육점"}]},{"lat":"37.244682652","long":"126.95947913","items":[{"name":"사단법인오엠씨소망봉사단/OMC카페","tel":"031-292-5330","addr":"경기도 수원시 권선구 오목천동 356번지","category":"일반휴게음식 - 서양음식"}]},{"lat":"37.231992535","long":"126.97848535","items":[{"name":"사회복지법인스완슨기념관유지재단","tel":"031-291-2166","addr":"경기도 수원시 권선구 오목천동 747-1","category":"회원제형태 - 학원"}]},{"lat":"37.239577151","long":"126.96987279","items":[{"name":"삼대째손두부 오목천점","tel":"031-291-7100","addr":"경기도 수원시 권선구 오목천동 553-1번지","category":"일반휴게음식 - 일반한식"}]},{"lat":"37.244541621","long":"126.96909296","items":[{"name":"삼인건설","tel":"031-278-4204","addr":"경기도 수원시 권선구 오목천동 919-6번지","category":"건축자재 - 인테리어전문"}]},{"lat":"37.249901348","long":"126.96445805","items":[{"name":"삼정보신탕","tel":"031-292-2088","addr":"경기도 수원시 권선구 오목천동 46-1번지","category":"일반휴게음식 - 일반한식"}]},{"lat":"37.244097393","long":"126.96061778","items":[{"name":"서수원식당","tel":"031-292-0559","addr":"경기도 수원시 권선구 오목천동 379-7번지 1층","category":"일반휴게음식 - 일반한식"}]},{"lat":"37.239069331","long":"126.95978663","items":[{"name":"서수원주유소","tel":"031-294-6051","addr":"경기도 수원시 권선구 오목천동 414번지","category":"연료판매점 - 주유소"}]},{"lat":"37.239827834","long":"126.96454206","items":[{"name":"선경셀프세차장","tel":"031-294-5991","addr":"경기도 수원시 권선구 오목천동 438-5번지","category":"자동차정비 유지 - 세차장"},{"name":"일화철물마트/(주)일화시냅스","tel":"031-227-7973","addr":"경기도 수원시 권선구 오목천동 438-5번지","category":"건축자재 - 목재·석재·철물"},{"name":"칼소닉카써비스","tel":"031-293-1518","addr":"경기도 수원시 권선구 오목천동 438-5번지","category":"자동차정비 유지 - 자동차정비"}]},{"lat":"37.246180606","long":"126.9660942","items":[{"name":"성심종합알뜰매장","tel":"031-292-8288","addr":"경기도 수원시 권선구 오목천동 314-22번지 1층","category":"전기제품 - 가전제품"}]},{"lat":"37.243521078","long":"126.96159862","items":[{"name":"세븐일레븐수원오목청구점","tel":"031-1577-0711","addr":"경기도 수원시 권선구 오목천동 381번지 청구2차아파트 108, 109호","category":"유통업 영리 - 편 의 점"},{"name":"초이헤어미용실","tel":"031-298-9367","addr":"경기도 수원시 권선구 오목천동 381번지 청구2차아파트","category":"보건위생 - 미용원"}]},{"lat":"37.237271437","long":"126.97340113","items":[{"name":"소플러스 수원점/(주)대농푸드","tel":"031-293-9336","addr":"경기도 수원시 권선구 오목천동 670-3번지 1층","category":"일반휴게음식 - 일반한식"},{"name":"참새방앗간","tel":"031-256-4638","addr":"경기도 수원시 권선구 오목천동 670-3번지 꿈에그린 210동 7층 704호","category":"음료식품 - 기타음료식품"}]},{"lat":"37.240577281","long":"126.969816","items":[{"name":"수원떡방아","tel":"","addr":"경기도 수원시 권선구 오목천동 213-1번지 1층 103호","category":"음료식품 - 제과점"},{"name":"스칼렛헤어","tel":"031-999-9999","addr":"경기도 수원시 권선구 오목천동 213-1번지 1층","category":"보건위생 - 미용원"},{"name":"이마트24","tel":"031-000-0000","addr":"경기도 수원시 권선구 오목천동 213-1번지","category":"유통업 영리 - 편 의 점"},{"name":"프라임치과의원","tel":"031-296-2080","addr":"경기도 수원시 권선구 오목천동 213-1번지 3층 301호","category":"의원 - 치과의원"},{"name":"해피","tel":"070-8780-2150","addr":"경기도 수원시 권선구 오목천동 213-1번지 201호","category":"건강식품 - 기타건강식품"}]},{"lat":"37.251406441","long":"126.96561826","items":[{"name":"수원여자대학교부속유치원[아이행복]","tel":"031-291-7940","addr":"경기도 수원시 권선구 오목천동 35-7번지","category":"학원 - 유치원"}]},{"lat":"37.247513871","long":"126.96525951","items":[{"name":"수원오목천동지역주택조합","tel":"031-292-4800","addr":"경기도 수원시 권선구 오목천동 337번지","category":"건축자재 - 부동산 분양"}]},{"lat":"37.243711","long":"126.96367227","items":[{"name":"수원종합카센타","tel":"031-292-2534","addr":"경기도 수원시 권선구 오목천동 472-19번지","category":"자동차정비 유지 - 자동차정비"}]},{"lat":"37.243576869","long":"126.96689567","items":[{"name":"수호유통","tel":"031-295-5827","addr":"경기도 수원시 권선구 오목천동 527-40번지 3층","category":"음료식품 - 기타음료식품"}]},{"lat":"37.24363105","long":"126.9672901","items":[{"name":"시립오목천동어린이집[아이행복]","tel":"031-291-6300","addr":"경기도 수원시 권선구 오목천동 520-1번지","category":"학원 - 유아원"}]},{"lat":"37.245738632","long":"126.96461796","items":[{"name":"싱싱조개","tel":"031-291-6565","addr":"경기도 수원시 권선구 오목천동 318-35번지","category":"음료식품 - 농·축·수산품"},{"name":"인헤어","tel":"070-8883-1771","addr":"경기도 수원시 권선구 오목천동 318-35번지 1층","category":"보건위생 - 미용원"}]},{"lat":"37.241405721","long":"126.96803497","items":[{"name":"씨유오목천영신점","tel":"031-292-7727","addr":"경기도 수원시 권선구 오목천동 545-4번지 1층","category":"유통업 영리 - 편 의 점"}]},{"lat":"37.245694518","long":"126.96763853","items":[{"name":"아기둥지어린이집[아이행복]","tel":"031-293-7752","addr":"경기도 수원시 권선구 오목천동 951번지 오목천동푸르지오1단지 104동 106호","category":"학원 - 유아원"}]},{"lat":"37.246568313","long":"126.9669506","items":[{"name":"아메리칸 스탠다드 서울동부대행점","tel":"","addr":"경기도 수원시 권선구 오목천동 951번지 오목천동푸르지오1단지 101동 401호","category":"수리서비스 - 기타수리서비스"}]},{"lat":"37.24699128","long":"126.96528231","items":[{"name":"압구정헤어","tel":"031-9999-9999","addr":"경기도 수원시 권선구 오목천동 317-6번지 101호","category":"보건위생 - 미용원"}]},{"lat":"37.243478228","long":"126.96848483","items":[{"name":"애플비어린이집[아이행복]","tel":"070-7672-7965","addr":"경기도 수원시 권선구 오목천동 956번지 오목천동푸르지오2단지 201동 106호","category":"학원 - 유아원"}]},{"lat":"37.245241991","long":"126.96142862","items":[{"name":"양지메디컬의원","tel":"031-294-6781","addr":"경기도 수원시 권선구 오목천동 362번지","category":"의원 - 의원"}]},{"lat":"37.244377674","long":"126.96340143","items":[{"name":"에덴꽃동산","tel":"031-295-0056","addr":"경기도 수원시 권선구 오목천동 372-3번지","category":"문화.취미 - 화원"}]},{"lat":"37.244909566","long":"126.96425772","items":[{"name":"에스오에스 (sos coffee)","tel":"031-296-1045","addr":"경기도 수원시 권선구 오목천동 312-2번지 1,2층","category":"일반휴게음식 - 서양음식"}]},{"lat":"37.24340297","long":"126.9588938","items":[{"name":"에이치케이(HK)모터스","tel":"031-298-7854","addr":"경기도 수원시 권선구 오목천동 392번지","category":"자동차정비 유지 - 자동차정비"}]},{"lat":"37.244882009","long":"126.96267985","items":[{"name":"에픽바이크 (EPIC Bike)","tel":"031-293-3559","addr":"경기도 수원시 권선구 오목천동 367-14번지","category":"레져용품 - 스포츠·레져용품"}]},{"lat":"37.24196485","long":"126.96973651","items":[{"name":"엔와이피디(N.Y.P.D)","tel":"031-292-0544","addr":"경기도 수원시 권선구 오목천동 215-1번지","category":"자동차정비 유지 - 자동차시트·타이어"}]},{"lat":"37.240712574","long":"126.97031182","items":[{"name":"여우부대찌개&차돌박이","tel":"031-291-2993","addr":"경기도 수원시 권선구 오목천동 207-5번지","category":"일반휴게음식 - 일반한식"}]},{"lat":"37.246018332","long":"126.96581251","items":[{"name":"연길양꼬치","tel":"031-295-3215","addr":"경기도 수원시 권선구 오목천동 314-19번지","category":"일반휴게음식 - 중국식"},{"name":"이십일세기영재학원","tel":"031-291-6986","addr":"경기도 수원시 권선구 오목천동 314-19번지 2층","category":"학원 - 보습학원"}]},{"lat":"37.233794504","long":"126.97801147","items":[{"name":"연희네집","tel":"031-292-4485","addr":"경기도 수원시 권선구 오목천동 1182-3번지 1층 102호","category":"일반휴게음식 - 스넥"},{"name":"웰빙반찬","tel":"031-294-4984","addr":"경기도 수원시 권선구 오목천동 1182-3번지 1층 103,104호","category":"일반휴게음식 - 일반한식"},{"name":"통통족발(오목천동)","tel":"031-293-1231","addr":"경기도 수원시 권선구 오목천동 1182-3번지 1층","category":"일반휴게음식 - 일반한식"}]},{"lat":"37.243764942","long":"126.96331159","items":[{"name":"열린의원","tel":"031-296-7579","addr":"경기도 수원시 권선구 오목천동 472-16번지","category":"의원 - 의원"},{"name":"오목천동킥복싱","tel":"031-227-0027","addr":"경기도 수원시 권선구 오목천동 472-16번지 3층","category":"회원제형태 - 레져업소"},{"name":"행복나눔약국","tel":"031-294-0052","addr":"경기도 수원시 권선구 오목천동 472-16번지","category":"약국 - 약국"}]},{"lat":"37.241819804","long":"126.96672745","items":[{"name":"영신여자고등학교","tel":"031-299-7070","addr":"경기도 수원시 권선구 오목천동 537-1번지","category":"학원 - 초중고교육기관"},{"name":"영신중학교","tel":"031-8012-8000","addr":"경기도 수원시 권선구 오목천동 537-1번지","category":"학원 - 초중고교육기관"}]},{"lat":"37.241793533","long":"126.96930832","items":[{"name":"영조수학","tel":"031-227-2585","addr":"경기도 수원시 권선구 오목천동 960번지 영조아름다운나날2단지 201동 105호","category":"학원 - 기타 교육기관"}]},{"lat":"37.243655619","long":"126.95987418","items":[{"name":"영코스텍","tel":"031-211-8777","addr":"경기도 수원시 권선구 오목천동 390-3번지 3","category":"보건위생 - 화장품"},{"name":"오토드림","tel":"031-291-2867","addr":"경기도 수원시 권선구 오목천동 390-3번지","category":"자동차정비 유지 - 자동차정비"}]},{"lat":"37.242405844","long":"126.96795562","items":[{"name":"예원유치원","tel":"031-291-7901","addr":"경기도 수원시 권선구 오목천동 526-52","category":"학원 - 유치원"}]},{"lat":"37.244485805","long":"126.96342392","items":[{"name":"오목네실내포차","tel":"031-291-3417","addr":"경기도 수원시 권선구 오목천동 372-2번지 지하1층","category":"일반휴게음식 - 주점"},{"name":"오목천동 베스킨라빈스","tel":"031-214-3132","addr":"경기도 수원시 권선구 오목천동 372-2번지","category":"음료식품 - 제과점"}]},{"lat":"37.239431696","long":"126.965534","items":[{"name":"오목초등학교","tel":"031-293-0025","addr":"경기도 수원시 권선구 오목천동 422-1번지 오목초등학교","category":"학원 - 초중고교육기관"},{"name":"오목초등학교병설유치원[아이행복]","tel":"031-293-0029","addr":"경기도 수원시 권선구 오목천동 422-1번지 오목초등학교","category":"학원 - 유치원"}]},{"lat":"37.233127796","long":"126.97828214","items":[{"name":"오목태권도","tel":"031-297-9902","addr":"경기도 수원시 권선구 오목천동 749-1번지 401호 수원곳집말지구C1블럭3롯트","category":"학원 - 예·체능계학원"}]},{"lat":"37.244242527","long":"126.96342404","items":[{"name":"오복떡방앗간","tel":"031-291-1743","addr":"경기도 수원시 권선구 오목천동 375-19번지 1층","category":"음료식품 - 제과점"},{"name":"오복정육점","tel":"031-291-1743","addr":"경기도 수원시 권선구 오목천동 375-19번지","category":"음료식품 - 정육점"},{"name":"컷트클럽","tel":"031-293-3529","addr":"경기도 수원시 권선구 오목천동 375-19번지 1층","category":"보건위생 - 미용원"}]},{"lat":"37.239711404","long":"126.96678481","items":[{"name":"오토존모터스","tel":"031-292-0983","addr":"경기도 수원시 권선구 오목천동 559-6번지 현대오일뱅크주유소 내","category":"자동차정비 유지 - 자동차정비"}]},{"lat":"37.246379535","long":"126.96842716","items":[{"name":"오현초등학교","tel":"031-294-7354","addr":"경기도 수원시 권선구 오목천동 278번지 오현초등학교","category":"학원 - 초중고교육기관"}]},{"lat":"37.244854875","long":"126.96237556","items":[{"name":"와이제이 독서실","tel":"031-291-2952","addr":"경기도 수원시 권선구 오목천동 367-6번지 2층","category":"학원 - 독서실"},{"name":"치킨봉이야기 오목천점","tel":"031-212-0168","addr":"경기도 수원시 권선구 오목천동 367-6번지 1층 101호","category":"일반휴게음식 - 일반한식"}]},{"lat":"37.240964903","long":"126.97045822","items":[{"name":"우리동네불백","tel":"031-294-2994","addr":"경기도 수원시 권선구 오목천동 207-13번지 1층","category":"일반휴게음식 - 일반한식"}]},{"lat":"37.233155982","long":"126.98467156","items":[{"name":"원마포해장","tel":"031-293-3293","addr":"경기도 수원시 권선구 오목천동 760-6번지 1층","category":"일반휴게음식 - 일반한식"}]},{"lat":"37.24473988","long":"126.96920558","items":[{"name":"은정이네","tel":"031-233-0133","addr":"경기도 수원시 권선구 오목천동 141-11번지","category":"일반휴게음식 - 일반한식"}]},{"lat":"37.241764361","long":"126.96245611","items":[{"name":"의령메밀소바","tel":"031-292-5977","addr":"경기도 수원시 권선구 오목천동 444-7번지 1층","category":"일반휴게음식 - 일반한식"}]},{"lat":"37.245297064","long":"126.96442658","items":[{"name":"이록열쇠","tel":"031-294-1313","addr":"경기도 수원시 권선구 오목천동 314-3번지","category":"건축자재 - 목재·석재·철물"}]},{"lat":"37.247298124","long":"126.96687136","items":[{"name":"이비가짬뽕 오목천점","tel":"031-291-6866","addr":"경기도 수원시 권선구 오목천동 275-5번지 2층","category":"일반휴게음식 - 중국식"}]},{"lat":"37.2337674781","long":"126.9780340188","items":[{"name":"이선생수학학원","tel":"031-297-7509","addr":"경기도 수원시 권선구 오목천동 1182-3번지 301호","category":"학원 - 보습학원"}]},{"lat":"37.24481871","long":"126.96201492","items":[{"name":"이아이이서수원어학원","tel":"031-293-0533","addr":"경기도 수원시 권선구 오목천동 360-7번지 4층","category":"회원제형태 - 학원"},{"name":"파라다이스스포츠센타","tel":"031-295-7447","addr":"경기도 수원시 권선구 오목천동 360-7번지","category":"레저업소 - 수 영 장"}]},{"lat":"37.241908564","long":"126.96256873","items":[{"name":"이조가순대국","tel":"031-292-2925","addr":"경기도 수원시 권선구 오목천동 444-25번지 102호","category":"일반휴게음식 - 일반한식"},{"name":"카페하품","tel":"031-225-5355","addr":"경기도 수원시 권선구 오목천동 444-25번지 103호","category":"일반휴게음식 - 일반한식"},{"name":"헤어코코","tel":"031-294-2230","addr":"경기도 수원시 권선구 오목천동 444-25번지 1층","category":"보건위생 - 미용원"}]},{"lat":"37.24771223","long":"126.96567643","items":[{"name":"임학순원주추어탕","tel":"031-278-2263","addr":"경기도 수원시 권선구 오목천동 330-1번지","category":"일반휴게음식 - 일반한식"},{"name":"정현중장비","tel":"031-294-2445","addr":"경기도 수원시 권선구 오목천동 330-1번지","category":"자동차정비 유지 - 중장비수리"}]},{"lat":"37.244710962","long":"126.9631195","items":[{"name":"장보고할인마트","tel":"031-292-4980","addr":"경기도 수원시 권선구 오목천동 372-9번지","category":"유통업 영리 - 슈퍼마켓"}]},{"lat":"37.246280169","long":"126.96757063","items":[{"name":"전선영과외","tel":"","addr":"경기도 수원시 권선구 오목천동 951번지 오목천동푸르지오1단지 102동 206호","category":"학원 - 기타 교육기관"}]},{"lat":"37.24145996","long":"126.96864353","items":[{"name":"정민할인마트","tel":"031-296-2708","addr":"경기도 수원시 권선구 오목천동 545-11번지","category":"유통업 영리 - 슈퍼마켓"}]},{"lat":"37.240820165","long":"126.96842969","items":[{"name":"제이헤어(J헤어)","tel":"031-227-0211","addr":"경기도 수원시 권선구 오목천동 544-3번지 101호","category":"보건위생 - 미용원"}]},{"lat":"37.241431788","long":"126.96490189","items":[{"name":"제일탄성","tel":"031-253-9346","addr":"경기도 수원시 권선구 오목천동 450-4번지 명성비라 B-6호","category":"건축자재 - 페인트"}]},{"lat":"37.232181974","long":"126.97958962","items":[{"name":"주삭회사 창진모터스","tel":"031-295-3322","addr":"경기도 수원시 권선구 오목천동 742번지","category":"자동차정비 유지 - 자동차정비"}]},{"lat":"37.233792255","long":"126.96895126","items":[{"name":"주식회사 에이오토","tel":"031-291-2450","addr":"경기도 수원시 권선구 오목천동 648-3번지","category":"자동차정비 유지 - 자동차정비"},{"name":"주식회사에이오토","tel":"031-1577-4997","addr":"경기도 수원시 권선구 오목천동 648-3번지","category":"자동차정비 유지 - 자동차정비"}]},{"lat":"37.253604116","long":"126.96303592","items":[{"name":"주식회사 원테크","tel":"070-4324-0218","addr":"경기도 수원시 권선구 오목천동 20-1번지","category":"전기제품 - 기타전기제품"}]},{"lat":"37.252208255","long":"126.96529099","items":[{"name":"주식회사 진명이앤지","tel":"031-292-5373","addr":"경기도 수원시 권선구 오목천동 29-8번지 2층","category":"용역 서비스 - 기타용역서비스"}]},{"lat":"37.243432874","long":"126.96745925","items":[{"name":"중부마트","tel":"031-294-1547","addr":"경기도 수원시 권선구 오목천동 527-36번지","category":"유통업 영리 - 슈퍼마켓"}]},{"lat":"37.246819808","long":"126.96442581","items":[{"name":"즐거운강아지","tel":"","addr":"경기도 수원시 권선구 오목천동 318-59번지 오목동마을회관 1층 104호","category":"문화.취미 - 애완동물"}]},{"lat":"37.243847155","long":"126.96681665","items":[{"name":"지에프지엔지니어링","tel":"031-374-0902","addr":"경기도 수원시 권선구 오목천동 527-57번지","category":"기타 - 기계공구"}]},{"lat":"37.231849508","long":"126.9848409","items":[{"name":"짬뽕파크 24시","tel":"031-375-5251","addr":"경기도 수원시 권선구 오목천동 807-2번지 1층","category":"일반휴게음식 - 일반한식"}]},{"lat":"37.247964607","long":"126.96595808","items":[{"name":"창영환경","tel":"031-257-3330","addr":"경기도 수원시 권선구 오목천동 263-1번지","category":"용역 서비스 - 종합용역"}]},{"lat":"37.244044382","long":"126.9636721","items":[{"name":"처갓집양념치킨(오목천점)","tel":"031-227-1033","addr":"경기도 수원시 권선구 오목천동 472-30번지","category":"일반휴게음식 - 주점"}]},{"lat":"37.252568505","long":"126.96478358","items":[{"name":"최영애브리스","tel":"031-480-3060","addr":"경기도 수원시 권선구 오목천동 30번지 뉴엠파크 402호","category":"의류 - 내의판매"}]},{"lat":"37.245819992","long":"126.96545195","items":[{"name":"추가네황금불닭발","tel":"031-291-9255","addr":"경기도 수원시 권선구 오목천동 314-16번지","category":"일반휴게음식 - 일반한식"}]},{"lat":"37.232406905","long":"126.97797812","items":[{"name":"카페플러스셀(cafe +CELL)","tel":"","addr":"경기도 수원시 권선구 오목천동 775번지 1동","category":"일반휴게음식 - 서양음식"}]},{"lat":"37.233578535","long":"126.97937508","items":[{"name":"킹콩샤워 오목천점","tel":"031-227-8546","addr":"경기도 수원시 권선구 오목천동 755-1번지,755-2,755-3","category":"자동차정비 유지 - 세차장"}]},{"lat":"37.250540637","long":"126.96311643","items":[{"name":"탑","tel":"031-246-9543","addr":"경기도 수원시 권선구 오목천동 39-56번지","category":"용역 서비스 - 사무서비스"}]},{"lat":"37.25201917","long":"126.96570813","items":[{"name":"투썸플레이스 수원여대점","tel":"031-293-2123","addr":"경기도 수원시 권선구 오목천동 172-1번지 1층","category":"일반휴게음식 - 서양음식"}]},{"lat":"37.255659149","long":"126.96512019","items":[{"name":"파도수산","tel":"","addr":"경기도 수원시 권선구 오목천동 11-5번지","category":"음료식품 - 농·축·수산품"}]},{"lat":"37.239351128","long":"126.96723577","items":[{"name":"폼생폼카셀프세차타운","tel":"031-298-9569","addr":"경기도 수원시 권선구 오목천동 558-23번지","category":"자동차정비 유지 - 세차장"}]},{"lat":"37.24235059","long":"126.96412378","items":[{"name":"푸른솔미술학원","tel":"031-291-0750","addr":"경기도 수원시 권선구 오목천동 454-1,2층","category":"학원 - 예·체능계학원"}]},{"lat":"37.24055014","long":"126.96942157","items":[{"name":"핑크피플","tel":"031-3890-2305","addr":"경기도 수원시 권선구 오목천동 550-3번지 동일빌라 B동 401호","category":"회원제형태 - 기타1"}]},{"lat":"37.232461721","long":"126.98186581","items":[{"name":"한국후지테크","tel":"031-296-7691","addr":"경기도 수원시 권선구 오목천동 739번지","category":"기타 - 기계공구"}]},{"lat":"37.244152779","long":"126.96450606","items":[{"name":"한성쌀유통","tel":"031-281-1706","addr":"경기도 수원시 권선구 오목천동 498-12번지","category":"음료식품 - 미곡상"}]},{"lat":"37.242847625","long":"126.96890212","items":[{"name":"할리스커피 오목천점","tel":"031-291-7933","addr":"경기도 수원시 권선구 오목천동 226번지","category":"일반휴게음식 - 서양음식"}]},{"lat":"37.244908983","long":"126.96251078","items":[{"name":"항도횟집","tel":"031-663-0447","addr":"경기도 수원시 권선구 오목천동 367-23번지 1층","category":"일반휴게음식 - 일식·회집"}]},{"lat":"37.242811401","long":"126.968271","items":[{"name":"핸즈 수","tel":"","addr":"경기도 수원시 권선구 오목천동 523-5번지 오목그린타운 B동 304호","category":"의류 - 아동의류"}]},{"lat":"37.245187565","long":"126.96040303","items":[{"name":"현우밧데리","tel":"031-291-3303","addr":"경기도 수원시 권선구 오목천동 358번지","category":"자동차정비 유지 - 자동차정비"}]},{"lat":"37.243855165","long":"126.9636722","items":[{"name":"홍오빠","tel":"","addr":"경기도 수원시 권선구 오목천동 472-18번지","category":"일반휴게음식 - 일반한식"}]},{"lat":"37.239738255","long":"126.96619876","items":[{"name":"황소야","tel":"031-291-5200","addr":"경기도 수원시 권선구 오목천동 432번지 1층","category":"일반휴게음식 - 일반한식"}]}]