[{"lat":"37.629806285","long":"126.87250296","items":[{"name":"(BG)공조시스템","tel":"031-0-0000","addr":"경기도 고양시 덕양구 도내동 1039-2번지","category":""},{"name":"(BG)공조시스템","tel":"031-000-0000","addr":"경기도 고양시 덕양구 도내동 1039-2번지","category":"용역 서비스 - 기타용역서비스"}]},{"lat":"37.628803171","long":"126.86978593","items":[{"name":"(주)금강","tel":"031-994-5185","addr":"경기도 고양시 덕양구 도내동 1084번지","category":"신변잡화 - 기타잡화"},{"name":"그린스터디 독서실","tel":"031-969-9607","addr":"경기도 고양시 덕양구 도내동 1084번지","category":"학원 - 독서실"},{"name":"그린스터디 독서실","tel":"031-969-9607","addr":"경기도 고양시 덕양구 도내동 1084번지","category":""},{"name":"그린오피스","tel":"031-111-1111","addr":"경기도 고양시 덕양구 도내동 1084번지","category":""},{"name":"그린오피스","tel":"031-111-1111","addr":"경기도 고양시 덕양구 도내동 1084번지","category":"용역 서비스 - 사무서비스"},{"name":"수 수학학원","tel":"","addr":"경기도 고양시 덕양구 도내동 1084번지","category":"학원 - 보습학원"},{"name":"족발3시30분","tel":"031-968-0333","addr":"경기도 고양시 덕양구 도내동 1084번지","category":""},{"name":"족발3시30분","tel":"031-968-0333","addr":"경기도 고양시 덕양구 도내동 1084번지","category":"일반휴게음식 - 일반한식"},{"name":"퍼스트뮤엠영어학원","tel":"031-966-3888","addr":"경기도 고양시 덕양구 도내동 1084번지","category":""},{"name":"퍼스트뮤엠영어학원","tel":"031-966-3888","addr":"경기도 고양시 덕양구 도내동 1084번지","category":"학원 - 외국어학원"},{"name":"풍성호고양원흥점","tel":"031-503-8018","addr":"경기도 고양시 덕양구 도내동 1084번지","category":"일반휴게음식 - 서양음식"},{"name":"혜윰 국어 교습소","tel":"","addr":"경기도 고양시 덕양구 도내동 1084번지","category":"학원 - 보습학원"}]},{"lat":"37.618912438","long":"126.85623408","items":[{"name":"(주)리플렉스","tel":"02-375-6630","addr":"경기도 고양시 덕양구 도내동 768-6번지","category":"직물 - 카페트,커튼,천막,지물"}]},{"lat":"37.629639254","long":"126.86050647","items":[{"name":"(주)보성녹차","tel":"031-969-8601","addr":"경기도 고양시 덕양구 도내동 518-1번지","category":""}]},{"lat":"37.629220691","long":"126.87253797","items":[{"name":"(주)비케이아이엔티 (BK INT)","tel":"031-0-0000","addr":"경기도 고양시 덕양구 도내동 1061-4번지","category":""}]},{"lat":"37.629274774","long":"126.87256053","items":[{"name":"(주)비케이아이엔티 (BK INT)","tel":"031-0000-0000","addr":"경기도 고양시 덕양구 도내동 1061-4번지","category":"레져용품 - 스포츠·레져용품"}]},{"lat":"37.623132305","long":"126.85892172","items":[{"name":"(주)상진금속","tel":"031-970-1463","addr":"경기도 고양시 덕양구 도내동 582-8번지","category":""},{"name":"(주)상진금속","tel":"031-970-1463","addr":"경기도 고양시 덕양구 도내동 582-8번지","category":"건축자재 - 목재·석재·철물"}]},{"lat":"37.634472584","long":"126.87183772","items":[{"name":"(주)오르도아이씨티","tel":"070-4032-3302","addr":"경기도 고양시 덕양구 도내동 964번지","category":"레저업소 - 기타레져업소"},{"name":"고봉민김밥인 고양도내점","tel":"031-000-0000","addr":"경기도 고양시 덕양구 도내동 964번지","category":"일반휴게음식 - 일반한식"},{"name":"골든","tel":"","addr":"경기도 고양시 덕양구 도내동 964번지","category":"보건위생 - 화장품"},{"name":"공스크린골프연습장 주식회사","tel":"031-964-0755","addr":"경기도 고양시 덕양구 도내동 964번지","category":"레져용품 - 골프용품 전문점"},{"name":"꼬꼬시티 도래울점","tel":"031-966-7982","addr":"경기도 고양시 덕양구 도내동 964번지","category":"일반휴게음식 - 스넥"},{"name":"나누는기쁨약국","tel":"031-962-1270","addr":"경기도 고양시 덕양구 도내동 964번지","category":"약국 - 약국"},{"name":"디플레이스고양도내점독서실","tel":"031-965-7953","addr":"경기도 고양시 덕양구 도내동 964번지","category":"학원 - 독서실"},{"name":"레드존 복싱","tel":"031-965-8212","addr":"경기도 고양시 덕양구 도내동 964번지","category":"레저업소 - 헬스클럽"},{"name":"맥스피드PC방","tel":"","addr":"경기도 고양시 덕양구 도내동 964번지","category":"레저업소 - 기타레져업소"},{"name":"블랙노래연습장","tel":"070-8150-1579","addr":"경기도 고양시 덕양구 도내동 964번지","category":"레저업소 - 노 래 방"},{"name":"서울도래울치과","tel":"031-966-2275","addr":"경기도 고양시 덕양구 도내동 964번지","category":"의원 - 치과의원"},{"name":"스시노백쉐프 원흥점","tel":"031-966-5802","addr":"경기도 고양시 덕양구 도내동 964번지","category":"일반휴게음식 - 일식·회집"},{"name":"식빵농장","tel":"031-964-0055","addr":"경기도 고양시 덕양구 도내동 964번지","category":"음료식품 - 제과점"},{"name":"요가하임","tel":"031-965-5131","addr":"경기도 고양시 덕양구 도내동 964번지","category":"레저업소 - 헬스클럽"},{"name":"유진포토","tel":"031-915-4141","addr":"경기도 고양시 덕양구 도내동 964번지","category":"광학제품 - 사진관"},{"name":"육향이","tel":"031-967-1030","addr":"경기도 고양시 덕양구 도내동 964번지","category":"일반휴게음식 - 일반한식"},{"name":"이니스프리 원흥점","tel":"031-966-7054","addr":"경기도 고양시 덕양구 도내동 964번지","category":"보건위생 - 화장품"},{"name":"제인앤폴","tel":"","addr":"경기도 고양시 덕양구 도내동 964번지","category":"일반휴게음식 - 서양음식"},{"name":"커브스 원흥클럽","tel":"031-968-3031","addr":"경기도 고양시 덕양구 도내동 964번지","category":"레저업소 - 헬스클럽"},{"name":"케이비파킹","tel":"","addr":"경기도 고양시 덕양구 도내동 964번지","category":"자동차정비 유지 - 주차장"},{"name":"케이비파킹","tel":"","addr":"경기도 고양시 덕양구 도내동 964번지","category":"자동차정비 유지 - 주차장"},{"name":"키즈원소아청소년과의원(KIDS ONE PEDIATRI","tel":"031-963-0050","addr":"경기도 고양시 덕양구 도내동 964번지","category":"의원 - 의원"},{"name":"헬로방방 삼송원흥점","tel":"031-966-5365","addr":"경기도 고양시 덕양구 도내동 964번지","category":"레저업소 - 기타레져업소"},{"name":"형제화랑체육관","tel":"031-969-2545","addr":"경기도 고양시 덕양구 도내동 964번지","category":"학원 - 예·체능계학원"},{"name":"호치킨 도래울점","tel":"031-812-5727","addr":"경기도 고양시 덕양구 도내동 964번지","category":"일반휴게음식 - 스넥"}]},{"lat":"37.634301462","long":"126.87189466","items":[{"name":"(주)오르도아이씨티","tel":"070-4032-3302","addr":"경기도 고양시 덕양구 도내동 964번지","category":""},{"name":"고구려식당","tel":"031-371-1017","addr":"경기도 고양시 덕양구 도내동 964번지","category":""},{"name":"골든","tel":"","addr":"경기도 고양시 덕양구 도내동 964번지","category":""},{"name":"골든케어","tel":"031-969-1002","addr":"경기도 고양시 덕양구 도내동 964번지","category":""},{"name":"공스크린골프연습장 주식회사","tel":"031-964-0755","addr":"경기도 고양시 덕양구 도내동 964번지","category":""},{"name":"나누는 기쁨약국","tel":"031-962-1270","addr":"경기도 고양시 덕양구 도내동 964번지","category":""},{"name":"나누는기쁨약국","tel":"031-962-1270","addr":"경기도 고양시 덕양구 도내동 964번지","category":""},{"name":"디플레이스고양도내점독서실","tel":"031-965-7953","addr":"경기도 고양시 덕양구 도내동 964번지","category":""},{"name":"라무진(원흥점)","tel":"031-963-5789","addr":"경기도 고양시 덕양구 도내동 964번지","category":""},{"name":"레드존","tel":"031-965-8212","addr":"경기도 고양시 덕양구 도내동 964번지","category":""},{"name":"레드존 복싱","tel":"031-965-8212","addr":"경기도 고양시 덕양구 도내동 964번지","category":""},{"name":"맥스피드PC방","tel":"","addr":"경기도 고양시 덕양구 도내동 964번지","category":""},{"name":"블랙노래연습장","tel":"070-8150-1579","addr":"경기도 고양시 덕양구 도내동 964번지","category":""},{"name":"서울도래울치과","tel":"031-966-2275","addr":"경기도 고양시 덕양구 도내동 964번지","category":""},{"name":"스시노백쉐프 원흥점","tel":"031-966-5802","addr":"경기도 고양시 덕양구 도내동 964번지","category":""},{"name":"식빵농장","tel":"031-964-0055","addr":"경기도 고양시 덕양구 도내동 964번지","category":""},{"name":"신식짬뽕","tel":"031-967-1017","addr":"경기도 고양시 덕양구 도내동 964번지","category":""},{"name":"요가하임","tel":"031-965-5131","addr":"경기도 고양시 덕양구 도내동 964번지","category":""},{"name":"유진포토","tel":"031-915-4141","addr":"경기도 고양시 덕양구 도내동 964번지","category":""},{"name":"육향이","tel":"031-967-1030","addr":"경기도 고양시 덕양구 도내동 964번지","category":""},{"name":"이니스프리 원흥점","tel":"031-966-7054","addr":"경기도 고양시 덕양구 도내동 964번지","category":""},{"name":"종로떡집","tel":"031-966-8717","addr":"경기도 고양시 덕양구 도내동 964번지","category":""},{"name":"최은주케어샵","tel":"031-969-1002","addr":"경기도 고양시 덕양구 도내동 964번지","category":""},{"name":"커브스 원흥클럽","tel":"031-968-3031","addr":"경기도 고양시 덕양구 도내동 964번지","category":""},{"name":"커브스 원흥클럽","tel":"031-968-3031","addr":"경기도 고양시 덕양구 도내동 964번지","category":""},{"name":"커피조","tel":"031-965-4934","addr":"경기도 고양시 덕양구 도내동 964번지","category":""},{"name":"케이비파킹","tel":"","addr":"경기도 고양시 덕양구 도내동 964번지","category":""},{"name":"키다리펍","tel":"031-962-8088","addr":"경기도 고양시 덕양구 도내동 964번지","category":""},{"name":"키즈원소아청소년과의원(KIDS ONE PEDIATRI","tel":"031-963-0050","addr":"경기도 고양시 덕양구 도내동 964번지","category":""},{"name":"헬로방방 삼송원흥점","tel":"031-966-5365","addr":"경기도 고양시 덕양구 도내동 964번지","category":""},{"name":"형제화랑체육관","tel":"031-969-2545","addr":"경기도 고양시 덕양구 도내동 964번지","category":""},{"name":"횟집고","tel":"031-962-8088","addr":"경기도 고양시 덕양구 도내동 964번지","category":""}]},{"lat":"37.63022028","long":"126.87209441","items":[{"name":"(주)자미당 도래울점","tel":"031-963-5003","addr":"경기도 고양시 덕양구 도내동 1034번지","category":""},{"name":"바구니","tel":"02-389-8888","addr":"경기도 고양시 덕양구 도내동 1034번지","category":""},{"name":"식탁의고수","tel":"031-964-5069","addr":"경기도 고양시 덕양구 도내동 1034번지","category":""},{"name":"챠밍쿨헤어","tel":"031-968-3662","addr":"경기도 고양시 덕양구 도내동 1034번지","category":""}]},{"lat":"37.630301392","long":"126.87211693","items":[{"name":"(주)자미당 도래울점","tel":"031-963-5003","addr":"경기도 고양시 덕양구 도내동 1034번지","category":"일반휴게음식 - 일반한식"},{"name":"바구니","tel":"02-389-8888","addr":"경기도 고양시 덕양구 도내동 1034번지","category":"의류 - 정장"},{"name":"챠밍쿨헤어","tel":"031-968-3662","addr":"경기도 고양시 덕양구 도내동 1034번지","category":"보건위생 - 미용원"}]},{"lat":"37.612748799","long":"126.85545338","items":[{"name":"(주)토이월드","tel":"031-938-8300","addr":"경기도 고양시 덕양구 도내동 723-17번지","category":""}]},{"lat":"37.618079668","long":"126.86042658","items":[{"name":"09크린29호점","tel":"031-904-5524","addr":"경기도 고양시 덕양구 도내동 산88-2","category":""},{"name":"파파이사","tel":"031-978-8824","addr":"경기도 고양시 덕양구 도내동 산88-2","category":""}]},{"lat":"37.63019082","long":"126.86991939","items":[{"name":"1025번지 커피","tel":"","addr":"경기도 고양시 덕양구 도내동 1025번지","category":""},{"name":"등촌샤브칼국수","tel":"031-963-5277","addr":"경기도 고양시 덕양구 도내동 1025번지","category":""},{"name":"맘스터치원흥지구점","tel":"031-962-1280","addr":"경기도 고양시 덕양구 도내동 1025번지","category":""},{"name":"맘스터치원흥지구점","tel":"031-962-1280","addr":"경기도 고양시 덕양구 도내동 1025번지","category":""},{"name":"월드타워손세차","tel":"","addr":"경기도 고양시 덕양구 도내동 1025번지","category":""},{"name":"커피.코지","tel":"031-965-9993","addr":"경기도 고양시 덕양구 도내동 1025번지","category":""},{"name":"피자스쿨 고양도래울점","tel":"031-965-6060","addr":"경기도 고양시 덕양구 도내동 1025번지","category":""}]},{"lat":"37.630632206","long":"126.86983931","items":[{"name":"59쌀피자고양원흥점","tel":"031-969-0059","addr":"경기도 고양시 덕양구 도내동 1023번지","category":""},{"name":"로아시스","tel":"031-966-5455","addr":"경기도 고양시 덕양구 도내동 1023번지","category":""},{"name":"멘토링영수학원","tel":"031-966-0403","addr":"경기도 고양시 덕양구 도내동 1023번지","category":""},{"name":"멘토링영수학원","tel":"031-966-0403","addr":"경기도 고양시 덕양구 도내동 1023번지","category":""},{"name":"세븐일레븐고양원흥본점","tel":"","addr":"경기도 고양시 덕양구 도내동 1023번지","category":""},{"name":"아이원독서실","tel":"031-967-7520","addr":"경기도 고양시 덕양구 도내동 1023번지","category":""},{"name":"원흥 비전태권도장","tel":"031-965-1198","addr":"경기도 고양시 덕양구 도내동 1023번지","category":""},{"name":"클라라 음악학원","tel":"031-965-1193","addr":"경기도 고양시 덕양구 도내동 1023번지","category":""},{"name":"클라라음악학원","tel":"031-965-1193","addr":"경기도 고양시 덕양구 도내동 1023번지","category":""}]},{"lat":"37.63074937","long":"126.86987308","items":[{"name":"59쌀피자고양원흥점","tel":"031-969-0059","addr":"경기도 고양시 덕양구 도내동 1023번지","category":"일반휴게음식 - 서양음식"},{"name":"멘토링영수학원","tel":"031-966-0403","addr":"경기도 고양시 덕양구 도내동 1023번지","category":"회원제형태 - 학원"},{"name":"아이원독서실","tel":"031-967-7520","addr":"경기도 고양시 덕양구 도내동 1023번지","category":"학원 - 독서실"},{"name":"원흥 비전태권도장","tel":"031-965-1198","addr":"경기도 고양시 덕양구 도내동 1023번지","category":"학원 - 예·체능계학원"},{"name":"클라라 음악학원","tel":"031-965-1193","addr":"경기도 고양시 덕양구 도내동 1023번지","category":"학원 - 예·체능계학원"}]},{"lat":"37.634772193","long":"126.85836679","items":[{"name":"CC스팀세차","tel":"031-975-7644","addr":"경기도 고양시 덕양구 도내동 1129번지","category":""},{"name":"SCHONSALON","tel":"","addr":"경기도 고양시 덕양구 도내동 1129번지","category":""},{"name":"고양CC스팀세차","tel":"","addr":"경기도 고양시 덕양구 도내동 1129번지","category":""},{"name":"고양CC카케어","tel":"031-000-0000","addr":"경기도 고양시 덕양구 도내동 1129번지","category":"자동차정비 유지 - 세차장"},{"name":"고양스포츠","tel":"031-967-0770","addr":"경기도 고양시 덕양구 도내동 1129번지","category":""},{"name":"휴먼PJK골프아카데미","tel":"031-960-7700","addr":"경기도 고양시 덕양구 도내동 1129번지","category":"회원제형태 - 레져업소"},{"name":"휴먼PJK골프아카데미","tel":"031-960-7700","addr":"경기도 고양시 덕양구 도내동 1129번지","category":""}]},{"lat":"37.629660277","long":"126.87083794","items":[{"name":"Cafe15 (카페15)","tel":"031-967-1505","addr":"경기도 고양시 덕양구 도내동 1032-3번지","category":""},{"name":"카페15","tel":"031-967-1505","addr":"경기도 고양시 덕양구 도내동 1032-3번지","category":""},{"name":"카페15","tel":"031-967-1505","addr":"경기도 고양시 덕양구 도내동 1032-3번지","category":"일반휴게음식 - 서양음식"}]},{"lat":"37.630803043","long":"126.86178438","items":[{"name":"Colombo명품가구","tel":"031-966-0460","addr":"경기도 고양시 덕양구 도내동 509-4번지","category":""},{"name":"우아미가구 원흥점","tel":"031-967-6446","addr":"경기도 고양시 덕양구 도내동 509-4번지","category":"가구 - 일반가구"}]},{"lat":"37.630658928","long":"126.86956737","items":[{"name":"Comely","tel":"031-966-0295","addr":"경기도 고양시 덕양구 도내동 1022번지","category":""},{"name":"고대이아이이국제어학원","tel":"031-966-0582","addr":"경기도 고양시 덕양구 도내동 1022번지","category":""},{"name":"미복 도래울점","tel":"031-968-5672","addr":"경기도 고양시 덕양구 도내동 1022번지","category":""},{"name":"본죽 원흥지구점","tel":"031-966-6289","addr":"경기도 고양시 덕양구 도내동 1022번지","category":""},{"name":"살롱드 애쉬베리","tel":"031-967-2026","addr":"경기도 고양시 덕양구 도내동 1022번지","category":""},{"name":"야호창작소미술","tel":"031-967-9560","addr":"경기도 고양시 덕양구 도내동 1022번지","category":""},{"name":"위니드수학학원","tel":"031-969-9393","addr":"경기도 고양시 덕양구 도내동 1022번지","category":""},{"name":"초코헤어","tel":"031-967-2026","addr":"경기도 고양시 덕양구 도내동 1022번지","category":""},{"name":"초코헤어","tel":"","addr":"경기도 고양시 덕양구 도내동 1022번지","category":""},{"name":"키즈앤맘치과","tel":"031-964-2080","addr":"경기도 고양시 덕양구 도내동 1022번지","category":""},{"name":"탑문구센터","tel":"031-979-5131","addr":"경기도 고양시 덕양구 도내동 1022번지","category":""}]},{"lat":"37.622798448","long":"126.85851458","items":[{"name":"EDP덕양점","tel":"031-978-2572","addr":"경기도 고양시 덕양구 도내동","category":"음료식품 - 기타음료식품"},{"name":"EDP덕양점","tel":"031-978-2572","addr":"경기도 고양시 덕양구 도내동 798-16번지","category":""},{"name":"동화계량기","tel":"031-979-4674","addr":"경기도 고양시 덕양구 도내동","category":"용역 서비스 - 기타용역서비스"},{"name":"동화계량기","tel":"031-979-4674","addr":"경기도 고양시 덕양구 도내동 798-16번지","category":""}]},{"lat":"37.626909836","long":"126.86864518","items":[{"name":"FLORA(플로라)","tel":"070-4228-5959","addr":"경기도 고양시 덕양구 도내동 1103번지 엘에이치원흥도래울마을6단지","category":""},{"name":"도래울낙원/호세야","tel":"031-964-4200","addr":"경기도 고양시 덕양구 도내동 1103번지 엘에이치원흥도래울마을6단지","category":""},{"name":"도래울낙원/호세야","tel":"031-964-4200","addr":"경기도 고양시 덕양구 도내동 1103번지 엘에이치원흥도래울마을6단지","category":"음료식품 - 제과점"},{"name":"라온커뮤니티","tel":"031-943-1105","addr":"경기도 고양시 덕양구 도내동 1103번지 엘에이치원흥도래울마을6단지","category":""},{"name":"라온커뮤니티","tel":"031-943-1105","addr":"경기도 고양시 덕양구 도내동 1103번지 엘에이치원흥도래울마을6단지","category":"회원제형태 - 레져업소"},{"name":"라잇쯔","tel":"031-969-6799","addr":"경기도 고양시 덕양구 도내동 1103번지 엘에이치원흥도래울마을6단지","category":""},{"name":"로즈마리헤어","tel":"031-962-7979","addr":"경기도 고양시 덕양구 도내동 1103번지 엘에이치원흥도래울마을6단지","category":"보건위생 - 미용원"},{"name":"로즈마리헤어","tel":"031-962-7979","addr":"경기도 고양시 덕양구 도내동 1103번지 엘에이치원흥도래울마을6단지","category":""},{"name":"마켓@","tel":"070-5067-0912","addr":"경기도 고양시 덕양구 도내동 1103번지 엘에이치원흥도래울마을6단지","category":""},{"name":"마켓@","tel":"070-5067-0912","addr":"경기도 고양시 덕양구 도내동 1103번지 엘에이치원흥도래울마을6단지","category":"유통업 영리 - 슈퍼마켓"},{"name":"명품세탁","tel":"031-3340-2448","addr":"경기도 고양시 덕양구 도내동 1103번지 엘에이치원흥도래울마을6단지","category":""},{"name":"명품세탁","tel":"031-965-6678","addr":"경기도 고양시 덕양구 도내동 1103번지 엘에이치원흥도래울마을6단지","category":"수리서비스 - 세탁소"},{"name":"성공축산","tel":"031-967-0911","addr":"경기도 고양시 덕양구 도내동 1103번지 엘에이치원흥도래울마을6단지","category":""},{"name":"오븐마루(고양원흥점)","tel":"031-969-8589","addr":"경기도 고양시 덕양구 도내동 1103번지 엘에이치원흥도래울마을6단지","category":""},{"name":"오븐마루(고양원흥점)","tel":"031-969-8598","addr":"경기도 고양시 덕양구 도내동 1103번지 엘에이치원흥도래울마을6단지","category":""},{"name":"오븐마루(고양원흥점)","tel":"031-969-8589","addr":"경기도 고양시 덕양구 도내동 1103번지 엘에이치원흥도래울마을6단지","category":""},{"name":"오븐마루(고양원흥점)","tel":"031-969-8589","addr":"경기도 고양시 덕양구 도내동 1103번지 엘에이치원흥도래울마을6단지","category":"일반휴게음식 - 스넥"},{"name":"원흥푸르미어린이집[아이행복]","tel":"031-962-3307","addr":"경기도 고양시 덕양구 도내동 1103번지 엘에이치원흥도래울마을6단지","category":"학원 - 유아원"},{"name":"정군비어","tel":"031-965-8252","addr":"경기도 고양시 덕양구 도내동 1103번지 엘에이치원흥도래울마을6단지","category":""},{"name":"짱쿡애찬","tel":"031-813-5838","addr":"경기도 고양시 덕양구 도내동 1103번지 엘에이치원흥도래울마을6단지","category":"음료식품 - 기타음료식품"},{"name":"짱쿡애찬","tel":"031-813-5838","addr":"경기도 고양시 덕양구 도내동 1103번지 엘에이치원흥도래울마을6단지","category":""}]},{"lat":"37.623076818","long":"126.8577551","items":[{"name":"GG산업","tel":"031-979-6659","addr":"경기도 고양시 덕양구 도내동 799-18번지","category":""}]},{"lat":"37.630381838","long":"126.87153903","items":[{"name":"GS25덕양원흥점","tel":"","addr":"경기도 고양시 덕양구 도내동 1030-8번지","category":"유통업 영리 - 편 의 점"},{"name":"크린토피아코인워시 원흥점","tel":"031-967-3429","addr":"경기도 고양시 덕양구 도내동 1030-8번지","category":"수리서비스 - 세탁소"}]},{"lat":"37.633802725","long":"126.86904062","items":[{"name":"GS25원흥2단지점","tel":"","addr":"경기도 고양시 덕양구 도내동 983번지 엘에이치원흥도래울마을2단지","category":"유통업 영리 - 편 의 점"},{"name":"GS25원흥2단지점","tel":"","addr":"경기도 고양시 덕양구 도내동 983번지 엘에이치원흥도래울마을2단지","category":""},{"name":"GS25원흥2단지점","tel":"","addr":"경기도 고양시 덕양구 도내동 983번지 엘에이치원흥도래울마을2단지","category":""},{"name":"디자인맵스","tel":"031-000-0000","addr":"경기도 고양시 덕양구 도내동 983번지 엘에이치원흥도래울마을2단지","category":"용역 서비스 - 사무서비스"},{"name":"디자인맵스","tel":"031-0-0000","addr":"경기도 고양시 덕양구 도내동 983번지 엘에이치원흥도래울마을2단지","category":""},{"name":"브런치부기","tel":"","addr":"경기도 고양시 덕양구 도내동 983번지 엘에이치원흥도래울마을2단지","category":""},{"name":"브런치부기","tel":"","addr":"경기도 고양시 덕양구 도내동 983번지 엘에이치원흥도래울마을2단지","category":"일반휴게음식 - 서양음식"},{"name":"성우렌트","tel":"","addr":"경기도 고양시 덕양구 도내동 983번지 엘에이치원흥도래울마을2단지","category":"보건위생 - 기타대인서비스"},{"name":"소정","tel":"","addr":"경기도 고양시 덕양구 도내동 983번지 엘에이치원흥도래울마을2단지","category":""},{"name":"원흥2단지세탁","tel":"031-966-9777","addr":"경기도 고양시 덕양구 도내동 983번지 엘에이치원흥도래울마을2단지","category":"수리서비스 - 세탁소"},{"name":"원흥2단지세탁","tel":"031-966-9777","addr":"경기도 고양시 덕양구 도내동 983번지 엘에이치원흥도래울마을2단지","category":"수리서비스 - 세탁소"},{"name":"원흥2단지세탁","tel":"031-966-9777","addr":"경기도 고양시 덕양구 도내동 983번지 엘에이치원흥도래울마을2단지","category":""},{"name":"원흥2단지세탁","tel":"031-966-9777","addr":"경기도 고양시 덕양구 도내동 983번지 엘에이치원흥도래울마을2단지","category":""},{"name":"원흥아이어린이집[아이행복]","tel":"","addr":"경기도 고양시 덕양구 도내동 983번지 엘에이치원흥도래울마을2단지","category":"학원 - 유아원"},{"name":"유그린","tel":"070-4110-9328","addr":"경기도 고양시 덕양구 도내동 983번지 엘에이치원흥도래울마을2단지","category":""},{"name":"정식수산","tel":"031-1111-1111","addr":"경기도 고양시 덕양구 도내동 983번지 엘에이치원흥도래울마을2단지","category":"음료식품 - 농·축·수산품"},{"name":"정식수산","tel":"031-1111-1111","addr":"경기도 고양시 덕양구 도내동 983번지 엘에이치원흥도래울마을2단지","category":""},{"name":"지효텔레콤","tel":"031-968-6311","addr":"경기도 고양시 덕양구 도내동 983번지 엘에이치원흥도래울마을2단지","category":"사무통신 - 통신기기"},{"name":"토토빌어린이집[아이행복]","tel":"031-819-6380","addr":"경기도 고양시 덕양구 도내동 983번지 엘에이치원흥도래울마을2단지","category":"학원 - 유아원"},{"name":"토토빌어린이집[아이행복]","tel":"031-819-6380","addr":"경기도 고양시 덕양구 도내동 983번지 엘에이치원흥도래울마을2단지","category":"학원 - 유아원"},{"name":"투데이프레젠트","tel":"070-4141-2267","addr":"경기도 고양시 덕양구 도내동 983번지 엘에이치원흥도래울마을2단지","category":"신변잡화 - 기타잡화"},{"name":"투데이프레젠트","tel":"070-4141-2267","addr":"경기도 고양시 덕양구 도내동 983번지 엘에이치원흥도래울마을2단지","category":""},{"name":"파도바람","tel":"070-3288-4383","addr":"경기도 고양시 덕양구 도내동 983번지 엘에이치원흥도래울마을2단지","category":"용역 서비스 - 기타용역서비스"},{"name":"한우리독서토론논술 도래울 홈클럽","tel":"031-966-7526","addr":"경기도 고양시 덕양구 도내동 983번지 엘에이치원흥도래울마을2단지","category":"학원 - 기타 교육기관"},{"name":"한우리독서토론논술 도래울 홈클럽","tel":"031-966-7526","addr":"경기도 고양시 덕양구 도내동 983번지 엘에이치원흥도래울마을2단지","category":""},{"name":"해법셀파수학","tel":"031-904-5512","addr":"경기도 고양시 덕양구 도내동 983번지 엘에이치원흥도래울마을2단지","category":""},{"name":"해법셀파수학","tel":"031-904-5512","addr":"경기도 고양시 덕양구 도내동 983번지 엘에이치원흥도래울마을2단지","category":"학원 - 기타 교육기관"},{"name":"홀리헤어","tel":"031-964-1238","addr":"경기도 고양시 덕양구 도내동","category":"보건위생 - 미용원"},{"name":"홀리헤어","tel":"031-964-1238","addr":"경기도 고양시 덕양구 도내동 983번지 엘에이치원흥도래울마을2단지","category":""}]},{"lat":"37.625723401","long":"126.87117341","items":[{"name":"GS25원흥스위트점","tel":"","addr":"경기도 고양시 덕양구 도내동 1107번지 고양원흥동일스위트","category":"유통업 영리 - 편 의 점"},{"name":"GS25원흥스위트점","tel":"","addr":"경기도 고양시 덕양구 도내동 1107번지 고양원흥동일스위트","category":""},{"name":"고양시립 우리누리 어린이집[아이행복]","tel":"031-963-6252","addr":"경기도 고양시 덕양구 도내동 1107번지 고양원흥동일스위트","category":"학원 - 유아원"},{"name":"기탄사고력 도래울교실","tel":"","addr":"경기도 고양시 덕양구 도내동 1107번지 고양원흥동일스위트","category":""},{"name":"기탄사고력 도래울교실","tel":"","addr":"경기도 고양시 덕양구 도내동 1107번지 고양원흥동일스위트","category":"학원 - 기타 교육기관"},{"name":"꿈꾸는 어린이집[아이행복]","tel":"031-818-5297","addr":"경기도 고양시 덕양구 도내동 1107번지 고양원흥동일스위트","category":"학원 - 유아원"},{"name":"노리숲어린이집[아이행복]","tel":"031-969-8588","addr":"경기도 고양시 덕양구 도내동 1107번지 고양원흥동일스위트","category":"학원 - 유아원"},{"name":"달고나","tel":"031-811-6856","addr":"경기도 고양시 덕양구 도내동 1107번지 고양원흥동일스위트","category":"음료식품 - 기타음료식품"},{"name":"달고나","tel":"031-811-6856","addr":"경기도 고양시 덕양구 도내동 1107번지 고양원흥동일스위트","category":""},{"name":"도래울 새빛 공방","tel":"","addr":"경기도 고양시 덕양구 도내동 1107번지 고양원흥동일스위트","category":"학원 - 기타 교육기관"},{"name":"도래울 플레이팩토 사고력수학교실","tel":"","addr":"경기도 고양시 덕양구 도내동 1107번지 고양원흥동일스위트","category":"학원 - 기타 교육기관"},{"name":"도래울 플레이팩토 사고력수학교실","tel":"","addr":"경기도 고양시 덕양구 도내동 1107번지 고양원흥동일스위트","category":""},{"name":"도래울성신음악교습소","tel":"031-964-7730","addr":"경기도 고양시 덕양구 도내동 1107번지 고양원흥동일스위트","category":"학원 - 예·체능계학원"},{"name":"도래울성신음악교습소","tel":"031-964-7730","addr":"경기도 고양시 덕양구 도내동 1107번지 고양원흥동일스위트","category":""},{"name":"도래울에이원학원","tel":"031-973-7755","addr":"경기도 고양시 덕양구 도내동 1107번지 고양원흥동일스위트","category":"학원 - 보습학원"},{"name":"도래울에이원학원","tel":"031-973-7755","addr":"경기도 고양시 덕양구 도내동 1107번지 고양원흥동일스위트","category":""},{"name":"동일미소어린이집[아이행복]","tel":"031-909-0001","addr":"경기도 고양시 덕양구 도내동 1107번지 고양원흥동일스위트","category":"학원 - 유아원"},{"name":"야호창작소2호점미술학원","tel":"02-1111-1111","addr":"경기도 고양시 덕양구 도내동 1107번지 고양원흥동일스위트","category":"학원 - 예·체능계학원"},{"name":"야호창작소2호점미술학원","tel":"","addr":"경기도 고양시 덕양구 도내동 1107번지 고양원흥동일스위트","category":""},{"name":"양성은 영어전문 개인과외","tel":"070-8031-4038","addr":"경기도 고양시 덕양구 도내동 1107번지 고양원흥동일스위트","category":"학원 - 기타 교육기관"},{"name":"오드헤어샵","tel":"031-000-0000","addr":"경기도 고양시 덕양구 도내동 1107번지 고양원흥동일스위트","category":"보건위생 - 미용원"},{"name":"오드헤어샵","tel":"031-0-0000","addr":"경기도 고양시 덕양구 도내동 1107번지 고양원흥동일스위트","category":""},{"name":"정직한 정육점","tel":"031-967-8864","addr":"경기도 고양시 덕양구 도내동 1107번지 고양원흥동일스위트","category":"음료식품 - 정육점"},{"name":"정직한 정육점","tel":"031-967-8864","addr":"경기도 고양시 덕양구 도내동 1107번지 고양원흥동일스위트","category":""},{"name":"최강매쓰수학교습소","tel":"","addr":"경기도 고양시 덕양구 도내동 1107번지 고양원흥동일스위트","category":"학원 - 보습학원"},{"name":"최강매쓰수학교습소","tel":"","addr":"경기도 고양시 덕양구 도내동 1107번지 고양원흥동일스위트","category":""},{"name":"카페제이(CAFE J)","tel":"031-964-5554","addr":"경기도 고양시 덕양구 도내동 1107번지 고양원흥동일스위트","category":""},{"name":"카페제이(CAFE J)","tel":"031-964-5554","addr":"경기도 고양시 덕양구 도내동 1107번지 고양원흥동일스위트","category":"일반휴게음식 - 서양음식"},{"name":"큰나래태권도","tel":"031-903-2866","addr":"경기도 고양시 덕양구 도내동 1107번지 고양원흥동일스위트","category":""},{"name":"큰나래태권도","tel":"031-903-2866","addr":"경기도 고양시 덕양구 도내동 1107번지 고양원흥동일스위트","category":"학원 - 예·체능계학원"},{"name":"향기의발견","tel":"","addr":"경기도 고양시 덕양구 도내동 1107번지 고양원흥동일스위트","category":"보건위생 - 화장품"}]},{"lat":"37.632273939","long":"126.87159235","items":[{"name":"LG시스템","tel":"031-1544-7289","addr":"경기도 고양시 덕양구 도내동 1010번지 엘에이치원흥도래울마을3단지","category":""},{"name":"SI공조","tel":"070-8031-4838","addr":"경기도 고양시 덕양구 도내동 1010번지 엘에이치원흥도래울마을3단지","category":""},{"name":"S공조","tel":"02-1577-3921","addr":"경기도 고양시 덕양구 도내동 1010번지 엘에이치원흥도래울마을3단지","category":""},{"name":"wk공조","tel":"031-0-0000","addr":"경기도 고양시 덕양구 도내동 1010번지 엘에이치원흥도래울마을3단지","category":""},{"name":"다인헤어","tel":"031-966-0203","addr":"경기도 고양시 덕양구 도내동 1010번지 엘에이치원흥도래울마을3단지","category":""},{"name":"대왕통닭 원흥점","tel":"","addr":"경기도 고양시 덕양구 도내동 1010번지 엘에이치원흥도래울마을3단지","category":""},{"name":"더스푼","tel":"070-4032-9718","addr":"경기도 고양시 덕양구 도내동 1010번지 엘에이치원흥도래울마을3단지","category":""},{"name":"던킨도너츠 고양원흥점","tel":"","addr":"경기도 고양시 덕양구 도내동 1010번지 엘에이치원흥도래울마을3단지","category":""},{"name":"독도왕새우튀김 도래울점","tel":"031-968-8610","addr":"경기도 고양시 덕양구 도내동 1010번지 엘에이치원흥도래울마을3단지","category":""},{"name":"따르릉폰샵","tel":"031-965-3298","addr":"경기도 고양시 덕양구 도내동 1010번지 엘에이치원흥도래울마을3단지","category":""},{"name":"루시헤어","tel":"031-966-0203","addr":"경기도 고양시 덕양구 도내동 1010번지 엘에이치원흥도래울마을3단지","category":""},{"name":"마녀노리","tel":"0505-320-0020","addr":"경기도 고양시 덕양구 도내동 1010번지 엘에이치원흥도래울마을3단지","category":""},{"name":"블루클럽","tel":"070-4024-8116","addr":"경기도 고양시 덕양구 도내동 1010번지 엘에이치원흥도래울마을3단지","category":""},{"name":"블루클럽 도래울마을점","tel":"070-4024-8116","addr":"경기도 고양시 덕양구 도내동 1010번지 엘에이치원흥도래울마을3단지","category":""},{"name":"세븐일레븐고양원흥3단지점","tel":"","addr":"경기도 고양시 덕양구 도내동 1010번지 엘에이치원흥도래울마을3단지","category":""},{"name":"수내닭꼬치","tel":"031-969-5282","addr":"경기도 고양시 덕양구 도내동 1010번지 엘에이치원흥도래울마을3단지","category":""},{"name":"수내닭꼬치","tel":"070-7614-3579","addr":"경기도 고양시 덕양구 도내동 1010번지 엘에이치원흥도래울마을3단지","category":""},{"name":"시골목장","tel":"","addr":"경기도 고양시 덕양구 도내동 1010번지 엘에이치원흥도래울마을3단지","category":""},{"name":"신강원수산","tel":"031-962-0667","addr":"경기도 고양시 덕양구 도내동 1010번지 엘에이치원흥도래울마을3단지","category":""},{"name":"엘린키즈(Ellyn Kids)","tel":"070-8733-4205","addr":"경기도 고양시 덕양구 도내동 1010번지 엘에이치원흥도래울마을3단지","category":""},{"name":"올맨 플레이스","tel":"070-4024-8116","addr":"경기도 고양시 덕양구 도내동 1010번지 엘에이치원흥도래울마을3단지","category":""},{"name":"원흥옛날통닭","tel":"031-969-4558","addr":"경기도 고양시 덕양구 도내동 1010번지 엘에이치원흥도래울마을3단지","category":""},{"name":"원흥옛날통닭","tel":"031-969-4558","addr":"경기도 고양시 덕양구 도내동 1010번지 엘에이치원흥도래울마을3단지","category":""},{"name":"원흥할인마트","tel":"031-965-9700","addr":"경기도 고양시 덕양구 도내동 1010번지 엘에이치원흥도래울마을3단지","category":""},{"name":"이터니티 레더 (eternity leather)","tel":"07-80-3140","addr":"경기도 고양시 덕양구 도내동 1010번지 엘에이치원흥도래울마을3단지","category":""},{"name":"정글비스킷","tel":"070-8885-7704","addr":"경기도 고양시 덕양구 도내동 1010번지 엘에이치원흥도래울마을3단지","category":""},{"name":"포어스시스템","tel":"070-8676-6161","addr":"경기도 고양시 덕양구 도내동 1010번지 엘에이치원흥도래울마을3단지","category":""},{"name":"피자마루 고양원흥점","tel":"031-966-1082","addr":"경기도 고양시 덕양구 도내동 1010번지 엘에이치원흥도래울마을3단지","category":""},{"name":"하이푸드","tel":"","addr":"경기도 고양시 덕양구 도내동 1010번지 엘에이치원흥도래울마을3단지","category":""},{"name":"해송가구","tel":"031-813-4114","addr":"경기도 고양시 덕양구 도내동 1010번지 엘에이치원흥도래울마을3단지","category":""}]},{"lat":"37.633110817","long":"126.87067323","items":[{"name":"LG시스템","tel":"031-1544-7289","addr":"경기도 고양시 덕양구 도내동 1010번지 엘에이치원흥도래울마을3단지","category":"용역 서비스 - 기타용역서비스"},{"name":"SI공조","tel":"070-8031-4838","addr":"경기도 고양시 덕양구 도내동 1010번지 엘에이치원흥도래울마을3단지","category":"용역 서비스 - 기타용역서비스"},{"name":"S공조","tel":"02-1577-3921","addr":"경기도 고양시 덕양구 도내동 1010번지 엘에이치원흥도래울마을3단지","category":"용역 서비스 - 기타용역서비스"},{"name":"다인헤어","tel":"031-966-0203","addr":"경기도 고양시 덕양구 도내동 1010번지 엘에이치원흥도래울마을3단지","category":"보건위생 - 미용원"},{"name":"대왕통닭 원흥점","tel":"","addr":"경기도 고양시 덕양구 도내동 1010번지 엘에이치원흥도래울마을3단지","category":"일반휴게음식 - 스넥"},{"name":"더스푼","tel":"070-4032-9718","addr":"경기도 고양시 덕양구 도내동 1010번지 엘에이치원흥도래울마을3단지","category":"의류 - 기타의류"},{"name":"던킨도너츠 고양원흥점","tel":"","addr":"경기도 고양시 덕양구 도내동 1010번지 엘에이치원흥도래울마을3단지","category":"음료식품 - 제과점"},{"name":"독도왕새우튀김 도래울점","tel":"031-968-8610","addr":"경기도 고양시 덕양구 도내동 1010번지 엘에이치원흥도래울마을3단지","category":"일반휴게음식 - 스넥"},{"name":"매쓰 크래프트(Math Craft)","tel":"031-967-3785","addr":"경기도 고양시 덕양구 도내동 1010번지 엘에이치원흥도래울마을3단지","category":"학원 - 기타 교육기관"},{"name":"세븐일레븐고양원흥3단지점","tel":"","addr":"경기도 고양시 덕양구 도내동 1010번지 엘에이치원흥도래울마을3단지","category":"유통업 영리 - 편 의 점"},{"name":"수내닭꼬치","tel":"070-7614-3579","addr":"경기도 고양시 덕양구 도내동 1010번지 엘에이치원흥도래울마을3단지","category":"일반휴게음식 - 일반한식"},{"name":"시골목장","tel":"02-111-1111","addr":"경기도 고양시 덕양구 도내동 1010번지 엘에이치원흥도래울마을3단지","category":"음료식품 - 정육점"},{"name":"신강원수산","tel":"031-962-0667","addr":"경기도 고양시 덕양구 도내동 1010번지 엘에이치원흥도래울마을3단지","category":"일반휴게음식 - 일반한식"},{"name":"올맨 플레이스","tel":"070-4024-8116","addr":"경기도 고양시 덕양구 도내동 1010번지 엘에이치원흥도래울마을3단지","category":"보건위생 - 미용원"},{"name":"원흥할인마트","tel":"031-965-9700","addr":"경기도 고양시 덕양구 도내동 1010번지 엘에이치원흥도래울마을3단지","category":"유통업 영리 - 슈퍼마켓"},{"name":"이터니티 레더 (eternity leather)","tel":"07-080-3140","addr":"경기도 고양시 덕양구 도내동 1010번지 엘에이치원흥도래울마을3단지","category":"신변잡화 - 가방"},{"name":"인호상사","tel":"031-962-1979","addr":"경기도 고양시 덕양구 도내동 1010번지 엘에이치원흥도래울마을3단지","category":"사무통신 - 기타 사무용품"},{"name":"정글비스킷","tel":"070-8885-7704","addr":"경기도 고양시 덕양구 도내동 1010번지 엘에이치원흥도래울마을3단지","category":"의류 - 정장"},{"name":"코코빅스맘어린이집[아이행복]","tel":"031-966-2548","addr":"경기도 고양시 덕양구 도내동 1010번지 엘에이치원흥도래울마을3단지","category":"학원 - 유아원"},{"name":"포시즌","tel":"031-1600-1148","addr":"경기도 고양시 덕양구 도내동 1010번지 엘에이치원흥도래울마을3단지","category":"용역 서비스 - 기타용역서비스"},{"name":"포어스시스템","tel":"070-8676-6161","addr":"경기도 고양시 덕양구 도내동 1010번지 엘에이치원흥도래울마을3단지","category":"사무통신 - 컴퓨터"},{"name":"피자마루 고양원흥점","tel":"031-966-1082","addr":"경기도 고양시 덕양구 도내동 1010번지 엘에이치원흥도래울마을3단지","category":"일반휴게음식 - 서양음식"},{"name":"하이푸드","tel":"","addr":"경기도 고양시 덕양구 도내동 1010번지 엘에이치원흥도래울마을3단지","category":"음료식품 - 기타음료식품"},{"name":"해송가구","tel":"031-813-4114","addr":"경기도 고양시 덕양구 도내동 1010번지 엘에이치원흥도래울마을3단지","category":"가구 - 일반가구"}]},{"lat":"37.629437723","long":"126.87326261","items":[{"name":"LJMS시스템에어컨","tel":"031-968-2507","addr":"경기도 고양시 덕양구 도내동 1047번지","category":""}]},{"lat":"37.629464752","long":"126.87326256","items":[{"name":"LJMS시스템에어컨","tel":"031-968-2507","addr":"경기도 고양시 덕양구 도내동 1047번지","category":"전기제품 - 냉열기기"}]},{"lat":"37.624328402","long":"126.86461719","items":[{"name":"MARE","tel":"031-970-6071","addr":"경기도 고양시 덕양구 도내동 592-4번지","category":"가구 - 일반가구"},{"name":"MARE","tel":"031-970-6071","addr":"경기도 고양시 덕양구 도내동 592-4번지","category":""}]},{"lat":"37.628969182","long":"126.85775497","items":[{"name":"NAVYWORKS(네이비웍스)","tel":"070-4116-1767","addr":"경기도 고양시 덕양구 도내동 843-1번지","category":""},{"name":"NAVYWORKS(네이비웍스)","tel":"070-4116-1767","addr":"경기도 고양시 덕양구 도내동 843-1번지","category":"레져용품 - 스포츠·레져용품"},{"name":"루프테이블","tel":"","addr":"경기도 고양시 덕양구 도내동 843-1번지","category":""}]},{"lat":"37.623105216","long":"126.8664545","items":[{"name":"OPUS korea","tel":"031-972-2855","addr":"경기도 고양시 덕양구 도내동 288번지","category":"주방용구 - 주방용구"},{"name":"OPUS korea","tel":"031-972-2855","addr":"경기도 고양시 덕양구 도내동 288번지","category":""}]},{"lat":"37.625690704","long":"126.85862226","items":[{"name":"PEP","tel":"031-967-4053","addr":"경기도 고양시 덕양구 도내동 805-8번지","category":""},{"name":"만이네가든","tel":"031-972-6142","addr":"경기도 고양시 덕양구 도내동 805-8번지","category":""},{"name":"만이네가든","tel":"031-972-6142","addr":"경기도 고양시 덕양구 도내동 805-8번지","category":"일반휴게음식 - 일반한식"}]},{"lat":"37.629582969","long":"126.87425925","items":[{"name":"TOP-MOTORS탑모터스","tel":"031-979-3434","addr":"경기도 고양시 덕양구 도내동 1053-3번지","category":"자동차정비 유지 - 자동차부품"},{"name":"TOP-MOTORS탑모터스","tel":"031-979-3434","addr":"경기도 고양시 덕양구 도내동 1053-3번지","category":""}]},{"lat":"37.629527446","long":"126.8729226","items":[{"name":"Wfactory/베베레시","tel":"02-3142-1220","addr":"경기도 고양시 덕양구 도내동 1044-3번지","category":""},{"name":"열두달과자점","tel":"","addr":"경기도 고양시 덕양구 도내동 1044-3번지","category":""}]},{"lat":"37.629581604","long":"126.87301313","items":[{"name":"Wfactory/베베레시","tel":"02-3142-1220","addr":"경기도 고양시 덕양구 도내동 1044-3번지","category":"광학제품 - 사진관"},{"name":"열두달과자점","tel":"","addr":"경기도 고양시 덕양구 도내동 1044-3번지","category":"음료식품 - 기타음료식품"}]},{"lat":"37.629444513","long":"126.87125747","items":[{"name":"creer","tel":"031-966-2317","addr":"경기도 고양시 덕양구 도내동 1037-4번지","category":"보건위생 - 미용원"},{"name":"creer","tel":"031-966-2317","addr":"경기도 고양시 덕양구 도내동 1037-4번지","category":""}]},{"lat":"37.627314005","long":"126.8675343","items":[{"name":"sweet. 향기나는","tel":"070-5022-4846","addr":"경기도 고양시 덕양구 도내동 1103번지 엘에이치원흥도래울마을6단지","category":""},{"name":"sweet. 향기나는","tel":"070-5022-4846","addr":"경기도 고양시 덕양구 도내동 1103번지 엘에이치원흥도래울마을6단지","category":"신변잡화 - 기타잡화"}]},{"lat":"37.634833625","long":"126.8724262","items":[{"name":"가복물만두","tel":"031-966-6867","addr":"경기도 고양시 덕양구 도내동 966번지","category":"일반휴게음식 - 일반한식"},{"name":"가복물만두","tel":"031-966-6867","addr":"경기도 고양시 덕양구 도내동 966번지","category":""},{"name":"교촌치킨 원흥점","tel":"031-962-1992","addr":"경기도 고양시 덕양구 도내동 966번지","category":"일반휴게음식 - 스넥"},{"name":"도래울 당구장","tel":"031-966-7562","addr":"경기도 고양시 덕양구 도내동 966번지","category":""},{"name":"도래울 당구장","tel":"031-966-7562","addr":"경기도 고양시 덕양구 도내동 966번지","category":"레저업소 - 당 구 장"},{"name":"도래울약국","tel":"031-967-7180","addr":"경기도 고양시 덕양구 도내동 966번지","category":"약국 - 약국"},{"name":"몬스터볼 볼링장","tel":"031-964-0979","addr":"경기도 고양시 덕양구 도내동 966번지","category":"레저업소 - 볼 링 장"},{"name":"숲에서","tel":"031-968-0256","addr":"경기도 고양시 덕양구 도내동 966번지","category":"음료식품 - 기타음료식품"},{"name":"쓰리팝 피시방","tel":"070-3385-7384","addr":"경기도 고양시 덕양구 도내동 966번지","category":""},{"name":"쓰리팝 피시방","tel":"070-3385-7384","addr":"경기도 고양시 덕양구 도내동 966번지","category":"레저업소 - 기타레져업소"},{"name":"아모레","tel":"031-968-8140","addr":"경기도 고양시 덕양구 도내동 966번지","category":"보건위생 - 화장품"},{"name":"아모레 퍼시픽","tel":"031-968-8140","addr":"경기도 고양시 덕양구 도내동 966번지","category":"보건위생 - 화장품"},{"name":"아모레카운셀러","tel":"031-968-8140","addr":"경기도 고양시 덕양구 도내동 966번지","category":"보건위생 - 화장품"},{"name":"아모레카운셀러","tel":"031-968-8140","addr":"경기도 고양시 덕양구 도내동 966번지","category":"보건위생 - 화장품"},{"name":"아모레카운셀러","tel":"031-968-8140","addr":"경기도 고양시 덕양구 도내동 966번지","category":"보건위생 - 화장품"},{"name":"아모레카운셀러","tel":"031-968-8140","addr":"경기도 고양시 덕양구 도내동 966번지","category":"보건위생 - 화장품"},{"name":"아모레카운셀러","tel":"031-968-8140","addr":"경기도 고양시 덕양구 도내동 966번지","category":"보건위생 - 화장품"},{"name":"아모레퍼시픽","tel":"031-968-8140","addr":"경기도 고양시 덕양구 도내동 966번지","category":"보건위생 - 화장품"},{"name":"아모레퍼시픽","tel":"031-968-8140","addr":"경기도 고양시 덕양구 도내동 966번지","category":"보건위생 - 화장품"},{"name":"아모레퍼시픽 고양 특약점","tel":"031-968-8140","addr":"경기도 고양시 덕양구 도내동 966번지","category":"보건위생 - 화장품"},{"name":"아모레퍼시픽 고양특약점","tel":"031-968-8140","addr":"경기도 고양시 덕양구 도내동 966번지","category":"보건위생 - 화장품"},{"name":"아모레퍼시픽 고양특약점","tel":"031-968-8140","addr":"경기도 고양시 덕양구 도내동 966번지","category":"보건위생 - 화장품"},{"name":"아모레퍼시픽 고양특약점","tel":"031-968-8140","addr":"경기도 고양시 덕양구 도내동 966번지","category":"보건위생 - 화장품"},{"name":"아모레퍼시픽 고양특약점","tel":"031-968-8140","addr":"경기도 고양시 덕양구 도내동 966번지","category":""},{"name":"아모레퍼시픽 고양특약점","tel":"031-968-8140","addr":"경기도 고양시 덕양구 도내동 966번지","category":""},{"name":"에이플러스따뜻한요양원","tel":"031-965-7008","addr":"경기도 고양시 덕양구 도내동 966번지","category":""},{"name":"에이플러스따뜻한요양원","tel":"031-965-7008","addr":"경기도 고양시 덕양구 도내동 966번지","category":"기타의료기관 - 기타의료기관 및 기타"},{"name":"오름스터디센터독서실","tel":"031-967-7888","addr":"경기도 고양시 덕양구 도내동 966번지","category":"학원 - 독서실"},{"name":"오름스터디센터독서실","tel":"031-967-7888","addr":"경기도 고양시 덕양구 도내동 966번지","category":""},{"name":"오름스터디카페","tel":"031-967-7888","addr":"경기도 고양시 덕양구 도내동 966번지","category":"용역 서비스 - 사무서비스"},{"name":"오름스터디카페","tel":"031-967-7888","addr":"경기도 고양시 덕양구 도내동 966번지","category":""},{"name":"유티학원","tel":"031-994-1191","addr":"경기도 고양시 덕양구 도내동 966번지","category":"학원 - 보습학원"},{"name":"이차돌도래울점","tel":"","addr":"경기도 고양시 덕양구 도내동 966번지","category":"일반휴게음식 - 일반한식"},{"name":"진텔레콤","tel":"","addr":"경기도 고양시 덕양구 도내동 966번지","category":"사무통신 - 통신기기"}]},{"lat":"37.617723452","long":"126.86392718","items":[{"name":"거성","tel":"031-971-9934","addr":"경기도 고양시 덕양구 도내동 619-1번지","category":""},{"name":"금가네 들꽃밥상","tel":"031-971-9934","addr":"경기도 고양시 덕양구 도내동 619-1번지","category":""},{"name":"진미식당","tel":"","addr":"경기도 고양시 덕양구 도내동 619-1번지","category":"일반휴게음식 - 일반한식"}]},{"lat":"37.630271383","long":"126.86945478","items":[{"name":"건강드림약국","tel":"031-965-7582","addr":"경기도 고양시 덕양구 도내동 1020번지","category":""},{"name":"깐부치킨 원흥점","tel":"031-965-9226","addr":"경기도 고양시 덕양구 도내동 1020번지","category":""},{"name":"도래울아이랑건식","tel":"031-966-2220","addr":"경기도 고양시 덕양구 도내동 1020번지","category":""},{"name":"도래울아이랑소아청소년과","tel":"031-966-2220","addr":"경기도 고양시 덕양구 도내동 1020번지","category":""},{"name":"안녕모차르트음악교습소","tel":"031-962-2089","addr":"경기도 고양시 덕양구 도내동 1020번지","category":""},{"name":"원흥최선영수학원","tel":"031-966-0098","addr":"경기도 고양시 덕양구 도내동 1020번지","category":""},{"name":"채유수학학원","tel":"031-964-9212","addr":"경기도 고양시 덕양구 도내동 1020번지","category":""},{"name":"한결약국","tel":"031-965-7582","addr":"경기도 고양시 덕양구 도내동 1020번지","category":""}]},{"lat":"37.630244354","long":"126.86945483","items":[{"name":"건강드림약국","tel":"031-965-7582","addr":"경기도 고양시 덕양구 도내동 1020번지","category":"약국 - 약국"},{"name":"깐부치킨 원흥점","tel":"031-965-9226","addr":"경기도 고양시 덕양구 도내동 1020번지","category":"일반휴게음식 - 스넥"},{"name":"도래울아이랑건식","tel":"031-966-2220","addr":"경기도 고양시 덕양구 도내동 1020번지","category":"건강식품 - 기타건강식품"},{"name":"도래울아이랑소아청소년과","tel":"031-966-2220","addr":"경기도 고양시 덕양구 도내동 1020번지","category":"의원 - 의원"},{"name":"안녕모차르트음악교습소","tel":"031-962-2089","addr":"경기도 고양시 덕양구 도내동 1020번지","category":"학원 - 예·체능계학원"},{"name":"원흥최선영수학원","tel":"031-966-0098","addr":"경기도 고양시 덕양구 도내동 1020번지","category":"학원 - 보습학원"},{"name":"채유수학학원","tel":"031-964-9212","addr":"경기도 고양시 덕양구 도내동 1020번지","category":"학원 - 보습학원"},{"name":"한결약국","tel":"031-965-7582","addr":"경기도 고양시 덕양구 도내동","category":"약국 - 약국"}]},{"lat":"37.623274864","long":"126.85761879","items":[{"name":"경기집","tel":"031-972-2929","addr":"경기도 고양시 덕양구 도내동 799-2번지","category":""}]},{"lat":"37.621636624","long":"126.85886797","items":[{"name":"경기케미칼","tel":"031-970-0838","addr":"경기도 고양시 덕양구 도내동","category":"서적문구 - 과학기자재"},{"name":"경기케미칼","tel":"031-970-0838","addr":"경기도 고양시 덕양구 도내동 782","category":""}]},{"lat":"37.630686583","long":"126.87012242","items":[{"name":"경희대 한 태권도장","tel":"031-968-1908","addr":"경기도 고양시 덕양구 도내동 1024번지","category":"학원 - 예·체능계학원"},{"name":"도래울서일영어학원","tel":"031-968-7905","addr":"경기도 고양시 덕양구 도내동 1024번지","category":"학원 - 외국어학원"},{"name":"산동","tel":"031-974-5584","addr":"경기도 고양시 덕양구 도내동 1024번지","category":"일반휴게음식 - 중국식"},{"name":"스낵 앤 아이스","tel":"031-528-6263","addr":"경기도 고양시 덕양구 도내동 1024번지","category":"음료식품 - 기타음료식품"},{"name":"연세예빛음악학원","tel":"031-965-9663","addr":"경기도 고양시 덕양구 도내동","category":"학원 - 예·체능계학원"},{"name":"이선생라인수학교습소","tel":"031-967-0951","addr":"경기도 고양시 덕양구 도내동 1024번지","category":"학원 - 보습학원"},{"name":"잇다분식","tel":"031-965-7976","addr":"경기도 고양시 덕양구 도내동 1024번지","category":"일반휴게음식 - 스넥"},{"name":"퀸스부대찌개","tel":"031-968-9990","addr":"경기도 고양시 덕양구 도내동 1024번지","category":"일반휴게음식 - 일반한식"}]},{"lat":"37.630578429","long":"126.87008863","items":[{"name":"경희대 한 태권도장","tel":"031-968-1908","addr":"경기도 고양시 덕양구 도내동 1024번지","category":""},{"name":"도래울서일영어학원","tel":"031-968-7905","addr":"경기도 고양시 덕양구 도내동 1024번지","category":""},{"name":"도래울서일영어학원","tel":"031-968-7905","addr":"경기도 고양시 덕양구 도내동 1024번지","category":""},{"name":"산동","tel":"031-970-0109","addr":"경기도 고양시 덕양구 도내동 1024번지","category":""},{"name":"산동","tel":"031-974-5584","addr":"경기도 고양시 덕양구 도내동 1024번지","category":""},{"name":"스낵 앤 아이스","tel":"031-528-6263","addr":"경기도 고양시 덕양구 도내동 1024번지","category":""},{"name":"연세예빛음악학원","tel":"031-965-9663","addr":"경기도 고양시 덕양구 도내동 1024번지","category":""},{"name":"잇다분식","tel":"031-965-7976","addr":"경기도 고양시 덕양구 도내동 1024번지","category":""},{"name":"잇다분식","tel":"031-965-7976","addr":"경기도 고양시 덕양구 도내동 1024번지","category":""},{"name":"퀸스부대찌개","tel":"031-968-9990","addr":"경기도 고양시 덕양구 도내동 1024번지","category":""},{"name":"퀸스부대찌개","tel":"031-968-9990","addr":"경기도 고양시 덕양구 도내동 1024번지","category":""}]},{"lat":"37.626410111","long":"126.87295068","items":[{"name":"고기바라기","tel":"","addr":"경기도 고양시 덕양구 도내동 1114번지","category":"일반휴게음식 - 일반한식"},{"name":"제이네일","tel":"","addr":"경기도 고양시 덕양구 도내동 1114번지","category":"보건위생 - 피부미용실"},{"name":"제이네일","tel":"","addr":"경기도 고양시 덕양구 도내동 1114번지","category":""},{"name":"카페제이","tel":"","addr":"경기도 고양시 덕양구 도내동 1114번지","category":""}]},{"lat":"37.633633991","long":"126.85595592","items":[{"name":"고기오는날","tel":"031-967-9746","addr":"경기도 고양시 덕양구 도내동 853-13번지","category":""},{"name":"고기오는날(고양점)","tel":"031-967-9746","addr":"경기도 고양시 덕양구 도내동 853-13번지","category":""}]},{"lat":"37.630577738","long":"126.86947689","items":[{"name":"고대이아이이국제어학원","tel":"031-966-0582","addr":"경기도 고양시 덕양구 도내동 1022번지","category":"학원 - 외국어학원"},{"name":"명륜진사갈비 원흥점","tel":"031-966-4992","addr":"경기도 고양시 덕양구 도내동 1022번지","category":"일반휴게음식 - 일반한식"},{"name":"미복 도래울점","tel":"031-968-5672","addr":"경기도 고양시 덕양구 도내동 1022번지","category":"일반휴게음식 - 일반한식"},{"name":"본죽 원흥지구점","tel":"031-966-6289","addr":"경기도 고양시 덕양구 도내동 1022번지","category":"일반휴게음식 - 일반한식"},{"name":"살롱드헤어베리","tel":"031-967-2026","addr":"경기도 고양시 덕양구 도내동 1022번지","category":"보건위생 - 미용원"},{"name":"야호창작소미술","tel":"031-967-9560","addr":"경기도 고양시 덕양구 도내동 1022번지","category":"학원 - 예·체능계학원"},{"name":"위니드수학학원","tel":"031-969-9393","addr":"경기도 고양시 덕양구 도내동 1022번지","category":"학원 - 보습학원"},{"name":"키즈앤맘치과","tel":"031-964-2080","addr":"경기도 고양시 덕양구 도내동 1022번지","category":"의원 - 치과의원"},{"name":"탑문구센터","tel":"031-979-5131","addr":"경기도 고양시 덕양구 도내동 1022번지","category":"서적문구 - 문구용품"}]},{"lat":"37.634993819","long":"126.87064724","items":[{"name":"고래미역","tel":"","addr":"경기도 고양시 덕양구 도내동 961번지","category":"일반휴게음식 - 일반한식"},{"name":"랑스마일 치과","tel":"031-969-2879","addr":"경기도 고양시 덕양구 도내동 961번지","category":"의원 - 치과의원"},{"name":"리틀비틀원흥","tel":"031-967-3133","addr":"경기도 고양시 덕양구 도내동 961번지","category":"일반휴게음식 - 일반한식"},{"name":"수아내과의원","tel":"031-968-7585","addr":"경기도 고양시 덕양구 도내동 961번지","category":"의원 - 의원"},{"name":"안경제작소","tel":"031-966-7008","addr":"경기도 고양시 덕양구 도내동 961번지","category":"보건위생 - 안경"},{"name":"엘리나 필라테스","tel":"031-901-2299","addr":"경기도 고양시 덕양구 도내동 961번지","category":"레저업소 - 헬스클럽"},{"name":"여디디야음악학원","tel":"031-963-4455","addr":"경기도 고양시 덕양구 도내동 961번지","category":"학원 - 예·체능계학원"},{"name":"요미요미원흥미술학원","tel":"031-966-5007","addr":"경기도 고양시 덕양구 도내동 961번지","category":"학원 - 예·체능계학원"},{"name":"원스파 사우나","tel":"031-996-7300","addr":"경기도 고양시 덕양구 도내동 961번지","category":"보건위생 - 사우나"},{"name":"프라임매쓰수학학원","tel":"031-967-7209","addr":"경기도 고양시 덕양구 도내동 961번지","category":"학원 - 보습학원"},{"name":"행복한집","tel":"031-963-7009","addr":"경기도 고양시 덕양구 도내동 961번지","category":"일반휴게음식 - 일반한식"}]},{"lat":"37.635047852","long":"126.87062448","items":[{"name":"고양메디웰의원","tel":"031-968-7585","addr":"경기도 고양시 덕양구 도내동 961번지","category":""},{"name":"랑스마일 치과","tel":"031-969-2879","addr":"경기도 고양시 덕양구 도내동 961번지","category":""},{"name":"리틀비틀원흥점","tel":"031-967-3133","addr":"경기도 고양시 덕양구 도내동 961번지","category":""},{"name":"수아내과의원","tel":"031-968-7585","addr":"경기도 고양시 덕양구 도내동 961번지","category":""},{"name":"안경제작소","tel":"031-966-7008","addr":"경기도 고양시 덕양구 도내동 961번지","category":""},{"name":"엘리나 필라테스","tel":"031-901-2299","addr":"경기도 고양시 덕양구 도내동 961번지","category":""},{"name":"여디디야음악학원","tel":"031-963-4455","addr":"경기도 고양시 덕양구 도내동 961번지","category":""},{"name":"연세사우나","tel":"031-966-4199","addr":"경기도 고양시 덕양구 도내동 961번지","category":""},{"name":"요미요미원흥미술학원","tel":"031-966-5007","addr":"경기도 고양시 덕양구 도내동 961번지","category":""},{"name":"요미요미원흥미술학원","tel":"031-966-5007","addr":"경기도 고양시 덕양구 도내동 961번지","category":""},{"name":"원스파불한증막","tel":"031-966-4199","addr":"경기도 고양시 덕양구 도내동 961번지","category":""},{"name":"천사약국","tel":"031-967-9552","addr":"경기도 고양시 덕양구 도내동 961번지","category":""},{"name":"천사약국","tel":"031-967-9552","addr":"경기도 고양시 덕양구 도내동 961번지","category":""},{"name":"프라임매쓰수학학원","tel":"031-967-7209","addr":"경기도 고양시 덕양구 도내동 961번지","category":""}]},{"lat":"37.618244905","long":"126.86298609","items":[{"name":"고양상회","tel":"031-972-5850","addr":"경기도 고양시 덕양구 도내동 615번지","category":""},{"name":"제일종합인테리어","tel":"02-523-9866","addr":"경기도 고양시 덕양구 도내동 615번지","category":""},{"name":"제일종합인테리어","tel":"02-523-9866","addr":"경기도 고양시 덕양구 도내동 615번지","category":"건축자재 - 인테리어전문"}]},{"lat":"37.628222037","long":"126.86584475","items":[{"name":"고양시립꿈나무어린이집[아이행복]","tel":"031-968-1700","addr":"경기도 고양시 덕양구 도내동 1006번지 원흥호반베르디움더퍼스트","category":"학원 - 유아원"},{"name":"구어조은닭","tel":"","addr":"경기도 고양시 덕양구 도내동 1006번지 원흥호반베르디움더퍼스트","category":"일반휴게음식 - 스넥"},{"name":"도래울산업","tel":"","addr":"경기도 고양시 덕양구 도내동 1006번지 원흥호반베르디움더퍼스트","category":"자동차정비 유지 - 주차장"},{"name":"도래울산업","tel":"","addr":"경기도 고양시 덕양구 도내동 1006번지 원흥호반베르디움더퍼스트","category":""},{"name":"라인퍼팩트","tel":"","addr":"경기도 고양시 덕양구 도내동 1006번지 원흥호반베르디움더퍼스트","category":""},{"name":"매직라인(일산점)","tel":"","addr":"경기도 고양시 덕양구 도내동 1006번지 원흥호반베르디움더퍼스트","category":"용역 서비스 - 기타용역서비스"},{"name":"민헤어샵","tel":"031-818-4133","addr":"경기도 고양시 덕양구 도내동 1006번지 원흥호반베르디움더퍼스트","category":"보건위생 - 미용원"},{"name":"씨유원흥호반점","tel":"031-967-2709","addr":"경기도 고양시 덕양구 도내동 1006번지 원흥호반베르디움더퍼스트","category":""},{"name":"씨유원흥호반점","tel":"031-967-2709","addr":"경기도 고양시 덕양구 도내동 1006번지 원흥호반베르디움더퍼스트","category":"유통업 영리 - 편 의 점"},{"name":"안녕효장원","tel":"031-814-0706","addr":"경기도 고양시 덕양구 도내동 1006번지 원흥호반베르디움더퍼스트","category":""},{"name":"안녕효장원","tel":"031-814-0706","addr":"경기도 고양시 덕양구 도내동 1006번지 원흥호반베르디움더퍼스트","category":"보건위생 - 미용원"},{"name":"영어공부방","tel":"","addr":"경기도 고양시 덕양구 도내동 1006번지 원흥호반베르디움더퍼스트","category":""},{"name":"영어공부방","tel":"","addr":"경기도 고양시 덕양구 도내동 1006번지 원흥호반베르디움더퍼스트","category":"학원 - 기타 교육기관"},{"name":"호반세탁","tel":"031-963-8281","addr":"경기도 고양시 덕양구 도내동 1006번지 원흥호반베르디움더퍼스트","category":""},{"name":"호반세탁","tel":"031-963-8281","addr":"경기도 고양시 덕양구 도내동 1006번지 원흥호반베르디움더퍼스트","category":""},{"name":"호반세탁","tel":"031-963-8281","addr":"경기도 고양시 덕양구 도내동 1006번지 원흥호반베르디움더퍼스트","category":"수리서비스 - 세탁소"}]},{"lat":"37.628577109","long":"126.86906132","items":[{"name":"고양용인대힘찬태권도장","tel":"031-965-6222","addr":"경기도 고양시 덕양구 도내동 1091번지","category":""},{"name":"고양용인대힘찬태권도장","tel":"031-965-6222","addr":"경기도 고양시 덕양구 도내동 1091번지","category":"학원 - 예·체능계학원"},{"name":"그림이 좋은 아이들 미술학원","tel":"031-969-9870","addr":"경기도 고양시 덕양구 도내동 1091번지","category":"학원 - 예·체능계학원"},{"name":"그림이좋은아이들미술학원","tel":"031-969-9870","addr":"경기도 고양시 덕양구 도내동 1091번지","category":""},{"name":"더맛집","tel":"","addr":"경기도 고양시 덕양구 도내동 1091번지","category":"일반휴게음식 - 일반한식"},{"name":"더맛집","tel":"","addr":"경기도 고양시 덕양구 도내동 1091번지","category":""},{"name":"도래울떡방","tel":"031-907-5988","addr":"경기도 고양시 덕양구 도내동 1091번지","category":""},{"name":"도래울떡방","tel":"031-907-5988","addr":"경기도 고양시 덕양구 도내동 1091번지","category":"음료식품 - 제과점"},{"name":"도래울베스트학원","tel":"031-967-1020","addr":"경기도 고양시 덕양구 도내동 1091번지","category":"학원 - 보습학원"},{"name":"도래울베스트학원","tel":"031-967-1020","addr":"경기도 고양시 덕양구 도내동 1091번지","category":""},{"name":"도래울에이치케이무용학원","tel":"031-966-0707","addr":"경기도 고양시 덕양구 도내동 1091번지","category":"학원 - 예·체능계학원"},{"name":"도래울에이치케이무용학원","tel":"031-966-0707","addr":"경기도 고양시 덕양구 도내동 1091번지","category":""},{"name":"독서코칭논술교습소","tel":"031-901-1008","addr":"경기도 고양시 덕양구 도내동 1091번지","category":""},{"name":"독서코칭논술교습소","tel":"031-901-1008","addr":"경기도 고양시 덕양구 도내동 1091번지","category":"회원제형태 - 학원"},{"name":"숲음악학원","tel":"031-968-3557","addr":"경기도 고양시 덕양구 도내동 1091번지","category":""},{"name":"숲음악학원","tel":"031-968-3557","addr":"경기도 고양시 덕양구 도내동 1091번지","category":"학원 - 예·체능계학원"},{"name":"숲음악학원","tel":"031-968-3557","addr":"경기도 고양시 덕양구 도내동","category":"학원 - 예·체능계학원"},{"name":"신김밥천국","tel":"031-966-1478","addr":"경기도 고양시 덕양구 도내동 1091번지","category":""},{"name":"신김밥천국","tel":"031-966-1478","addr":"경기도 고양시 덕양구 도내동 1091번지","category":"일반휴게음식 - 일반한식"},{"name":"옛날장터치킨","tel":"031-965-4322","addr":"경기도 고양시 덕양구 도내동 1091번지","category":""},{"name":"원흥6단지해법영어교습소","tel":"031-966-5905","addr":"경기도 고양시 덕양구 도내동 1091번지","category":"회원제형태 - 학원"},{"name":"원흥6단지해법영어교습소","tel":"031-966-5905","addr":"경기도 고양시 덕양구 도내동 1091번지","category":""},{"name":"작업실","tel":"031-963-1126","addr":"경기도 고양시 덕양구 도내동 1091번지","category":"서적문구 - 출판 및 인쇄물"},{"name":"커피에 반하다(원흥점)","tel":"031-964-9812","addr":"경기도 고양시 덕양구 도내동 1091번지","category":""},{"name":"커피에 반하다(원흥점)","tel":"031-964-9812","addr":"경기도 고양시 덕양구 도내동 1091번지","category":"일반휴게음식 - 서양음식"},{"name":"커피에반하다","tel":"031-964-9812","addr":"경기도 고양시 덕양구 도내동 1091번지","category":""},{"name":"크린토피아 고양원흥6단지","tel":"031-966-6188","addr":"경기도 고양시 덕양구 도내동 1091번지","category":""},{"name":"크린토피아 고양원흥6단지","tel":"031-966-6188","addr":"경기도 고양시 덕양구 도내동 1091번지","category":"수리서비스 - 세탁소"},{"name":"크린토피아고양원흥6단지","tel":"031-966-6188","addr":"경기도 고양시 덕양구 도내동 1091번지","category":""},{"name":"토니앤헤어","tel":"031-968-3223","addr":"경기도 고양시 덕양구 도내동 1091번지","category":"보건위생 - 미용원"},{"name":"토니앤헤어","tel":"031-968-3223","addr":"경기도 고양시 덕양구 도내동 1091번지","category":""},{"name":"해법중국어 원흥도래울학원","tel":"031-966-6689","addr":"경기도 고양시 덕양구 도내동 1091번지","category":""}]},{"lat":"37.616446507","long":"126.86601361","items":[{"name":"고양풋살센터","tel":"031-970-2246","addr":"경기도 고양시 덕양구 도내동","category":"레저업소 - 기타레져업소"},{"name":"고양풋살센터","tel":"031-970-2246","addr":"경기도 고양시 덕양구 도내동 160-2","category":""}]},{"lat":"37.62866367","long":"126.87397763","items":[{"name":"곰돌이 워시 앤 모터스","tel":"","addr":"경기도 고양시 덕양구 도내동 1064-4번지","category":"자동차정비 유지 - 세차장"},{"name":"곰돌이 워시 앤 모터스","tel":"","addr":"경기도 고양시 덕양구 도내동 1064-4번지","category":""}]},{"lat":"37.627468953","long":"126.86909729","items":[{"name":"공감","tel":"031-974-2358","addr":"경기도 고양시 덕양구 도내동 1103번지 엘에이치원흥도래울마을6단지","category":"의류 - 기타의류"},{"name":"도래울영아어린이집[아이행복]","tel":"031-818-2260","addr":"경기도 고양시 덕양구 도내동 1103번지 엘에이치원흥도래울마을6단지","category":"학원 - 유아원"}]},{"lat":"37.624139357","long":"126.86475347","items":[{"name":"공동육아도토리 어린이집[아이행복]","tel":"031-967-3480","addr":"경기도 고양시 덕양구 도내동 592-3번지","category":"학원 - 유아원"}]},{"lat":"37.633968656","long":"126.87239373","items":[{"name":"구이가원흥점","tel":"031-902-8592","addr":"경기도 고양시 덕양구 도내동 976번지","category":""},{"name":"네발아이들","tel":"070-8269-2191","addr":"경기도 고양시 덕양구 도내동 976번지","category":""},{"name":"러브키즈","tel":"070-5680-9858","addr":"경기도 고양시 덕양구 도내동 976번지","category":""},{"name":"리빙스턴어학학원","tel":"031-971-7344","addr":"경기도 고양시 덕양구 도내동 976번지","category":""},{"name":"아싸요우 원흥","tel":"031-968-8253","addr":"경기도 고양시 덕양구 도내동 976번지","category":""},{"name":"아싸요우 원흥","tel":"031-986-8253","addr":"경기도 고양시 덕양구 도내동 976번지","category":""},{"name":"좋은사람들","tel":"031-963-0119","addr":"경기도 고양시 덕양구 도내동 976번지","category":""},{"name":"춘천후평닭갈비","tel":"031-967-6689","addr":"경기도 고양시 덕양구 도내동 976번지","category":""},{"name":"치킨플러스(고양원흥점)","tel":"031-969-6692","addr":"경기도 고양시 덕양구 도내동 976번지","category":""},{"name":"코리안바베큐(원흥점)","tel":"031-969-6692","addr":"경기도 고양시 덕양구 도내동 976번지","category":""},{"name":"티댄타","tel":"031-965-0609","addr":"경기도 고양시 덕양구 도내동 976번지","category":""},{"name":"포천돼지","tel":"031-902-8592","addr":"경기도 고양시 덕양구 도내동 976번지","category":""},{"name":"포천정육","tel":"031-902-8592","addr":"경기도 고양시 덕양구 도내동 976번지","category":""}]},{"lat":"37.629577186","long":"126.86905953","items":[{"name":"그녀의 커피잔","tel":"031-967-5355","addr":"경기도 고양시 덕양구 도내동 1079번지","category":"일반휴게음식 - 서양음식"},{"name":"그녀의 커피잔","tel":"031-967-5355","addr":"경기도 고양시 덕양구 도내동 1079번지","category":""},{"name":"다짐필라테스 원흥점","tel":"031-966-9991","addr":"경기도 고양시 덕양구 도내동 1079번지","category":"레저업소 - 헬스클럽"},{"name":"세븐일레븐도내센트럴점","tel":"031-1577-0711","addr":"경기도 고양시 덕양구 도내동 1079번지","category":"유통업 영리 - 편 의 점"},{"name":"세븐일레븐도내센트럴점","tel":"031-1577-0711","addr":"경기도 고양시 덕양구 도내동 1079번지","category":""},{"name":"제이아트음악학원","tel":"031-967-3288","addr":"경기도 고양시 덕양구 도내동 1079번지","category":""},{"name":"제이아트음악학원","tel":"031-967-3288","addr":"경기도 고양시 덕양구 도내동 1079번지","category":"학원 - 예·체능계학원"}]},{"lat":"37.629415397","long":"126.86939967","items":[{"name":"그녀의 커피잔","tel":"031-967-5355","addr":"경기도 고양시 덕양구 도내동 1080번지","category":"일반휴게음식 - 서양음식"},{"name":"도래울숯불화로구이","tel":"031-965-9599","addr":"경기도 고양시 덕양구 도내동 1080번지","category":""},{"name":"돌삼겹살","tel":"031-974-2756","addr":"경기도 고양시 덕양구 도내동 1080번지","category":""},{"name":"마포소문난족발원흥점","tel":"031-966-9734","addr":"경기도 고양시 덕양구 도내동 1080번지","category":""},{"name":"큰손식당","tel":"031-971-5658","addr":"경기도 고양시 덕양구 도내동 1080번지","category":""},{"name":"큰손식당","tel":"031-971-5658","addr":"경기도 고양시 덕양구 도내동 1080번지","category":"일반휴게음식 - 일반한식"},{"name":"클레버코딩학원","tel":"031-964-3311","addr":"경기도 고양시 덕양구 도내동 1080번지","category":"학원 - 컴퓨터학원"},{"name":"하하손칼국수 원흥점","tel":"031-969-1888","addr":"경기도 고양시 덕양구 도내동 1080번지","category":""},{"name":"해법중국어 잉글리시스푼 도래울어학원","tel":"","addr":"경기도 고양시 덕양구 도내동 1080번지","category":"학원 - 외국어학원"}]},{"lat":"37.628861796","long":"126.87389799","items":[{"name":"그린O.A","tel":"031-968-5935","addr":"경기도 고양시 덕양구 도내동 1064-2번지","category":"회원제형태 - 기타4"},{"name":"그린O.A","tel":"031-968-5935","addr":"경기도 고양시 덕양구 도내동 1064-2번지","category":""}]},{"lat":"37.625608246","long":"126.87295208","items":[{"name":"그릿","tel":"031-966-9748","addr":"경기도 고양시 덕양구 도내동 1119번지","category":""},{"name":"엠오케이(MOK)","tel":"031-000-0000","addr":"경기도 고양시 덕양구 도내동 1119번지","category":"일반휴게음식 - 서양음식"}]},{"lat":"37.624661889","long":"126.87264788","items":[{"name":"금가네들꽃밥상(원흥점)","tel":"031-967-0722","addr":"경기도 고양시 덕양구 도내동 1122-1번지","category":""},{"name":"금가네들꽃밥상(원흥점)","tel":"031-967-0722","addr":"경기도 고양시 덕양구 도내동 1122-1번지","category":"일반휴게음식 - 일반한식"}]},{"lat":"37.629941657","long":"126.85728862","items":[{"name":"기쁨 하우징","tel":"031-968-9411","addr":"경기도 고양시 덕양구 도내동 845-1번지","category":"가구 - 일반가구"},{"name":"기쁨 하우징","tel":"031-968-9411","addr":"경기도 고양시 덕양구 도내동 845-1번지","category":""},{"name":"월드산업","tel":"031-968-9411","addr":"경기도 고양시 덕양구 도내동 845-1번지","category":"건축자재 - 인테리어전문"},{"name":"월드산업","tel":"031-968-9411","addr":"경기도 고양시 덕양구 도내동 845-1번지","category":""}]},{"lat":"37.629916266","long":"126.87420204","items":[{"name":"까르미스튜디오","tel":"","addr":"경기도 고양시 덕양구 도내동 1053-1번지","category":""},{"name":"바이크랩","tel":"","addr":"경기도 고양시 덕양구 도내동 1053-1번지","category":""},{"name":"베이비라인","tel":"02-6071-3824","addr":"경기도 고양시 덕양구 도내동 1053-1번지","category":""}]},{"lat":"37.629833901","long":"126.87303535","items":[{"name":"꼬레랑옛날통닭","tel":"031-967-7972","addr":"경기도 고양시 덕양구 도내동 1042-3번지","category":""},{"name":"미스지니","tel":"070-7006-0097","addr":"경기도 고양시 덕양구 도내동 1042-3번지","category":""},{"name":"치킨멤버 원흥점","tel":"031-967-7972","addr":"경기도 고양시 덕양구 도내동 1042-3번지","category":""}]},{"lat":"37.629915051","long":"126.87309185","items":[{"name":"꼬레랑옛날통닭","tel":"031-967-7972","addr":"경기도 고양시 덕양구 도내동 1042-3번지","category":"일반휴게음식 - 스넥"}]},{"lat":"37.629996933","long":"126.87381673","items":[{"name":"꼬모","tel":"031-962-3505","addr":"경기도 고양시 덕양구 도내동 1048번지","category":"일반휴게음식 - 일반한식"}]},{"lat":"37.629942838","long":"126.87378284","items":[{"name":"꼬모","tel":"031-962-3505","addr":"경기도 고양시 덕양구 도내동 1048번지","category":""}]},{"lat":"37.627586835","long":"126.86976544","items":[{"name":"꿈나라어린이집[아이행복]","tel":"031-903-5197","addr":"경기도 고양시 덕양구 도내동 1103번지 엘에이치원흥도래울마을6단지","category":"학원 - 유아원"}]},{"lat":"37.629270509","long":"126.86875421","items":[{"name":"꿈나무약국","tel":"070-4213-7707","addr":"경기도 고양시 덕양구 도내동 1087번지","category":""},{"name":"꿈나무약국","tel":"070-4213-7707","addr":"경기도 고양시 덕양구 도내동 1087번지","category":"약국 - 약국"},{"name":"원흥동물의료센터","tel":"031-966-3328","addr":"경기도 고양시 덕양구 도내동 1087번지","category":""},{"name":"원흥동물의료센터","tel":"031-966-3328","addr":"경기도 고양시 덕양구 도내동 1087번지","category":"기타의료기관 - 동물병원"},{"name":"지앤비 영어학원","tel":"031-962-0582","addr":"경기도 고양시 덕양구 도내동 1087번지","category":"학원 - 보습학원"},{"name":"지앤비 영어학원","tel":"031-962-0582","addr":"경기도 고양시 덕양구 도내동 1087번지","category":""},{"name":"파리바게뜨 원흥점","tel":"031-967-8249","addr":"경기도 고양시 덕양구 도내동","category":"음료식품 - 제과점"},{"name":"파리바게뜨 원흥점","tel":"031-967-8249","addr":"경기도 고양시 덕양구 도내동 1087번지","category":""}]},{"lat":"37.63005612","long":"126.87031613","items":[{"name":"꿈에미술학원","tel":"031-964-9808","addr":"경기도 고양시 덕양구 도내동 1028번지","category":"학원 - 예·체능계학원"},{"name":"도래울해법영어교습소","tel":"031-965-9008","addr":"경기도 고양시 덕양구 도내동 1028번지","category":"학원 - 외국어학원"},{"name":"리아 요가&플라잉","tel":"031-962-1931","addr":"경기도 고양시 덕양구 도내동 1028번지","category":"레저업소 - 헬스클럽"},{"name":"사람과환경(주)","tel":"031-919-3770","addr":"경기도 고양시 덕양구 도내동 1028번지","category":"용역 서비스 - 기타용역서비스"},{"name":"아름다워지는시간","tel":"031-963-1363","addr":"경기도 고양시 덕양구 도내동 1028번지","category":"보건위생 - 피부미용실"},{"name":"이앤엠학원","tel":"031-969-3033","addr":"경기도 고양시 덕양구 도내동 1028번지","category":"학원 - 보습학원"},{"name":"이앤엠학원","tel":"031-969-3033","addr":"경기도 고양시 덕양구 도내동 1028번지","category":"학원 - 보습학원"},{"name":"자기주도학습훈련수학교습소","tel":"031-967-6191","addr":"경기도 고양시 덕양구 도내동 1028번지","category":"학원 - 보습학원"},{"name":"풀하우스","tel":"031-965-2030","addr":"경기도 고양시 덕양구 도내동 1028번지","category":"용역 서비스 - 기타용역서비스"}]},{"lat":"37.630056184","long":"126.87037277","items":[{"name":"꿈에미술학원","tel":"031-964-9808","addr":"경기도 고양시 덕양구 도내동 1028번지","category":""},{"name":"도래울해법영어교습소","tel":"031-965-9008","addr":"경기도 고양시 덕양구 도내동 1028번지","category":""},{"name":"리아 요가&플라잉","tel":"031-962-1931","addr":"경기도 고양시 덕양구 도내동 1028번지","category":""},{"name":"미래인터내셔널","tel":"031-946-0977","addr":"경기도 고양시 덕양구 도내동 1028번지","category":""},{"name":"사람과환경(주)","tel":"031-919-3770","addr":"경기도 고양시 덕양구 도내동 1028번지","category":""},{"name":"아름다워지는시간","tel":"031-963-1363","addr":"경기도 고양시 덕양구 도내동 1028번지","category":""},{"name":"이앤엠학원","tel":"031-969-3033","addr":"경기도 고양시 덕양구 도내동 1028번지","category":""},{"name":"이앤엠학원","tel":"031-969-3033","addr":"경기도 고양시 덕양구 도내동 1028번지","category":""},{"name":"자기주도학습훈련수학교습소","tel":"031-967-6191","addr":"경기도 고양시 덕양구 도내동 1028번지","category":""},{"name":"풀하우스","tel":"031-965-2030","addr":"경기도 고양시 덕양구 도내동 1028번지","category":""}]},{"lat":"37.626349992","long":"126.8675587","items":[{"name":"나니잡화점","tel":"02-819-0415","addr":"경기도 고양시 덕양구 도내동 1103번지 엘에이치원흥도래울마을6단지","category":"의류 - 정장"},{"name":"나니잡화점","tel":"02-819-0415","addr":"경기도 고양시 덕양구 도내동 1103번지 엘에이치원흥도래울마을6단지","category":""},{"name":"레이첼 영어","tel":"","addr":"경기도 고양시 덕양구 도내동 1103번지 엘에이치원흥도래울마을6단지","category":"학원 - 기타 교육기관"},{"name":"루시스냅","tel":"","addr":"경기도 고양시 덕양구 도내동 1103번지 엘에이치원흥도래울마을6단지","category":""},{"name":"루시스냅","tel":"","addr":"경기도 고양시 덕양구 도내동 1103번지 엘에이치원흥도래울마을6단지","category":"광학제품 - 사진관"},{"name":"스튜디오 루시","tel":"050-5767-6767","addr":"경기도 고양시 덕양구 도내동 1103번지 엘에이치원흥도래울마을6단지","category":""}]},{"lat":"37.634742358","long":"126.87137275","items":[{"name":"나인스크린골프클럽","tel":"031-963-0300","addr":"경기도 고양시 덕양구 도내동 958번지","category":"레저업소 - 스크린골프"},{"name":"대영파킹","tel":"02-1111-1111","addr":"경기도 고양시 덕양구 도내동 958번지","category":"자동차정비 유지 - 주차장"},{"name":"도래울정형외과의원","tel":"031-813-1179","addr":"경기도 고양시 덕양구 도내동 958번지","category":"의원 - 의원"},{"name":"몽","tel":"031-962-6691","addr":"경기도 고양시 덕양구 도내동 958번지","category":"일반휴게음식 - 칵테일바"},{"name":"별밤노래연습장","tel":"031-811-2036","addr":"경기도 고양시 덕양구 도내동 958번지","category":"레저업소 - 노 래 방"},{"name":"비앤비휘트니스(B&B휘트니스)","tel":"031-8073-9696","addr":"경기도 고양시 덕양구 도내동 958번지","category":"레저업소 - 헬스클럽"},{"name":"신김밥천국","tel":"031-816-7676","addr":"경기도 고양시 덕양구 도내동 958번지","category":"일반휴게음식 - 스넥"},{"name":"썬당구클럽","tel":"031-967-7781","addr":"경기도 고양시 덕양구 도내동 958번지","category":"레저업소 - 당 구 장"},{"name":"아싸포차","tel":"031-966-2698","addr":"경기도 고양시 덕양구 도내동 958번지","category":"일반휴게음식 - 일반한식"},{"name":"알팡 (알아서노는팡)","tel":"031-966-5030","addr":"경기도 고양시 덕양구 도내동 958번지","category":"레저업소 - 기타레져업소"},{"name":"옷이날개","tel":"","addr":"경기도 고양시 덕양구 도내동 958번지","category":"의류 - 정장"},{"name":"원흥본치과","tel":"031-815-2080","addr":"경기도 고양시 덕양구 도내동","category":"의원 - 치과의원"},{"name":"유비테크코리아","tel":"031-968-9895","addr":"경기도 고양시 덕양구 도내동 958번지","category":"레져용품 - 스포츠·레져용품"},{"name":"이웃집소녀떡볶이","tel":"031-966-5112","addr":"경기도 고양시 덕양구 도내동","category":"일반휴게음식 - 스넥"},{"name":"차내과의원","tel":"031-815-3036","addr":"경기도 고양시 덕양구 도내동 958번지","category":"의원 - 의원"},{"name":"투GDR골프아카데미","tel":"031-962-0310","addr":"경기도 고양시 덕양구 도내동 958번지","category":"레저업소 - 골프연습장"},{"name":"투썸플레이스고양원흥점","tel":"031-967-7703","addr":"경기도 고양시 덕양구 도내동 958번지","category":"일반휴게음식 - 서양음식"},{"name":"파리바게뜨 원흥대영점","tel":"031-968-8204","addr":"경기도 고양시 덕양구 도내동 958번지","category":"음료식품 - 제과점"},{"name":"하루엔소쿠 고양원흥점","tel":"031-962-7877","addr":"경기도 고양시 덕양구 도내동 958번지","category":"일반휴게음식 - 스넥"},{"name":"한상에소두마리","tel":"031-966-2112","addr":"경기도 고양시 덕양구 도내동 958번지","category":"일반휴게음식 - 일반한식"},{"name":"황토가마구이","tel":"031-816-1044","addr":"경기도 고양시 덕양구 도내동","category":"일반휴게음식 - 일반한식"}]},{"lat":"37.634742131","long":"126.87116882","items":[{"name":"나인스크린골프클럽","tel":"031-963-0300","addr":"경기도 고양시 덕양구 도내동 958번지","category":""},{"name":"대영파킹","tel":"","addr":"경기도 고양시 덕양구 도내동 958번지","category":""},{"name":"도래울정형외과의원","tel":"031-813-1179","addr":"경기도 고양시 덕양구 도내동 958번지","category":""},{"name":"머슬&슬림 뉴트리션","tel":"031-816-8003","addr":"경기도 고양시 덕양구 도내동 958번지","category":""},{"name":"명가바지락생칼국수","tel":"031-965-8603","addr":"경기도 고양시 덕양구 도내동 958번지","category":""},{"name":"몽","tel":"031-962-6691","addr":"경기도 고양시 덕양구 도내동 958번지","category":""},{"name":"몽","tel":"031-962-6691","addr":"경기도 고양시 덕양구 도내동 958번지","category":""},{"name":"몽","tel":"031-962-6691","addr":"경기도 고양시 덕양구 도내동 958번지","category":""},{"name":"별밤노래연습장","tel":"031-811-2036","addr":"경기도 고양시 덕양구 도내동 958번지","category":""},{"name":"비앤비(B&B) 휘트니스","tel":"","addr":"경기도 고양시 덕양구 도내동 958번지","category":""},{"name":"비어버켓","tel":"031-966-2343","addr":"경기도 고양시 덕양구 도내동 958번지","category":""},{"name":"비어버켓","tel":"031-966-2343","addr":"경기도 고양시 덕양구 도내동 958번지","category":""},{"name":"신김밥천국","tel":"031-816-7676","addr":"경기도 고양시 덕양구 도내동 958번지","category":""},{"name":"썬당구클럽","tel":"031-967-7781","addr":"경기도 고양시 덕양구 도내동 958번지","category":""},{"name":"썬당구클럽","tel":"031-967-7781","addr":"경기도 고양시 덕양구 도내동 958번지","category":""},{"name":"아싸닭","tel":"070-7807-7688","addr":"경기도 고양시 덕양구 도내동 958번지","category":""},{"name":"아싸닭","tel":"031-966-2698","addr":"경기도 고양시 덕양구 도내동 958번지","category":""},{"name":"알팡 (알아서노는팡)","tel":"031-966-5030","addr":"경기도 고양시 덕양구 도내동 958번지","category":""},{"name":"옷이날개","tel":"","addr":"경기도 고양시 덕양구 도내동 958번지","category":""},{"name":"원흥본치과","tel":"031-815-2080","addr":"경기도 고양시 덕양구 도내동 958번지","category":""},{"name":"유비테크코리아","tel":"031-968-9895","addr":"경기도 고양시 덕양구 도내동 958번지","category":""},{"name":"이웃집소녀떡볶이","tel":"031-966-5112","addr":"경기도 고양시 덕양구 도내동 958번지","category":""},{"name":"차내과의원","tel":"031-815-3036","addr":"경기도 고양시 덕양구 도내동 958번지","category":""},{"name":"초록마을 고양원흥점","tel":"031-962-0862","addr":"경기도 고양시 덕양구 도내동 958번지","category":""},{"name":"투GDR골프아카데미","tel":"031-962-0310","addr":"경기도 고양시 덕양구 도내동 958번지","category":""},{"name":"투썸플레이스고양원흥점","tel":"031-967-7703","addr":"경기도 고양시 덕양구 도내동 958번지","category":""},{"name":"티라미수 리퍼블릭 원흥점","tel":"031-969-3800","addr":"경기도 고양시 덕양구 도내동 958번지","category":""},{"name":"파리바게뜨 원흥대영점","tel":"031-968-8204","addr":"경기도 고양시 덕양구 도내동 958번지","category":""},{"name":"하루엔소쿠 고양원흥점","tel":"031-962-7877","addr":"경기도 고양시 덕양구 도내동 958번지","category":""},{"name":"한상에 소두마리","tel":"031-966-2112","addr":"경기도 고양시 덕양구 도내동 958번지","category":""},{"name":"황토가마구이","tel":"031-816-1044","addr":"경기도 고양시 덕양구 도내동 958번지","category":""}]},{"lat":"37.624833136","long":"126.87270422","items":[{"name":"나인플러스 네일샵","tel":"","addr":"경기도 고양시 덕양구 도내동 1122번지","category":"보건위생 - 피부미용실"},{"name":"나인플러스 네일샵","tel":"","addr":"경기도 고양시 덕양구 도내동 1122번지","category":""}]},{"lat":"37.633941501","long":"126.87228048","items":[{"name":"네발아이들","tel":"070-8269-2191","addr":"경기도 고양시 덕양구 도내동 976번지","category":"문화.취미 - 애완동물"},{"name":"리빙스턴어학학원","tel":"031-971-7344","addr":"경기도 고양시 덕양구 도내동 976번지","category":"학원 - 외국어학원"},{"name":"아싸요우 원흥","tel":"031-968-8253","addr":"경기도 고양시 덕양구 도내동 976번지","category":"일반휴게음식 - 일식·회집"},{"name":"좋은사람들","tel":"031-963-0119","addr":"경기도 고양시 덕양구 도내동 976번지","category":"일반휴게음식 - 일반한식"},{"name":"춘천후평닭갈비","tel":"031-967-6689","addr":"경기도 고양시 덕양구 도내동 976번지","category":"일반휴게음식 - 일반한식"},{"name":"치킨플러스(고양원흥점)","tel":"031-969-6692","addr":"경기도 고양시 덕양구 도내동 976번지","category":"일반휴게음식 - 스넥"},{"name":"티댄타","tel":"031-965-0609","addr":"경기도 고양시 덕양구 도내동 976번지","category":"문화.취미 - 티켓"},{"name":"포천돼지","tel":"031-902-8592","addr":"경기도 고양시 덕양구 도내동 976번지","category":"일반휴게음식 - 일반한식"},{"name":"포천정육","tel":"031-902-8592","addr":"경기도 고양시 덕양구 도내동 976번지","category":"음료식품 - 정육점"}]},{"lat":"37.628747946","long":"126.86875515","items":[{"name":"놀란돼지","tel":"031-962-5092","addr":"경기도 고양시 덕양구 도내동 1090번지","category":""},{"name":"놀란돼지","tel":"031-962-5092","addr":"경기도 고양시 덕양구 도내동 1090번지","category":"일반휴게음식 - 일반한식"},{"name":"따숩(DDASOUP)","tel":"031-967-2929","addr":"경기도 고양시 덕양구 도내동 1090번지","category":""},{"name":"떡볶이 자존심","tel":"031-967-3882","addr":"경기도 고양시 덕양구 도내동 1090번지","category":"일반휴게음식 - 스넥"},{"name":"떡볶이자존심","tel":"031-967-3882","addr":"경기도 고양시 덕양구 도내동 1090번지","category":""},{"name":"뮤직아이드림음악학원","tel":"031-963-0246","addr":"경기도 고양시 덕양구 도내동 1090번지","category":""},{"name":"뮤직아이드림음악학원","tel":"031-963-0246","addr":"경기도 고양시 덕양구 도내동 1090번지","category":"학원 - 보습학원"},{"name":"소담찬","tel":"031-974-8382","addr":"경기도 고양시 덕양구 도내동 1090번지","category":""},{"name":"수프라자","tel":"031-966-3175","addr":"경기도 고양시 덕양구 도내동 1090번지","category":""},{"name":"수피티","tel":"031-966-3175","addr":"경기도 고양시 덕양구 도내동 1090번지","category":""},{"name":"스마트쎈클래스학원","tel":"031-938-2324","addr":"경기도 고양시 덕양구 도내동 1090번지","category":""},{"name":"에이치짐(H-GYM)","tel":"031-966-3175","addr":"경기도 고양시 덕양구 도내동 1090번지","category":"레저업소 - 헬스클럽"},{"name":"에이치짐(H-GYM)","tel":"031-966-3175","addr":"경기도 고양시 덕양구 도내동 1090번지","category":""},{"name":"와이비엠잉글루메릭스수학학원","tel":"031-962-2965","addr":"경기도 고양시 덕양구 도내동 1090번지","category":"회원제형태 - 학원"},{"name":"와이비엠잉글루메릭스수학학원","tel":"031-962-2965","addr":"경기도 고양시 덕양구 도내동 1090번지","category":""},{"name":"와이비헤어","tel":"031-966-2533","addr":"경기도 고양시 덕양구 도내동 1090번지","category":"보건위생 - 미용원"},{"name":"와이비헤어","tel":"031-966-2533","addr":"경기도 고양시 덕양구 도내동 1090번지","category":""},{"name":"카페게이트","tel":"031-111-1111","addr":"경기도 고양시 덕양구 도내동 1090번지","category":"일반휴게음식 - 서양음식"}]},{"lat":"37.620889113","long":"126.86670774","items":[{"name":"농업회사법인글로벌(주)","tel":"031-000-0000","addr":"경기도 고양시 덕양구 도내동 251번지","category":"음료식품 - 농·축·수산품"},{"name":"농업회사법인글로벌(주)","tel":"031-0-0000","addr":"경기도 고양시 덕양구 도내동 251번지","category":""}]},{"lat":"37.625969702","long":"126.86592818","items":[{"name":"다빈한우","tel":"031-974-9280","addr":"경기도 고양시 덕양구 도내동 301-4번지","category":""},{"name":"다빈한우","tel":"031-974-9280","addr":"경기도 고양시 덕양구 도내동 301-4번지","category":"일반휴게음식 - 일반한식"},{"name":"다빈한우","tel":"031-974-9280","addr":"경기도 고양시 덕양구 도내동 301-4번지","category":""},{"name":"다빈한우","tel":"031-974-9280","addr":"경기도 고양시 덕양구 도내동 301-4번지","category":"음료식품 - 정육점"}]},{"lat":"37.619467329","long":"126.86055985","items":[{"name":"다산축산유통","tel":"031-938-5573","addr":"경기도 고양시 덕양구 도내동 637-12번지","category":""},{"name":"미광상사","tel":"031-978-2588","addr":"경기도 고양시 덕양구 도내동 637-12번지","category":""},{"name":"미광상사","tel":"031-978-2588","addr":"경기도 고양시 덕양구 도내동 637-12번지","category":"유통업 영리 - 기타유통업"}]},{"lat":"37.62941302","long":"126.86731525","items":[{"name":"다솔유치원[아이행복]","tel":"031-968-5294","addr":"경기도 고양시 덕양구 도내동","category":"학원 - 유치원"}]},{"lat":"37.626540785","long":"126.86895169","items":[{"name":"다온공방","tel":"","addr":"경기도 고양시 덕양구 도내동 1103번지 엘에이치원흥도래울마을6단지","category":""},{"name":"도래울드림교실","tel":"031-923-5476","addr":"경기도 고양시 덕양구 도내동 1103번지 엘에이치원흥도래울마을6단지","category":""},{"name":"은성유통","tel":"02-376-8548","addr":"경기도 고양시 덕양구 도내동 1103번지 엘에이치원흥도래울마을6단지","category":""},{"name":"은성유통","tel":"02-376-8548","addr":"경기도 고양시 덕양구 도내동 1103번지 엘에이치원흥도래울마을6단지","category":"음료식품 - 농·축·수산품"}]},{"lat":"37.62908115","long":"126.86861861","items":[{"name":"다이꼬지(도내점)","tel":"031-965-1848","addr":"경기도 고양시 덕양구 도내동 1088번지","category":""},{"name":"더화궁","tel":"031-963-8080","addr":"경기도 고양시 덕양구 도내동 1088번지","category":""},{"name":"더화궁","tel":"031-963-8080","addr":"경기도 고양시 덕양구 도내동 1088번지","category":"보건위생 - 피부미용실"},{"name":"도래울씨앤씨미술학원","tel":"031-965-7177","addr":"경기도 고양시 덕양구 도내동 1088번지","category":""},{"name":"도래울씨앤씨미술학원","tel":"031-965-7177","addr":"경기도 고양시 덕양구 도내동 1088번지","category":"학원 - 예·체능계학원"},{"name":"라.FRUTA","tel":"","addr":"경기도 고양시 덕양구 도내동 1088번지","category":""},{"name":"라.FRUTA","tel":"","addr":"경기도 고양시 덕양구 도내동 1088번지","category":"음료식품 - 농·축·수산품"},{"name":"바푸리","tel":"031-965-6747","addr":"경기도 고양시 덕양구 도내동 1088번지","category":""},{"name":"바푸리","tel":"031-965-6747","addr":"경기도 고양시 덕양구 도내동 1088번지","category":""},{"name":"바푸리원흥점","tel":"031-965-6747","addr":"경기도 고양시 덕양구 도내동 1088번지","category":""},{"name":"비춤안경원","tel":"031-966-1113","addr":"경기도 고양시 덕양구 도내동 1088번지","category":""},{"name":"비춤안경원","tel":"031-966-1113","addr":"경기도 고양시 덕양구 도내동 1088번지","category":"보건위생 - 안경"},{"name":"서울미래치과","tel":"031-965-7522","addr":"경기도 고양시 덕양구 도내동 1088번지","category":"의원 - 치과의원"},{"name":"서울미래치과","tel":"031-965-7522","addr":"경기도 고양시 덕양구 도내동 1088번지","category":""},{"name":"씨엠피치킨","tel":"031-967-7052","addr":"경기도 고양시 덕양구 도내동 1088번지","category":""},{"name":"씨엠피치킨","tel":"031-967-7052","addr":"경기도 고양시 덕양구 도내동 1088번지","category":"일반휴게음식 - 스넥"},{"name":"아싸비어 원흥점","tel":"","addr":"경기도 고양시 덕양구 도내동 1088번지","category":""},{"name":"아싸비어 원흥점","tel":"","addr":"경기도 고양시 덕양구 도내동 1088번지","category":"음료식품 - 기타음료식품"},{"name":"아이와나무","tel":"031-966-9646","addr":"경기도 고양시 덕양구 도내동 1088번지","category":""},{"name":"요거프레소 원흥점","tel":"031-967-0904","addr":"경기도 고양시 덕양구 도내동 1088번지","category":""},{"name":"장독대 원흥점","tel":"031-965-5289","addr":"경기도 고양시 덕양구 도내동 1088번지","category":"음료식품 - 기타음료식품"},{"name":"쥬스위치","tel":"031-962-2245","addr":"경기도 고양시 덕양구 도내동 1088번지","category":""},{"name":"진 헤어샵(Jin hair)","tel":"031-968-4864","addr":"경기도 고양시 덕양구 도내동 1088번지","category":"보건위생 - 미용원"},{"name":"진 헤어샵(Jin hair)","tel":"031-968-4864","addr":"경기도 고양시 덕양구 도내동 1088번지","category":""},{"name":"현미와누룽지","tel":"02-812-7700","addr":"경기도 고양시 덕양구 도내동 1088번지","category":""},{"name":"화궁쵸코네일","tel":"","addr":"경기도 고양시 덕양구 도내동 1088번지","category":"보건위생 - 피부미용실"},{"name":"화궁쵸코네일","tel":"","addr":"경기도 고양시 덕양구 도내동 1088번지","category":""},{"name":"훌랄라참숯바베큐(원흥행복점)","tel":"031-966-9493","addr":"경기도 고양시 덕양구 도내동 1088번지","category":""},{"name":"훌랄라참숯바베큐(원흥행복점)","tel":"031-966-9493","addr":"경기도 고양시 덕양구 도내동 1088번지","category":"일반휴게음식 - 스넥"},{"name":"훌랄라참숯바베큐웨스턴점","tel":"031-908-9494","addr":"경기도 고양시 덕양구 도내동 1088번지","category":""}]},{"lat":"37.629000475","long":"126.86898126","items":[{"name":"닥엔돈스고양원흥점","tel":"02-1899-2192","addr":"경기도 고양시 덕양구 도내동 1093번지","category":"일반휴게음식 - 일반한식"},{"name":"디빠빠키친","tel":"031-963-2588","addr":"경기도 고양시 덕양구 도내동 1093번지","category":""},{"name":"린에스테틱","tel":"031-966-1676","addr":"경기도 고양시 덕양구 도내동 1093번지","category":"보건위생 - 피부미용실"},{"name":"린에스테틱","tel":"031-966-1676","addr":"경기도 고양시 덕양구 도내동 1093번지","category":""},{"name":"미라클실용음악학원","tel":"031-8076-7788","addr":"경기도 고양시 덕양구 도내동 1093번지","category":""},{"name":"미라클실용음악학원","tel":"031-8076-7788","addr":"경기도 고양시 덕양구 도내동 1093번지","category":""},{"name":"미쓰족발 원흥지구점","tel":"031-964-8648","addr":"경기도 고양시 덕양구 도내동 1093번지","category":"일반휴게음식 - 일반한식"},{"name":"미쓰족발 원흥지구점","tel":"","addr":"경기도 고양시 덕양구 도내동 1093번지","category":""},{"name":"쌀롱드이엔(EN)","tel":"031-964-9188","addr":"경기도 고양시 덕양구 도내동 1093번지","category":""},{"name":"쌀롱드이엔(EN)","tel":"031-964-9188","addr":"경기도 고양시 덕양구 도내동 1093번지","category":"보건위생 - 미용원"},{"name":"엠제이 영수학원","tel":"031-962-2965","addr":"경기도 고양시 덕양구 도내동 1093번지","category":""},{"name":"커피마마원흥점","tel":"","addr":"경기도 고양시 덕양구 도내동 1093번지","category":""},{"name":"커피마마원흥점","tel":"","addr":"경기도 고양시 덕양구 도내동 1093번지","category":"일반휴게음식 - 서양음식"}]},{"lat":"37.629968522","long":"126.87255932","items":[{"name":"닥터훈카센터","tel":"031-969-2465","addr":"경기도 고양시 덕양구 도내동 1039-3번지","category":"자동차정비 유지 - 자동차정비"}]},{"lat":"37.629914439","long":"126.87253676","items":[{"name":"닥터훈카센터","tel":"031-969-2465","addr":"경기도 고양시 덕양구 도내동 1039-3번지","category":""}]},{"lat":"37.629247895","long":"126.87269652","items":[{"name":"단헤어","tel":"031-967-7347","addr":"경기도 고양시 덕양구 도내동 1061-5번지","category":"보건위생 - 미용원"}]},{"lat":"37.629166783","long":"126.872674","items":[{"name":"단헤어","tel":"031-967-7347","addr":"경기도 고양시 덕양구 도내동 1061-5번지","category":""}]},{"lat":"37.618446366","long":"126.85820584","items":[{"name":"담다디","tel":"031-991-7170","addr":"경기도 고양시 덕양구 도내동 749-10번지","category":""},{"name":"담다디","tel":"031-991-7170","addr":"경기도 고양시 덕양구 도내동 749-10번지","category":"서적문구 - 완구점"}]},{"lat":"37.629354819","long":"126.87162014","items":[{"name":"대박축산","tel":"031-429-5083","addr":"경기도 고양시 덕양구 도내동 1059번지","category":""},{"name":"섭이네 축산","tel":"031-962-9877","addr":"경기도 고양시 덕양구 도내동 1059번지","category":""}]},{"lat":"37.623524775","long":"126.86312345","items":[{"name":"대산ENG","tel":"031-971-6557","addr":"경기도 고양시 덕양구 도내동 588-6번지","category":""},{"name":"대산ENG","tel":"","addr":"경기도 고양시 덕양구 도내동","category":"기타 - 기계공구"}]},{"lat":"37.626272216","long":"126.85529074","items":[{"name":"대성모터스","tel":"070-7738-2014","addr":"경기도 고양시 덕양구 도내동 826-3번지","category":""},{"name":"대성모터스","tel":"070-7738-2014","addr":"경기도 고양시 덕양구 도내동 826-3번지","category":"자동차정비 유지 - 자동차정비"}]},{"lat":"37.624024281","long":"126.85893132","items":[{"name":"대성산업","tel":"031-938-9948","addr":"경기도 고양시 덕양구 도내동 582-7번지","category":""},{"name":"대성산업","tel":"031-938-9948","addr":"경기도 고양시 덕양구 도내동 582-7번지","category":"용역 서비스 - 기타용역서비스"}]},{"lat":"37.629804471","long":"126.87087167","items":[{"name":"대원애드","tel":"031-962-3348","addr":"경기도 고양시 덕양구 도내동 1032-4번지","category":""}]},{"lat":"37.629831525","long":"126.87089428","items":[{"name":"대원애드","tel":"031-962-3348","addr":"경기도 고양시 덕양구 도내동 1032-4번지","category":"건축자재 - 인테리어전문"}]},{"lat":"37.630193426","long":"126.87225306","items":[{"name":"더(The)건강한하루","tel":"070-8229-3738","addr":"경기도 고양시 덕양구 도내동 1034-1번지","category":""},{"name":"도래운찬방","tel":"031-966-8222","addr":"경기도 고양시 덕양구 도내동 1034-1번지","category":""},{"name":"도래운찬방","tel":"031-966-8222","addr":"경기도 고양시 덕양구 도내동 1034-1번지","category":"음료식품 - 기타음료식품"}]},{"lat":"37.630471214","long":"126.87089315","items":[{"name":"더꾸밈헤어(THE꾸밈HAIR)","tel":"031-966-1346","addr":"경기도 고양시 덕양구 도내동 1030번지","category":""},{"name":"재미팡팡 블럭방","tel":"031-963-2885","addr":"경기도 고양시 덕양구 도내동 1030번지","category":""},{"name":"헤븐 인테리어","tel":"","addr":"경기도 고양시 덕양구 도내동 1030번지","category":""}]},{"lat":"37.630498218","long":"126.87087044","items":[{"name":"더꾸밈헤어(THE꾸밈HAIR)","tel":"031-966-1346","addr":"경기도 고양시 덕양구 도내동 1030번지","category":"보건위생 - 미용원"},{"name":"도래울웃김밥","tel":"031-964-7941","addr":"경기도 고양시 덕양구 도내동 1030번지","category":"일반휴게음식 - 일반한식"},{"name":"재미팡팡 블럭방","tel":"031-963-2885","addr":"경기도 고양시 덕양구 도내동 1030번지","category":"서적문구 - 완구점"},{"name":"헤븐 인테리어","tel":"","addr":"경기도 고양시 덕양구 도내동 1030번지","category":"건축자재 - 인테리어전문"}]},{"lat":"37.629717867","long":"126.87403245","items":[{"name":"더싸다구","tel":"","addr":"경기도 고양시 덕양구 도내동 1048-5번지","category":"음료식품 - 기타음료식품"}]},{"lat":"37.629553712","long":"126.87223152","items":[{"name":"더웨스트","tel":"","addr":"경기도 고양시 덕양구 도내동 1041-1번지","category":""}]},{"lat":"37.629526708","long":"126.87225423","items":[{"name":"더웨스트","tel":"","addr":"경기도 고양시 덕양구 도내동 1041-1번지","category":"가구 - 기타가구"}]},{"lat":"37.625473038","long":"126.87289567","items":[{"name":"도내돈","tel":"","addr":"경기도 고양시 덕양구 도내동 1119-1번지","category":"일반휴게음식 - 일반한식"}]},{"lat":"37.625965951","long":"126.86273374","items":[{"name":"도내은행나무집","tel":"031-972-7441","addr":"경기도 고양시 덕양구 도내동 557번지","category":"일반휴게음식 - 일반한식"},{"name":"도내은행나무집","tel":"031-972-7441","addr":"경기도 고양시 덕양구 도내동 557번지","category":""}]},{"lat":"37.62963359","long":"126.87114385","items":[{"name":"도래울 자동차","tel":"031-968-5572","addr":"경기도 고양시 덕양구 도내동 1037-2번지","category":""}]},{"lat":"37.629687623","long":"126.8711211","items":[{"name":"도래울 자동차","tel":"031-968-5572","addr":"경기도 고양시 덕양구 도내동 1037-2번지","category":"자동차정비 유지 - 자동차정비"}]},{"lat":"37.634967626","long":"126.87139501","items":[{"name":"도래울 해물촌","tel":"031-968-6359","addr":"경기도 고양시 덕양구 도내동 957번지","category":""},{"name":"도래울노래연습장","tel":"","addr":"경기도 고양시 덕양구 도내동 957번지","category":""},{"name":"도래울백반","tel":"","addr":"경기도 고양시 덕양구 도내동 957번지","category":""},{"name":"뚜레쥬르 고양원흥","tel":"070-4670-4146","addr":"경기도 고양시 덕양구 도내동 957번지","category":""},{"name":"롯데리아 고양원흥점","tel":"031-962-3211","addr":"경기도 고양시 덕양구 도내동 957번지","category":""},{"name":"몸매짐","tel":"031-965-5236","addr":"경기도 고양시 덕양구 도내동 957번지","category":""},{"name":"베스킨라빈스","tel":"031-962-3112","addr":"경기도 고양시 덕양구 도내동 957번지","category":""},{"name":"샹떼PC","tel":"070-7772-8011","addr":"경기도 고양시 덕양구 도내동 957번지","category":""},{"name":"야구양궁사격스포츠장","tel":"031-0-0000","addr":"경기도 고양시 덕양구 도내동 957번지","category":""},{"name":"이디야원흥중앙점","tel":"031-967-3054","addr":"경기도 고양시 덕양구 도내동 957번지","category":""},{"name":"이디야원흥중앙점","tel":"031-967-3054","addr":"경기도 고양시 덕양구 도내동 957번지","category":""},{"name":"탑당구클럽","tel":"031-969-8892","addr":"경기도 고양시 덕양구 도내동 957번지","category":""},{"name":"플러스","tel":"031-966-4932","addr":"경기도 고양시 덕양구 도내동 957번지","category":""},{"name":"피에스알 플러스(PSR CORP)","tel":"031-0-0000","addr":"경기도 고양시 덕양구 도내동 957번지","category":""},{"name":"헤어바이준","tel":"031-966-8788","addr":"경기도 고양시 덕양구 도내동 957번지","category":""}]},{"lat":"37.634967815","long":"126.87156495","items":[{"name":"도래울 해물촌","tel":"031-968-6359","addr":"경기도 고양시 덕양구 도내동 957번지","category":"일반휴게음식 - 일반한식"},{"name":"도래울노래연습장","tel":"","addr":"경기도 고양시 덕양구 도내동 957번지","category":"레저업소 - 노 래 방"},{"name":"도래울백반","tel":"","addr":"경기도 고양시 덕양구 도내동 957번지","category":"일반휴게음식 - 일반한식"},{"name":"뚜레쥬르 고양원흥","tel":"070-4670-4146","addr":"경기도 고양시 덕양구 도내동 957번지","category":"음료식품 - 제과점"},{"name":"롯데리아 고양원흥점","tel":"031-962-3211","addr":"경기도 고양시 덕양구 도내동 957번지","category":"일반휴게음식 - 서양음식"},{"name":"몸매짐","tel":"031-965-5236","addr":"경기도 고양시 덕양구 도내동 957번지","category":"레저업소 - 헬스클럽"},{"name":"베스킨라빈스","tel":"031-962-3112","addr":"경기도 고양시 덕양구 도내동 957번지","category":"음료식품 - 제과점"},{"name":"이디야원흥중앙점","tel":"031-967-3054","addr":"경기도 고양시 덕양구 도내동 957번지","category":"일반휴게음식 - 서양음식"},{"name":"탑당구클럽","tel":"031-969-8892","addr":"경기도 고양시 덕양구 도내동 957번지","category":"레저업소 - 당 구 장"},{"name":"피에스알 플러스(PSR CORP)","tel":"031-000-0000","addr":"경기도 고양시 덕양구 도내동 957번지","category":"보건위생 - 미용재료"},{"name":"헤어바이준","tel":"031-966-8788","addr":"경기도 고양시 덕양구 도내동 957번지","category":"보건위생 - 미용원"}]},{"lat":"37.628353527","long":"126.87053439","items":[{"name":"도래울고등학교","tel":"031-968-9262","addr":"경기도 고양시 덕양구 도내동 1098번지","category":"학원 - 초중고교육기관"},{"name":"도래울고등학교_수업료","tel":"031-968-9262","addr":"경기도 고양시 덕양구 도내동 1098번지","category":"학원 - 초중고교육기관"}]},{"lat":"37.629970016","long":"126.87391873","items":[{"name":"도래울막창","tel":"031-968-9295","addr":"경기도 고양시 덕양구 도내동 1048-7번지","category":"일반휴게음식 - 일반한식"},{"name":"도래울막창","tel":"031-968-9295","addr":"경기도 고양시 덕양구 도내동 1048-7번지","category":""}]},{"lat":"37.630103855","long":"126.87272901","items":[{"name":"도래울문구철물점","tel":"031-966-6200","addr":"경기도 고양시 덕양구 도내동 1034-4번지","category":""},{"name":"도래울문구철물점","tel":"031-966-6200","addr":"경기도 고양시 덕양구 도내동 1034-4번지","category":"서적문구 - 문구용품"}]},{"lat":"37.630247673","long":"126.87242289","items":[{"name":"도래울세탁전문점","tel":"031-969-8289","addr":"경기도 고양시 덕양구 도내동 1034-2번지","category":"수리서비스 - 세탁소"}]},{"lat":"37.630166585","long":"126.87242303","items":[{"name":"도래울세탁전문점","tel":"031-969-8289","addr":"경기도 고양시 덕양구 도내동 1034-2번지","category":""}]},{"lat":"37.629135775","long":"126.86911696","items":[{"name":"도래울이화음악학원","tel":"031-962-3363","addr":"경기도 고양시 덕양구 도내동 1092번지","category":"학원 - 예·체능계학원"},{"name":"도래울이화음악학원","tel":"031-962-3363","addr":"경기도 고양시 덕양구 도내동 1092번지","category":""},{"name":"도래울태권도 특공무술","tel":"031-966-8288","addr":"경기도 고양시 덕양구 도내동 1092번지","category":""},{"name":"상승합기도특공무술","tel":"031-966-8288","addr":"경기도 고양시 덕양구 도내동 1092번지","category":""},{"name":"상승합기도특공무술","tel":"031-966-8288","addr":"경기도 고양시 덕양구 도내동 1092번지","category":"학원 - 예·체능계학원"},{"name":"앞선수학학원","tel":"031-978-9879","addr":"경기도 고양시 덕양구 도내동 1092번지","category":""},{"name":"앞선수학학원","tel":"031-978-9879","addr":"경기도 고양시 덕양구 도내동 1092번지","category":"학원 - 보습학원"},{"name":"유나발레학원","tel":"031-979-7352","addr":"경기도 고양시 덕양구 도내동 1092번지","category":""},{"name":"유나발레학원","tel":"031-979-7352","addr":"경기도 고양시 덕양구 도내동 1092번지","category":"학원 - 예·체능계학원"},{"name":"잉글리쉬클럽영어교습소","tel":"031-965-3019","addr":"경기도 고양시 덕양구 도내동 1092번지","category":""},{"name":"잉글리쉬클럽영어교습소","tel":"031-965-3019","addr":"경기도 고양시 덕양구 도내동 1092번지","category":"학원 - 외국어학원"},{"name":"춘천닭갈비&모두랑즉석떡볶이","tel":"031-962-1911","addr":"경기도 고양시 덕양구 도내동 1092번지","category":""}]},{"lat":"37.631604126","long":"126.86884065","items":[{"name":"도래울중학교","tel":"031-964-9571","addr":"경기도 고양시 덕양구 도내동 988번지","category":"학원 - 초중고교육기관"}]},{"lat":"37.631083418","long":"126.87048423","items":[{"name":"도래울초등학교","tel":"031-963-6896","addr":"경기도 고양시 덕양구 도내동 1012번지","category":"학원 - 초중고교육기관"},{"name":"도래울초등학교병설유치원[아이행복]","tel":"031-963-6898","addr":"경기도 고양시 덕양구 도내동 1012번지","category":"학원 - 유치원"}]},{"lat":"37.629192985","long":"126.87192629","items":[{"name":"도레울 장작구이","tel":"070-7607-8041","addr":"경기도 고양시 덕양구 도내동 1061-13번지","category":"일반휴게음식 - 서양음식"}]},{"lat":"37.629192947","long":"126.8718923","items":[{"name":"도레울 장작구이","tel":"070-7607-8041","addr":"경기도 고양시 덕양구 도내동 1061-13번지","category":""}]},{"lat":"37.630298911","long":"126.86989654","items":[{"name":"등촌샤브칼국수","tel":"031-963-5277","addr":"경기도 고양시 덕양구 도내동 1025번지","category":"일반휴게음식 - 일반한식"},{"name":"맘스터치원흥지구점","tel":"031-962-1280","addr":"경기도 고양시 덕양구 도내동 1025번지","category":"일반휴게음식 - 서양음식"},{"name":"월드타워손세차","tel":"","addr":"경기도 고양시 덕양구 도내동 1025번지","category":"자동차정비 유지 - 세차장"},{"name":"피자스쿨 고양도래울점","tel":"031-965-6060","addr":"경기도 고양시 덕양구 도내동 1025번지","category":"일반휴게음식 - 서양음식"}]},{"lat":"37.629608957","long":"126.87330762","items":[{"name":"땅의 미소","tel":"02-000-0000","addr":"경기도 고양시 덕양구 도내동 1045-1번지","category":"음료식품 - 기타음료식품"},{"name":"땅의 미소","tel":"","addr":"경기도 고양시 덕양구 도내동 1045-1번지","category":""},{"name":"엠케이씨엔에프","tel":"031-962-0151","addr":"경기도 고양시 덕양구 도내동 1045-1번지","category":""}]},{"lat":"37.629112173","long":"126.87217565","items":[{"name":"뜨레아띠(TREATTI)","tel":"031-967-4119","addr":"경기도 고양시 덕양구 도내동 1061-11번지","category":""}]},{"lat":"37.629112199","long":"126.87219831","items":[{"name":"뜨레아띠(TREATTI)","tel":"031-967-4119","addr":"경기도 고양시 덕양구 도내동 1061-11번지","category":"일반휴게음식 - 일반한식"},{"name":"카만커스텀","tel":"","addr":"경기도 고양시 덕양구 도내동 1061-11번지","category":"자동차정비 유지 - 자동차부품"}]},{"lat":"37.63013162","long":"126.87339734","items":[{"name":"뜰","tel":"","addr":"경기도 고양시 덕양구 도내동 1051번지","category":""},{"name":"피그렛","tel":"070-8882-0229","addr":"경기도 고양시 덕양구 도내동 1051번지","category":""},{"name":"필승감자","tel":"031-111-1111","addr":"경기도 고양시 덕양구 도내동 1051번지","category":""},{"name":"현미와누룽지","tel":"","addr":"경기도 고양시 덕양구 도내동 1051번지","category":""}]},{"lat":"37.629751032","long":"126.87142686","items":[{"name":"라라아트 미술교습소","tel":"","addr":"경기도 고양시 덕양구 도내동 1037-6번지","category":"학원 - 예·체능계학원"},{"name":"아지트","tel":"031-968-2018","addr":"경기도 고양시 덕양구 도내동 1037-6번지","category":"보건위생 - 피부미용실"}]},{"lat":"37.62435753","long":"126.85884006","items":[{"name":"레드","tel":"031-8076-2257","addr":"경기도 고양시 덕양구 도내동","category":"서적문구 - 출판 및 인쇄물"},{"name":"레드","tel":"031-8076-2257","addr":"경기도 고양시 덕양구 도내동 576번지","category":""}]},{"lat":"37.626220844","long":"126.87289437","items":[{"name":"레이디헤어","tel":"070-7358-0904","addr":"경기도 고양시 덕양구 도내동 1114-1번지","category":""},{"name":"레이디헤어","tel":"070-7358-0904","addr":"경기도 고양시 덕양구 도내동 1114-1번지","category":"보건위생 - 미용원"},{"name":"로코","tel":"031-967-4910","addr":"경기도 고양시 덕양구 도내동 1114-1번지","category":""},{"name":"로코","tel":"031-967-4910","addr":"경기도 고양시 덕양구 도내동 1114-1번지","category":"신변잡화 - 신발"},{"name":"무드베이지 (mood beige flower)","tel":"031-967-3979","addr":"경기도 고양시 덕양구 도내동 1114-1번지","category":"문화.취미 - 화원"}]},{"lat":"37.630381054","long":"126.87083666","items":[{"name":"리드앤톡영어학원","tel":"031-968-9254","addr":"경기도 고양시 덕양구 도내동 1030-1번지","category":"학원 - 보습학원"}]},{"lat":"37.630326996","long":"126.87083676","items":[{"name":"리드앤톡영어학원","tel":"031-968-9254","addr":"경기도 고양시 덕양구 도내동 1030-1번지","category":""}]},{"lat":"37.62566203","long":"126.87270277","items":[{"name":"리빈헤어","tel":"070-4793-8758","addr":"경기도 고양시 덕양구 도내동 1116번지","category":""},{"name":"리빈헤어","tel":"070-4793-8758","addr":"경기도 고양시 덕양구 도내동 1116번지","category":"보건위생 - 미용원"}]},{"lat":"37.629222482","long":"126.87416925","items":[{"name":"마그놀리아","tel":"031-963-7108","addr":"경기도 고양시 덕양구 도내동 1055번지","category":""},{"name":"성별에프터유","tel":"031-969-7107","addr":"경기도 고양시 덕양구 도내동 1055번지","category":""}]},{"lat":"37.629303569","long":"126.87416911","items":[{"name":"마그놀리아","tel":"031-963-7108","addr":"경기도 고양시 덕양구 도내동 1055번지","category":"문화.취미 - 화원"},{"name":"성별에프터유","tel":"031-969-7107","addr":"경기도 고양시 덕양구 도내동 1055번지","category":"일반휴게음식 - 서양음식"}]},{"lat":"37.6188048","long":"126.8566194","items":[{"name":"마을회관슈퍼","tel":"031-974-7981","addr":"경기도 고양시 덕양구 도내동 759-1번지","category":"유통업 영리 - 슈퍼마켓"},{"name":"마을회관슈퍼","tel":"031-974-7981","addr":"경기도 고양시 덕양구 도내동 759-1번지","category":""}]},{"lat":"37.625549832","long":"126.86905542","items":[{"name":"마치","tel":"","addr":"경기도 고양시 덕양구 도내동 1103번지 엘에이치원흥도래울마을6단지","category":"문화.취미 - 문화취미기타"},{"name":"마치","tel":"","addr":"경기도 고양시 덕양구 도내동 1103번지 엘에이치원흥도래울마을6단지","category":""},{"name":"진컴","tel":"031-967-3072","addr":"경기도 고양시 덕양구 도내동 1103번지 엘에이치원흥도래울마을6단지","category":""},{"name":"진컴","tel":"031-967-3072","addr":"경기도 고양시 덕양구 도내동 1103번지 엘에이치원흥도래울마을6단지","category":"학원 - 컴퓨터학원"}]},{"lat":"37.629499867","long":"126.8724242","items":[{"name":"만석면옥","tel":"031-971-3172","addr":"경기도 고양시 덕양구 도내동 1041-2번지","category":""},{"name":"만석면옥","tel":"031-971-3172","addr":"경기도 고양시 덕양구 도내동 1041-2번지","category":"일반휴게음식 - 일반한식"},{"name":"옥수수직화구이","tel":"031-971-3172","addr":"경기도 고양시 덕양구 도내동 1041-2번지","category":"일반휴게음식 - 일반한식"},{"name":"옥수수직화구이","tel":"031-971-3172","addr":"경기도 고양시 덕양구 도내동 1041-2번지","category":""}]},{"lat":"37.626471447","long":"126.86353707","items":[{"name":"매화향기","tel":"031-965-7335","addr":"경기도 고양시 덕양구 도내동 946번지","category":""},{"name":"홍매화","tel":"031-965-7335","addr":"경기도 고양시 덕양구 도내동 946번지","category":""},{"name":"홍매화","tel":"031-965-7335","addr":"경기도 고양시 덕양구 도내동 946번지","category":"음료식품 - 기타음료식품"}]},{"lat":"37.634131043","long":"126.87258604","items":[{"name":"명동면옥","tel":"031-965-1582","addr":"경기도 고양시 덕양구 도내동 971번지","category":""},{"name":"명동면옥","tel":"031-965-1582","addr":"경기도 고양시 덕양구 도내동 971번지","category":"일반휴게음식 - 일반한식"},{"name":"순대의품격","tel":"031-965-6794","addr":"경기도 고양시 덕양구 도내동 971번지","category":""}]},{"lat":"37.628604766","long":"126.86961636","items":[{"name":"명영어도래울관학원","tel":"031-968-2091","addr":"경기도 고양시 덕양구 도내동 1085번지","category":"학원 - 보습학원"},{"name":"반할맛","tel":"031-963-0102","addr":"경기도 고양시 덕양구 도내동 1085번지","category":""},{"name":"반할맛","tel":"031-963-0102","addr":"경기도 고양시 덕양구 도내동 1085번지","category":""},{"name":"반할맛","tel":"031-111-1111","addr":"경기도 고양시 덕양구 도내동 1085번지","category":"일반휴게음식 - 일반한식"},{"name":"슬로우데이","tel":"031-963-1244","addr":"경기도 고양시 덕양구 도내동 1085번지","category":""},{"name":"예담뮤즈음악학원","tel":"031-969-0789","addr":"경기도 고양시 덕양구 도내동 1085번지","category":""},{"name":"예담뮤즈음악학원","tel":"031-969-0789","addr":"경기도 고양시 덕양구 도내동 1085번지","category":"학원 - 예·체능계학원"},{"name":"용인대 도래울 유도체육관","tel":"031-966-1184","addr":"경기도 고양시 덕양구 도내동 1085번지","category":"학원 - 예·체능계학원"},{"name":"원흥더함미술학원","tel":"031-967-6006","addr":"경기도 고양시 덕양구 도내동 1085번지","category":""},{"name":"원흥더함미술학원","tel":"031-967-6006","addr":"경기도 고양시 덕양구 도내동 1085번지","category":"학원 - 예·체능계학원"},{"name":"이마트24 도내원프라자점","tel":"","addr":"경기도 고양시 덕양구 도내동 1085번지","category":""},{"name":"이마트24 도내원프라자점","tel":"","addr":"경기도 고양시 덕양구 도내동 1085번지","category":"유통업 영리 - 편 의 점"},{"name":"제이앤더블유어학원","tel":"031-811-0211","addr":"경기도 고양시 덕양구 도내동 1085번지","category":"학원 - 보습학원"},{"name":"제이앤더블유어학원","tel":"031-811-0211","addr":"경기도 고양시 덕양구 도내동 1085번지","category":""}]},{"lat":"37.623827375","long":"126.86000782","items":[{"name":"모우리디자인","tel":"031-971-8097","addr":"경기도 고양시 덕양구 도내동 583번지","category":""},{"name":"창대사","tel":"031-970-0659","addr":"경기도 고양시 덕양구 도내동 583번지","category":""},{"name":"창대사","tel":"031-970-0659","addr":"경기도 고양시 덕양구 도내동 583번지","category":"신변잡화 - 액세서리"}]},{"lat":"37.63047162","long":"126.87125566","items":[{"name":"뮤엠영어","tel":"031-964-9789","addr":"경기도 고양시 덕양구 도내동 1030-6번지","category":"회원제형태 - 학원"},{"name":"봄헤어","tel":"031-966-0188","addr":"경기도 고양시 덕양구 도내동 1030-6번지","category":"보건위생 - 미용원"}]},{"lat":"37.630417536","long":"126.8712331","items":[{"name":"뮤엠영어","tel":"031-964-9789","addr":"경기도 고양시 덕양구 도내동 1030-6번지","category":""},{"name":"봄헤어","tel":"031-966-0188","addr":"경기도 고양시 덕양구 도내동 1030-6번지","category":""}]},{"lat":"37.627220587","long":"126.85718064","items":[{"name":"미가스튜디오","tel":"031-973-5780","addr":"경기도 고양시 덕양구 도내동 835-1번지","category":"광학제품 - 사진관"},{"name":"미가스튜디오","tel":"031-973-5780","addr":"경기도 고양시 덕양구 도내동 835-1번지","category":""},{"name":"버건디도어","tel":"02-1234-1234","addr":"경기도 고양시 덕양구 도내동 835-1번지","category":"일반휴게음식 - 서양음식"}]},{"lat":"37.624247317","long":"126.87253533","items":[{"name":"밀크하우스","tel":"031-967-8416","addr":"경기도 고양시 덕양구 도내동 1122-4번지","category":"의류 - 아동의류"}]},{"lat":"37.629745107","long":"126.87422499","items":[{"name":"바느질상상","tel":"031-965-3994","addr":"경기도 고양시 덕양구 도내동 1053-2번지","category":""},{"name":"바느질상상","tel":"031-965-3994","addr":"경기도 고양시 덕양구 도내동 1053-2번지","category":"문화.취미 - 문화취미기타"}]},{"lat":"37.629860743","long":"126.87286538","items":[{"name":"바이닐바버샵","tel":"","addr":"경기도 고양시 덕양구 도내동 1042번지","category":""}]},{"lat":"37.629914801","long":"126.87286528","items":[{"name":"바이닐바버샵","tel":"","addr":"경기도 고양시 덕양구 도내동 1042번지","category":"보건위생 - 이용원"}]},{"lat":"37.630245908","long":"126.8708369","items":[{"name":"박동진","tel":"031-111-1111","addr":"경기도 고양시 덕양구 도내동 1030-2번지","category":"학원 - 기타 교육기관"}]},{"lat":"37.630164758","long":"126.87078041","items":[{"name":"박동진","tel":"031-111-1111","addr":"경기도 고양시 덕양구 도내동 1030-2번지","category":""}]},{"lat":"37.630444375","long":"126.87106312","items":[{"name":"밝은눈안경도내점","tel":"031-967-4003","addr":"경기도 고양시 덕양구 도내동 1030-5번지","category":""},{"name":"옐로우 팜","tel":"","addr":"경기도 고양시 덕양구 도내동 1030-5번지","category":""},{"name":"오-! 떡카노","tel":"070-7529-8843","addr":"경기도 고양시 덕양구 도내동 1030-5번지","category":""}]},{"lat":"37.630498459","long":"126.87108569","items":[{"name":"밝은눈안경도내점","tel":"031-967-4003","addr":"경기도 고양시 덕양구 도내동 1030-5번지","category":"보건위생 - 안경"},{"name":"옐로우 팜","tel":"02-0000-0000","addr":"경기도 고양시 덕양구 도내동 1030-5번지","category":"약국 - 제약회사"}]},{"lat":"37.623941862","long":"126.85784404","items":[{"name":"방아골","tel":"031-972-2062","addr":"경기도 고양시 덕양구 도내동 797번지","category":""},{"name":"방아골","tel":"031-972-2062","addr":"경기도 고양시 덕양구 도내동 797번지","category":"일반휴게음식 - 일반한식"}]},{"lat":"37.626581395","long":"126.87304101","items":[{"name":"방이샤브칼국수","tel":"","addr":"경기도 고양시 덕양구 도내동 1112번지","category":""},{"name":"방이샤브칼국수","tel":"02-0000-0000","addr":"경기도 고양시 덕양구 도내동 1112번지","category":"일반휴게음식 - 일반한식"}]},{"lat":"37.618135264","long":"126.86170638","items":[{"name":"범양공사","tel":"031-938-8982","addr":"경기도 고양시 덕양구 도내동 633-4","category":""}]},{"lat":"37.612362002","long":"126.85595247","items":[{"name":"벽지,바닥재 할인 백화점","tel":"031-970-0770","addr":"경기도 고양시 덕양구 도내동 723-55번지","category":"직물 - 카페트,커튼,천막,지물"},{"name":"타이어하우스","tel":"02-973-1110","addr":"경기도 고양시 덕양구 도내동 723-55번지","category":""}]},{"lat":"37.611442417","long":"126.85547861","items":[{"name":"복원나라","tel":"","addr":"경기도 고양시 덕양구 도내동 723-14번지","category":"자동차정비 유지 - 자동차부품"}]},{"lat":"37.630276507","long":"126.87406547","items":[{"name":"브리에","tel":"031-965-0618","addr":"경기도 고양시 덕양구 도내동 1051-4번지","category":"음료식품 - 제과점"}]},{"lat":"37.630303536","long":"126.87406543","items":[{"name":"브리에","tel":"031-965-0618","addr":"경기도 고양시 덕양구 도내동 1051-4번지","category":""},{"name":"브리에","tel":"031-965-0618","addr":"경기도 고양시 덕양구 도내동 1051-4번지","category":""}]},{"lat":"37.625139591","long":"126.87281696","items":[{"name":"블리스박철헤어","tel":"031-962-3472","addr":"경기도 고양시 덕양구 도내동 1119-3번지","category":""},{"name":"블리스박철헤어","tel":"031-962-3472","addr":"경기도 고양시 덕양구 도내동 1119-3번지","category":"보건위생 - 미용원"},{"name":"비비안마카롱","tel":"","addr":"경기도 고양시 덕양구 도내동 1119-3번지","category":""},{"name":"비비안마카롱","tel":"02-1111-1111","addr":"경기도 고양시 덕양구 도내동 1119-3번지","category":"음료식품 - 기타음료식품"}]},{"lat":"37.624526405","long":"126.87234227","items":[{"name":"빅브레드시그니처","tel":"","addr":"경기도 고양시 덕양구 도내동 1121-2번지","category":"일반휴게음식 - 서양음식"}]},{"lat":"37.630444717","long":"126.87136899","items":[{"name":"빵데레체","tel":"031-962-0300","addr":"경기도 고양시 덕양구 도내동 1030-7번지","category":"음료식품 - 제과점"},{"name":"장충당 삼송원흥직영점","tel":"031-966-9611","addr":"경기도 고양시 덕양구 도내동 1030-7번지","category":"일반휴게음식 - 일반한식"}]},{"lat":"37.63035462","long":"126.87136915","items":[{"name":"빵데레체","tel":"031-962-0300","addr":"경기도 고양시 덕양구 도내동 1030-7번지","category":""},{"name":"장충당 삼송원흥직영점","tel":"031-966-9611","addr":"경기도 고양시 덕양구 도내동 1030-7번지","category":""},{"name":"장충당삼송원흥직영점","tel":"031-966-9611","addr":"경기도 고양시 덕양구 도내동 1030-7번지","category":""}]},{"lat":"37.628771302","long":"126.87353564","items":[{"name":"쁘띠밤비니","tel":"031-0-0000","addr":"경기도 고양시 덕양구 도내동 1064-7번지","category":""},{"name":"원탑종합관리","tel":"02-381-0727","addr":"경기도 고양시 덕양구 도내동 1064-7번지","category":"용역 서비스 - 종합용역"}]},{"lat":"37.630680676","long":"126.87290926","items":[{"name":"사운드 컴퍼니","tel":"","addr":"경기도 고양시 덕양구 도내동 1011번지 엘에이치원흥도래울마을4단지","category":"전기제품 - 가전제품"}]},{"lat":"37.629051248","long":"126.87412423","items":[{"name":"산책가는날","tel":"031-819-0110","addr":"경기도 고양시 덕양구 도내동 1055-1번지","category":""},{"name":"산책가는날","tel":"031-819-0110","addr":"경기도 고양시 덕양구 도내동 1055-1번지","category":"문화.취미 - 애완동물"}]},{"lat":"37.629383247","long":"126.86494768","items":[{"name":"살롱드마노아 원흥점","tel":"070-7862-1510","addr":"경기도 고양시 덕양구 도내동 1001번지","category":"보건위생 - 미용원"},{"name":"살롱드마노아 원흥점","tel":"070-7862-1510","addr":"경기도 고양시 덕양구 도내동 1001번지","category":""},{"name":"세븐일레븐원흥호반점","tel":"031-1577-0711","addr":"경기도 고양시 덕양구 도내동 1001번지","category":"유통업 영리 - 편 의 점"},{"name":"세븐일레븐원흥호반점","tel":"031-1577-0711","addr":"경기도 고양시 덕양구 도내동 1001번지","category":""},{"name":"지씨엘씨어학원","tel":"031-966-8880","addr":"경기도 고양시 덕양구 도내동 1001번지","category":""},{"name":"지씨엘씨어학원","tel":"031-966-8880","addr":"경기도 고양시 덕양구 도내동 1001번지","category":"학원 - 외국어학원"},{"name":"카페드롭탑 고양원흥점","tel":"070-000-0000","addr":"경기도 고양시 덕양구 도내동 1001번지","category":"일반휴게음식 - 서양음식"},{"name":"카페드롭탑 고양원흥점","tel":"070-0-0000","addr":"경기도 고양시 덕양구 도내동 1001번지","category":""}]},{"lat":"37.629806622","long":"126.87280883","items":[{"name":"삼남매의 행복한공방","tel":"031-000-0000","addr":"경기도 고양시 덕양구 도내동 1042-1번지","category":"문화.취미 - 문화취미기타"},{"name":"앨리케익","tel":"","addr":"경기도 고양시 덕양구 도내동 1042-1번지","category":"문화.취미 - 애완동물"},{"name":"포아이니원흥도래울점","tel":"031-967-8688","addr":"경기도 고양시 덕양구 도내동 1042-1번지","category":"일반휴게음식 - 서양음식"}]},{"lat":"37.629716525","long":"126.87280899","items":[{"name":"삼남매의 행복한공방","tel":"031-0-0000","addr":"경기도 고양시 덕양구 도내동 1042-1번지","category":""},{"name":"앨리케익","tel":"","addr":"경기도 고양시 덕양구 도내동 1042-1번지","category":""},{"name":"포아이니원흥도래울점","tel":"031-967-8688","addr":"경기도 고양시 덕양구 도내동 1042-1번지","category":""}]},{"lat":"37.632067909","long":"126.87266894","items":[{"name":"삼성영어","tel":"031-967-3405","addr":"경기도 고양시 덕양구 도내동 1011번지 엘에이치원흥도래울마을4단지","category":"학원 - 기타 교육기관"},{"name":"삼성영어","tel":"031-967-3405","addr":"경기도 고양시 덕양구 도내동 1011번지 엘에이치원흥도래울마을4단지","category":""}]},{"lat":"37.629050517","long":"126.87345586","items":[{"name":"삼성하우징홈케어","tel":"031-962-4650","addr":"경기도 고양시 덕양구 도내동 1062-2번지","category":"사무통신 - 사무용 OA기기"}]},{"lat":"37.619136868","long":"126.86298442","items":[{"name":"삼주조명","tel":"031-970-8174","addr":"경기도 고양시 덕양구 도내동 611번지","category":"건축자재 - 조명기구"},{"name":"삼주조명","tel":"031-970-8174","addr":"경기도 고양시 덕양구 도내동 611번지","category":""},{"name":"향존","tel":"031-938-2210","addr":"경기도 고양시 덕양구 도내동 611번지","category":""}]},{"lat":"37.630300902","long":"126.87167512","items":[{"name":"삼천리자전거원흥점","tel":"031-964-3002","addr":"경기도 고양시 덕양구 도내동 1030-9번지","category":""}]},{"lat":"37.630355023","long":"126.87173166","items":[{"name":"삼천리자전거원흥점","tel":"031-964-3002","addr":"경기도 고양시 덕양구 도내동 1030-9번지","category":"레져용품 - 스포츠·레져용품"}]},{"lat":"37.630220831","long":"126.87259287","items":[{"name":"삼촌네정육식당","tel":"031-969-9285","addr":"경기도 고양시 덕양구 도내동 1034-3번지","category":"일반휴게음식 - 일반한식"}]},{"lat":"37.630139744","long":"126.87259301","items":[{"name":"삼촌네정육식당","tel":"031-969-9285","addr":"경기도 고양시 덕양구 도내동 1034-3번지","category":""},{"name":"삼촌네정육식당","tel":"031-969-9285","addr":"경기도 고양시 덕양구 도내동 1034-3번지","category":""}]},{"lat":"37.629300761","long":"126.87162023","items":[{"name":"섭이네 축산","tel":"031-962-9877","addr":"경기도 고양시 덕양구 도내동 1059번지","category":"음료식품 - 정육점"}]},{"lat":"37.616553913","long":"126.86540179","items":[{"name":"성실유리제경","tel":"031-973-4323","addr":"경기도 고양시 덕양구 도내동 163-13번지","category":""},{"name":"성실유리제경","tel":"031-973-4323","addr":"경기도 고양시 덕양구 도내동 163-13번지","category":"건축자재 - 유리"},{"name":"주식회사 정화창호","tel":"031-972-2100","addr":"경기도 고양시 덕양구 도내동 163-13번지","category":""},{"name":"주식회사 정화창호","tel":"031-972-2100","addr":"경기도 고양시 덕양구 도내동 163-13번지","category":"건축자재 - 기타건축자재"}]},{"lat":"37.611887063","long":"126.85803734","items":[{"name":"성원브레이커","tel":"031-971-6555","addr":"경기도 고양시 덕양구 도내동 703번지","category":""},{"name":"씨유SK강매주유소점","tel":"031-972-1555","addr":"경기도 고양시 덕양구 도내동 703번지","category":"유통업 영리 - 편 의 점"},{"name":"씨유SK강매주유소점","tel":"031-972-1555","addr":"경기도 고양시 덕양구 도내동 703번지","category":""}]},{"lat":"37.629723168","long":"126.87067923","items":[{"name":"세리프","tel":"031-969-5092","addr":"경기도 고양시 덕양구 도내동 1032-2번지","category":"일반휴게음식 - 서양음식"},{"name":"세리프","tel":"031-969-5092","addr":"경기도 고양시 덕양구 도내동 1032-2번지","category":""}]},{"lat":"37.63215854","long":"126.86520311","items":[{"name":"세바","tel":"031-968-8661","addr":"경기도 고양시 덕양구 도내동 994번지","category":"자동차정비 유지 - 자동차부품"},{"name":"원흥카공업사","tel":"031-967-8256","addr":"경기도 고양시 덕양구 도내동 994번지","category":"자동차정비 유지 - 자동차정비"},{"name":"원흥카공업사","tel":"031-967-8256","addr":"경기도 고양시 덕양구 도내동 994번지","category":""}]},{"lat":"37.628995536","long":"126.87261766","items":[{"name":"세븐(7)워시앤케어","tel":"02-2644-1844","addr":"경기도 고양시 덕양구 도내동 1061-8번지","category":""},{"name":"세븐(7)워시앤케어","tel":"02-2644-1844","addr":"경기도 고양시 덕양구 도내동 1061-8번지","category":"자동차정비 유지 - 카인테리어"},{"name":"오토프리즘","tel":"","addr":"경기도 고양시 덕양구 도내동 1061-8번지","category":""},{"name":"오토프리즘","tel":"","addr":"경기도 고양시 덕양구 도내동 1061-8번지","category":"자동차정비 유지 - 카인테리어"}]},{"lat":"37.623303255","long":"126.85872882","items":[{"name":"세진통운","tel":"031-974-2000","addr":"경기도 고양시 덕양구 도내동 582-4번지","category":""}]},{"lat":"37.634578148","long":"126.86181123","items":[{"name":"소명","tel":"070-8268-7153","addr":"경기도 고양시 덕양구 도내동 480-1번지","category":""}]},{"lat":"37.627208248","long":"126.86960752","items":[{"name":"소명어린이집[아이행복]","tel":"070-8628-9338","addr":"경기도 고양시 덕양구 도내동 1103번지 엘에이치원흥도래울마을6단지","category":"학원 - 유아원"},{"name":"위즈 미디어","tel":"031-936-9889","addr":"경기도 고양시 덕양구 도내동 1103번지 엘에이치원흥도래울마을6단지","category":"전기제품 - 가전제품"},{"name":"위즈 미디어","tel":"031-936-9889","addr":"경기도 고양시 덕양구 도내동 1103번지 엘에이치원흥도래울마을6단지","category":""}]},{"lat":"37.613109711","long":"126.85587172","items":[{"name":"소백산토종한우직거래장터","tel":"031-938-9845","addr":"경기도 고양시 덕양구 도내동 726-14번지","category":""},{"name":"소백산토종한우직거래장터","tel":"031-938-9845","addr":"경기도 고양시 덕양구 도내동 726-14번지","category":""},{"name":"일산비빔국수&돈가스","tel":"031-978-0244","addr":"경기도 고양시 덕양구 도내동 726-14번지","category":"일반휴게음식 - 일반한식"},{"name":"주식회사 주노","tel":"031-938-9946","addr":"경기도 고양시 덕양구 도내동 726-14번지","category":""},{"name":"주식회사 주노","tel":"031-938-9946","addr":"경기도 고양시 덕양구 도내동 726-14번지","category":"레져용품 - 스포츠·레져용품"},{"name":"콩뿌리콩나물국밥","tel":"031-970-0135","addr":"경기도 고양시 덕양구 도내동 726-14번지","category":""}]},{"lat":"37.618389071","long":"126.85558949","items":[{"name":"소죽골메밀해물짬뽕","tel":"031-973-8787","addr":"경기도 고양시 덕양구 도내동 764-2번지","category":"일반휴게음식 - 중국식"},{"name":"소죽골메밀해물짬뽕","tel":"031-973-8787","addr":"경기도 고양시 덕양구 도내동 764-2번지","category":""}]},{"lat":"37.618470257","long":"126.85566861","items":[{"name":"소죽골사철탕","tel":"031-972-7577","addr":"경기도 고양시 덕양구 도내동 764-1번지","category":"일반휴게음식 - 일반한식"},{"name":"소죽골사철탕","tel":"031-972-7577","addr":"경기도 고양시 덕양구 도내동 764-1번지","category":""}]},{"lat":"37.619578678","long":"126.85584766","items":[{"name":"소죽골소머리국밥","tel":"031-971-6984","addr":"경기도 고양시 덕양구 도내동 769-7번지","category":"일반휴게음식 - 일반한식"},{"name":"소죽골소머리국밥","tel":"031-971-6984","addr":"경기도 고양시 덕양구 도내동 769-7번지","category":""},{"name":"소죽골소머리국밥","tel":"031-971-6984","addr":"경기도 고양시 덕양구 도내동 769-7번지","category":""},{"name":"피팅존","tel":"031-973-1872","addr":"경기도 고양시 덕양구 도내동 769-7번지","category":"레져용품 - 골프용품 전문점"},{"name":"피팅존","tel":"031-973-1872","addr":"경기도 고양시 덕양구 도내동 769-7번지","category":""}]},{"lat":"37.626140031","long":"126.87314373","items":[{"name":"손탁커피마스터웍","tel":"","addr":"경기도 고양시 덕양구 도내동 1117-1번지","category":"일반휴게음식 - 서양음식"}]},{"lat":"37.618885198","long":"126.85606423","items":[{"name":"송원테크","tel":"02-597-1817","addr":"경기도 고양시 덕양구 도내동 768-7번지","category":""}]},{"lat":"37.627445409","long":"126.85684036","items":[{"name":"수빈","tel":"031-965-9975","addr":"경기도 고양시 덕양구 도내동","category":"일반휴게음식 - 일반한식"},{"name":"수빈","tel":"031-965-9975","addr":"경기도 고양시 덕양구 도내동 835-12번지","category":""}]},{"lat":"37.61794171","long":"126.85811621","items":[{"name":"수정사","tel":"02-3158-0595","addr":"경기도 고양시 덕양구 도내동 749-1번지","category":""}]},{"lat":"37.62810418","long":"126.85770001","items":[{"name":"숲속유치원[아이행복]","tel":"031-968-1777","addr":"경기도 고양시 덕양구 도내동","category":"학원 - 유치원"}]},{"lat":"37.626917252","long":"126.86725182","items":[{"name":"스포츠온","tel":"070-4131-5969","addr":"경기도 고양시 덕양구 도내동 1103번지 엘에이치원흥도래울마을6단지","category":""},{"name":"스포츠온","tel":"070-4131-5969","addr":"경기도 고양시 덕양구 도내동 1103번지 엘에이치원흥도래울마을6단지","category":"레져용품 - 스포츠·레져용품"}]},{"lat":"37.62927566","long":"126.87336484","items":[{"name":"스피드 맥스 코리아(SPEED MAX KOREA)","tel":"031-968-0286","addr":"경기도 고양시 덕양구 도내동 1047-2번지","category":""}]},{"lat":"37.618550934","long":"126.85533998","items":[{"name":"시골집","tel":"031-974-2970","addr":"경기도 고양시 덕양구 도내동 765-3번지","category":""},{"name":"시골집","tel":"031-974-2970","addr":"경기도 고양시 덕양구 도내동 765-3번지","category":"음료식품 - 기타음료식품"}]},{"lat":"37.628882808","long":"126.86850569","items":[{"name":"시민한의원","tel":"031-964-6929","addr":"경기도 고양시 덕양구 도내동 1089번지","category":"의원 - 한의원"},{"name":"시민한의원","tel":"031-964-6929","addr":"경기도 고양시 덕양구 도내동 1089번지","category":""},{"name":"아이조아책조아","tel":"031-967-3350","addr":"경기도 고양시 덕양구 도내동 1089번지","category":"서적문구 - 일반서적"},{"name":"아이조아책조아","tel":"031-967-3350","addr":"경기도 고양시 덕양구 도내동 1089번지","category":""},{"name":"원흥행복치과의원","tel":"031-968-2275","addr":"경기도 고양시 덕양구 도내동 1089번지","category":"의원 - 치과의원"},{"name":"원흥행복치과의원","tel":"031-968-2275","addr":"경기도 고양시 덕양구 도내동 1089번지","category":""},{"name":"이디야","tel":"031-962-2410","addr":"경기도 고양시 덕양구 도내동 1089번지","category":""},{"name":"이디야","tel":"031-962-2410","addr":"경기도 고양시 덕양구 도내동 1089번지","category":"일반휴게음식 - 서양음식"}]},{"lat":"37.623465125","long":"126.8584793","items":[{"name":"시원상회","tel":"031-972-7462","addr":"경기도 고양시 덕양구 도내동 582-12","category":""}]},{"lat":"37.631221371","long":"126.87301028","items":[{"name":"신디헤어","tel":"032-0-0000","addr":"경기도 고양시 덕양구 도내동 1011번지 엘에이치원흥도래울마을4단지","category":""},{"name":"신디헤어","tel":"031-962-2084","addr":"경기도 고양시 덕양구 도내동 1011번지 엘에이치원흥도래울마을4단지","category":"보건위생 - 미용원"},{"name":"신디헤어","tel":"031-962-2084","addr":"경기도 고양시 덕양구 도내동 1011번지 엘에이치원흥도래울마을4단지","category":""},{"name":"어린별어린이집[아이행복]","tel":"","addr":"경기도 고양시 덕양구 도내동 1011번지 엘에이치원흥도래울마을4단지","category":"학원 - 유아원"},{"name":"오티몰","tel":"070-8876-7109","addr":"경기도 고양시 덕양구 도내동 1011번지 엘에이치원흥도래울마을4단지","category":""},{"name":"진로할인마트","tel":"031-965-3114","addr":"경기도 고양시 덕양구 도내동 1011번지 엘에이치원흥도래울마을4단지","category":""}]},{"lat":"37.61949906","long":"126.86451287","items":[{"name":"신성건업","tel":"031-971-7904","addr":"경기도 고양시 덕양구 도내동 602번지","category":""},{"name":"신성건업","tel":"031-971-7904","addr":"경기도 고양시 덕양구 도내동 602번지","category":"용역 서비스 - 기타용역서비스"}]},{"lat":"37.6220535","long":"126.86087208","items":[{"name":"신용방수개발","tel":"031-974-0120","addr":"경기도 고양시 덕양구 도내동","category":"건축자재 - 기타건축자재"},{"name":"신용방수개발","tel":"031-974-0120","addr":"경기도 고양시 덕양구 도내동 산90-1","category":""},{"name":"한성피엔피","tel":"031-974-5532","addr":"경기도 고양시 덕양구 도내동","category":"기타 - 기타 전문점"},{"name":"한성피엔피","tel":"031-974-5532","addr":"경기도 고양시 덕양구 도내동 산90-1","category":""}]},{"lat":"37.624417593","long":"126.86384675","items":[{"name":"신우는시인","tel":"031-979-7745","addr":"경기도 고양시 덕양구 도내동","category":"건축자재 - 인테리어전문"},{"name":"신우는시인","tel":"031-979-7745","addr":"경기도 고양시 덕양구 도내동 552-2번지","category":""}]},{"lat":"37.623437577","long":"126.865593","items":[{"name":"신화","tel":"031-973-9735","addr":"경기도 고양시 덕양구 도내동 290-6번지","category":""},{"name":"신화","tel":"031-973-9735","addr":"경기도 고양시 덕양구 도내동 290-6번지","category":"음료식품 - 기타음료식품"}]},{"lat":"37.611054928","long":"126.85542274","items":[{"name":"신화유리","tel":"02-3458-1917","addr":"경기도 고양시 덕양구 도내동 723-39번지","category":""},{"name":"신화유리","tel":"02-3458-1917","addr":"경기도 고양시 덕양구 도내동 723-39번지","category":"건축자재 - 유리"}]},{"lat":"37.617276005","long":"126.86653311","items":[{"name":"쌍둥이농장","tel":"02-389-6300","addr":"경기도 고양시 덕양구 도내동","category":"음료식품 - 농·축·수산품"}]},{"lat":"37.630167173","long":"126.87295547","items":[{"name":"씨유원흥도래울점","tel":"070-8866-2512","addr":"경기도 고양시 덕양구 도내동 1034-5번지","category":"유통업 영리 - 편 의 점"},{"name":"인더라인25 도래울점","tel":"070-8866-2512","addr":"경기도 고양시 덕양구 도내동 1034-5번지","category":"유통업 영리 - 편 의 점"}]},{"lat":"37.630104042","long":"126.87289894","items":[{"name":"씨유원흥도래울점","tel":"070-8866-2512","addr":"경기도 고양시 덕양구 도내동 1034-5번지","category":""},{"name":"인더라인25 도래울점","tel":"070-8866-2512","addr":"경기도 고양시 덕양구 도내동 1034-5번지","category":""}]},{"lat":"37.631744045","long":"126.85764762","items":[{"name":"아부지와고등어","tel":"031-971-9595","addr":"경기도 고양시 덕양구 도내동 850-15번지","category":"일반휴게음식 - 일반한식"}]},{"lat":"37.630104217","long":"126.87305754","items":[{"name":"아지매마산아구찜","tel":"031-966-9663","addr":"경기도 고양시 덕양구 도내동 1034-6번지","category":""},{"name":"아지매마산아구찜","tel":"031-966-9663","addr":"경기도 고양시 덕양구 도내동 1034-6번지","category":"일반휴게음식 - 일반한식"}]},{"lat":"37.629750931","long":"126.87133623","items":[{"name":"아지트","tel":"031-968-2018","addr":"경기도 고양시 덕양구 도내동 1037-6번지","category":""}]},{"lat":"37.631085676","long":"126.87251205","items":[{"name":"애드플랜커뮤니케이션","tel":"070-7622-2861","addr":"경기도 고양시 덕양구 도내동 1011번지 엘에이치원흥도래울마을4단지","category":""},{"name":"폴가든(PolGarden)","tel":"02-2065-0927","addr":"경기도 고양시 덕양구 도내동 1011번지 엘에이치원흥도래울마을4단지","category":""},{"name":"폴가든(PolGarden)","tel":"02-2065-0927","addr":"경기도 고양시 덕양구 도내동 1011번지 엘에이치원흥도래울마을4단지","category":"주방용구 - 주방용구"}]},{"lat":"37.626554176","long":"126.85743116","items":[{"name":"에덴종합상사","tel":"031-965-7792","addr":"경기도 고양시 덕양구 도내동 813-7번지","category":""},{"name":"에덴종합상사","tel":"031-965-7792","addr":"경기도 고양시 덕양구 도내동 813-7번지","category":"건축자재 - 목재·석재·철물"}]},{"lat":"37.629661891","long":"126.87228797","items":[{"name":"에스엠산업","tel":"031-979-6834","addr":"경기도 고양시 덕양구 도내동 1041번지","category":"건축자재 - 기타건축자재"},{"name":"에스엠산업","tel":"031-979-6834","addr":"경기도 고양시 덕양구 도내동 1041번지","category":""}]},{"lat":"37.624715672","long":"126.87239858","items":[{"name":"엔케이 인터내셔날","tel":"070-7370-1830","addr":"경기도 고양시 덕양구 도내동 1121-1번지","category":"레져용품 - 스포츠·레져용품"}]},{"lat":"37.632059498","long":"126.87321274","items":[{"name":"여성의류","tel":"031-837-4715","addr":"경기도 고양시 덕양구 도내동 1011번지 엘에이치원흥도래울마을4단지","category":""}]},{"lat":"37.634499927","long":"126.8721209","items":[{"name":"연세대 충효 태권도장","tel":"031-968-9001","addr":"경기도 고양시 덕양구 도내동 965번지","category":""},{"name":"점핑플라잉","tel":"031-968-1908","addr":"경기도 고양시 덕양구 도내동 965번지","category":""}]},{"lat":"37.624778703","long":"126.84986774","items":[{"name":"연우철물건재상사","tel":"031-968-2612","addr":"경기도 고양시 덕양구 도내동","category":"건축자재 - 기타건축자재"},{"name":"연우철물건재상사","tel":"031-968-2612","addr":"경기도 고양시 덕양구 도내동 860-7","category":""}]},{"lat":"37.628000551","long":"126.869119","items":[{"name":"영아어린이집[아이행복]","tel":"031-962-8962","addr":"경기도 고양시 덕양구 도내동 1103번지 엘에이치원흥도래울마을6단지","category":"학원 - 유아원"}]},{"lat":"37.621300398","long":"126.87187217","items":[{"name":"오부자","tel":"031-967-7956","addr":"경기도 고양시 덕양구 도내동 144-17번지","category":""},{"name":"주식회사 바이탈","tel":"02-3158-3007","addr":"경기도 고양시 덕양구 도내동 144-17번지","category":"문화.취미 - 애완동물"},{"name":"주식회사 바이탈","tel":"02-3158-3007","addr":"경기도 고양시 덕양구 도내동 144-17번지","category":""},{"name":"천보금속","tel":"031-966-3456","addr":"경기도 고양시 덕양구 도내동 144-17번지","category":""},{"name":"천보산업","tel":"031-966-3456","addr":"경기도 고양시 덕양구 도내동 144-17번지","category":"건축자재 - 목재·석재·철물"},{"name":"펫쓰리엘","tel":"02-1899-9473","addr":"경기도 고양시 덕양구 도내동 144-17번지","category":""},{"name":"펫쓰리엘","tel":"02-1899-9473","addr":"경기도 고양시 덕양구 도내동 144-17번지","category":"문화.취미 - 애완동물"}]},{"lat":"37.618914329","long":"126.85776319","items":[{"name":"오성개발 (주)","tel":"031-938-9888","addr":"경기도 고양시 덕양구 도내동 757번지","category":"용역 서비스 - 기타용역서비스"},{"name":"오성개발 (주)","tel":"031-938-9888","addr":"경기도 고양시 덕양구 도내동 757번지","category":""}]},{"lat":"37.626938892","long":"126.85525543","items":[{"name":"와인이야기","tel":"031-964-7577","addr":"경기도 고양시 덕양구 도내동 832-1번지","category":"음료식품 - 주류 판매점"},{"name":"와인이야기","tel":"031-964-7577","addr":"경기도 고양시 덕양구 도내동 832-1번지","category":""}]},{"lat":"37.627581143","long":"126.85731588","items":[{"name":"우리집꾸미기","tel":"031-968-1140","addr":"경기도 고양시 덕양구 도내동 837-1번지","category":""},{"name":"우리집꾸미기","tel":"031-968-1140","addr":"경기도 고양시 덕양구 도내동 837-1번지","category":"직물 - 카페트,커튼,천막,지물"}]},{"lat":"37.633382129","long":"126.85628495","items":[{"name":"워즈워스톡톡","tel":"070-7794-0968","addr":"경기도 고양시 덕양구 도내동 851-6번지","category":""},{"name":"이지메디","tel":"","addr":"경기도 고양시 덕양구 도내동 851-6번지","category":"보건위생 - 의료용품"}]},{"lat":"37.625214923","long":"126.8527894","items":[{"name":"원빈농장","tel":"031-962-3037","addr":"경기도 고양시 덕양구 도내동 856-3번지","category":"음료식품 - 농·축·수산품"},{"name":"원빈농장","tel":"031-962-3037","addr":"경기도 고양시 덕양구 도내동 856-3번지","category":""}]},{"lat":"37.618469625","long":"126.8703367","items":[{"name":"원전기업","tel":"031-972-9023","addr":"경기도 고양시 덕양구 도내동","category":"건축자재 - 기타건축자재"},{"name":"원전기업","tel":"031-972-9023","addr":"경기도 고양시 덕양구 도내동 219-14번지","category":""}]},{"lat":"37.62994128","long":"126.87236678","items":[{"name":"원트리디자인","tel":"070-7566-2166","addr":"경기도 고양시 덕양구 도내동 1039번지","category":""},{"name":"원트리디자인","tel":"070-7566-2166","addr":"경기도 고양시 덕양구 도내동 1039번지","category":"가구 - 기타가구"}]},{"lat":"37.630084417","long":"126.87144893","items":[{"name":"원흥닭한마리","tel":"031-968-1110","addr":"경기도 고양시 덕양구 도내동 1035-1번지","category":""}]},{"lat":"37.630138576","long":"126.87153946","items":[{"name":"원흥닭한마리","tel":"031-968-1110","addr":"경기도 고양시 덕양구 도내동 1035-1번지","category":"일반휴게음식 - 일반한식"}]},{"lat":"37.622104455","long":"126.86586731","items":[{"name":"월드컵풋살경기장","tel":"031-970-0096","addr":"경기도 고양시 덕양구 도내동 279번지","category":""},{"name":"월드컵풋살경기장","tel":"031-970-0096","addr":"경기도 고양시 덕양구 도내동 279번지","category":"레저업소 - 기타레져업소"}]},{"lat":"37.630192356","long":"126.87129014","items":[{"name":"월드크리닝 고양지사","tel":"031-965-9654","addr":"경기도 고양시 덕양구 도내동 1035번지","category":"수리서비스 - 세탁소"}]},{"lat":"37.630111231","long":"126.8712563","items":[{"name":"월드크리닝 고양지사","tel":"031-965-9654","addr":"경기도 고양시 덕양구 도내동 1035번지","category":""},{"name":"크린위드 고양지사","tel":"031-965-9654","addr":"경기도 고양시 덕양구 도내동 1035번지","category":""}]},{"lat":"37.626554578","long":"126.87323363","items":[{"name":"웨이비커피","tel":"031-969-5431","addr":"경기도 고양시 덕양구 도내동 1112-1번지","category":"일반휴게음식 - 서양음식"}]},{"lat":"37.611307342","long":"126.8555355","items":[{"name":"위드윈","tel":"031-965-9873","addr":"경기도 고양시 덕양구 도내동 723-40번지","category":""},{"name":"위드윈","tel":"031-965-9873","addr":"경기도 고양시 덕양구 도내동 723-40번지","category":"신변잡화 - 제화"}]},{"lat":"37.630299862","long":"126.86292951","items":[{"name":"유나수선실","tel":"031-8035-2507","addr":"경기도 고양시 덕양구 도내동 1003번지","category":"수리서비스 - 세탁소"},{"name":"이케아다기스어린이집[아이행복]","tel":"031-968-3337","addr":"경기도 고양시 덕양구 도내동 1003번지","category":"학원 - 유아원"}]},{"lat":"37.629471265","long":"126.86318029","items":[{"name":"유나수선실","tel":"031-8035-2507","addr":"경기도 고양시 덕양구 도내동 1003번지","category":""}]},{"lat":"37.62701043","long":"126.86995904","items":[{"name":"유니영어교습소","tel":"02-965-0582","addr":"경기도 고양시 덕양구 도내동 1103번지 엘에이치원흥도래울마을6단지","category":"학원 - 기타 교육기관"},{"name":"유니영어교습소","tel":"02-965-0582","addr":"경기도 고양시 덕양구 도내동 1103번지 엘에이치원흥도래울마을6단지","category":""}]},{"lat":"37.62988614","long":"126.87139263","items":[{"name":"유연","tel":"031-968-0151","addr":"경기도 고양시 덕양구 도내동 1037-7번지","category":""}]},{"lat":"37.629886203","long":"126.87144928","items":[{"name":"유연","tel":"031-968-0151","addr":"경기도 고양시 덕양구 도내동 1037-7번지","category":"일반휴게음식 - 일반한식"}]},{"lat":"37.6178854","long":"126.86373432","items":[{"name":"유한유리공예","tel":"031-938-6266","addr":"경기도 고양시 덕양구 도내동 618-4번지","category":""},{"name":"유한유리공예","tel":"031-938-6266","addr":"경기도 고양시 덕양구 도내동 618-4번지","category":"건축자재 - 유리"}]},{"lat":"37.62817064","long":"126.8681558","items":[{"name":"윤형제","tel":"","addr":"경기도 고양시 덕양구 도내동 1103번지 엘에이치원흥도래울마을6단지","category":""}]},{"lat":"37.631805881","long":"126.85665057","items":[{"name":"은지가족낚시터","tel":"031-965-5852","addr":"경기도 고양시 덕양구 도내동 847-3번지","category":""},{"name":"은지가족낚시터","tel":"031-965-5852","addr":"경기도 고양시 덕양구 도내동 847-3번지","category":"레저업소 - 기타레져업소"}]},{"lat":"37.626857422","long":"126.85494974","items":[{"name":"은지농산","tel":"031-963-5852","addr":"경기도 고양시 덕양구 도내동 827-1번지","category":""}]},{"lat":"37.626081118","long":"126.85378451","items":[{"name":"은지농원","tel":"031-963-5852","addr":"경기도 고양시 덕양구 도내동 824-4번지","category":"음료식품 - 농·축·수산품"},{"name":"은지농원","tel":"031-963-5852","addr":"경기도 고양시 덕양구 도내동 824-4번지","category":""}]},{"lat":"37.6269811","long":"126.86793138","items":[{"name":"이세란","tel":"031-810-0030","addr":"경기도 고양시 덕양구 도내동 1103번지 엘에이치원흥도래울마을6단지","category":"회원제형태 - 학원"},{"name":"이세란","tel":"031-810-0030","addr":"경기도 고양시 덕양구 도내동 1103번지 엘에이치원흥도래울마을6단지","category":""},{"name":"행복한어린이집[아이행복]","tel":"","addr":"경기도 고양시 덕양구 도내동 1103번지 엘에이치원흥도래울마을6단지","category":"학원 - 유아원"}]},{"lat":"37.619664199","long":"126.85944944","items":[{"name":"이지데코","tel":"031-938-0484","addr":"경기도 고양시 덕양구 도내동 635-6번지","category":""}]},{"lat":"37.620052069","long":"126.86745685","items":[{"name":"일산농장","tel":"031-965-8882","addr":"경기도 고양시 덕양구 도내동","category":"음료식품 - 농·축·수산품"},{"name":"일산농장","tel":"031-965-8882","addr":"경기도 고양시 덕양구 도내동 191-8번지","category":""}]},{"lat":"37.612939118","long":"126.85634774","items":[{"name":"일산비빔국수&돈가스","tel":"031-1111-1111","addr":"경기도 고양시 덕양구 도내동 723-3번지","category":""},{"name":"추오정남원추어탕","tel":"031-970-2326","addr":"경기도 고양시 덕양구 도내동 723-3번지","category":"일반휴게음식 - 일반한식"}]},{"lat":"37.625918458","long":"126.86837509","items":[{"name":"잉글리시가든","tel":"070-8340-8807","addr":"경기도 고양시 덕양구 도내동 1103번지 엘에이치원흥도래울마을6단지","category":""},{"name":"잉글리시가든","tel":"070-8340-8807","addr":"경기도 고양시 덕양구 도내동 1103번지 엘에이치원흥도래울마을6단지","category":"회원제형태 - 학원"}]},{"lat":"37.61283131","long":"126.85659712","items":[{"name":"장어미락","tel":"031-979-0592","addr":"경기도 고양시 덕양구 도내동 723-41번지","category":""},{"name":"풍천민물장어직판장 셀프장어미락","tel":"","addr":"경기도 고양시 덕양구 도내동 723-41번지","category":"일반휴게음식 - 일반한식"}]},{"lat":"37.630273128","long":"126.87100678","items":[{"name":"젊음의 포차","tel":"031-919-6766","addr":"경기도 고양시 덕양구 도내동 1030-4번지","category":""}]},{"lat":"37.615582202","long":"126.86655885","items":[{"name":"정원창호","tel":"031-967-1511","addr":"경기도 고양시 덕양구 도내동 163-17,1층","category":""},{"name":"정원창호","tel":"031-967-1511","addr":"경기도 고양시 덕양구 도내동","category":"건축자재 - 기타건축자재"}]},{"lat":"37.627048083","long":"126.85611615","items":[{"name":"제4차유통","tel":"031-969-7700","addr":"경기도 고양시 덕양구 도내동 832-21번지","category":""},{"name":"제4차유통","tel":"031-969-7700","addr":"경기도 고양시 덕양구 도내동 832-21번지","category":"유통업 영리 - 슈퍼마켓"}]},{"lat":"37.630780666","long":"126.87371342","items":[{"name":"제이블레스(J.bless)","tel":"02-3443-5688","addr":"경기도 고양시 덕양구 도내동 1011번지 엘에이치원흥도래울마을4단지","category":"용역 서비스 - 사무서비스"},{"name":"제이블레스(J.bless)","tel":"02-3443-5688","addr":"경기도 고양시 덕양구 도내동 1011번지 엘에이치원흥도래울마을4단지","category":""}]},{"lat":"37.618633376","long":"126.85642718","items":[{"name":"제이에스넷","tel":"031-979-5533","addr":"경기도 고양시 덕양구 도내동 760-1번지","category":"사무통신 - 기타 사무용품"},{"name":"제이에스넷","tel":"031-979-5533","addr":"경기도 고양시 덕양구 도내동 760-1번지","category":""}]},{"lat":"37.629826436","long":"126.85884084","items":[{"name":"주식회사 디자인쁘렝땅","tel":"","addr":"경기도 고양시 덕양구 도내동 840-6번지","category":"유통업 영리 - 기타유통업"},{"name":"주식회사 디자인쁘렝땅","tel":"","addr":"경기도 고양시 덕양구 도내동 840-6번지","category":""}]},{"lat":"37.635495011","long":"126.86004213","items":[{"name":"주식회사 뜰농업회사법인","tel":"070-8268-7153","addr":"경기도 고양시 덕양구 도내동 456-5","category":""},{"name":"주식회사 뜰농업회사법인","tel":"070-8268-7153","addr":"경기도 고양시 덕양구 도내동","category":"문화.취미 - 화원"}]},{"lat":"37.618164207","long":"126.86331472","items":[{"name":"주식회사 아워스원리스","tel":"032-428-0900","addr":"경기도 고양시 덕양구 도내동 616-2번지","category":""},{"name":"주식회사 아워스원리스","tel":"032-428-0900","addr":"경기도 고양시 덕양구 도내동 616-2번지","category":"자동차판매 - 이륜차판매"}]},{"lat":"37.629993548","long":"126.87075805","items":[{"name":"주식회사 카브로스(CABROS)","tel":"070-5056-2464","addr":"경기도 고양시 덕양구 도내동 1032번지","category":""}]},{"lat":"37.630020552","long":"126.87073535","items":[{"name":"주식회사 카브로스(CABROS)","tel":"070-5056-2464","addr":"경기도 고양시 덕양구 도내동 1032번지","category":"자동차정비 유지 - 자동차부품"}]},{"lat":"37.630772081","long":"126.85853314","items":[{"name":"주식회사늘사랑","tel":"02-737-0883","addr":"경기도 고양시 덕양구 도내동 847-9번지","category":"의류 - 정장"},{"name":"주식회사늘사랑","tel":"02-737-0883","addr":"경기도 고양시 덕양구 도내동 847-9번지","category":""},{"name":"하늘바람","tel":"031-967-7299","addr":"경기도 고양시 덕양구 도내동 847-9번지","category":""},{"name":"하늘바람","tel":"031-967-7299","addr":"경기도 고양시 덕양구 도내동 847-9번지","category":"전기제품 - 냉열기기"}]},{"lat":"37.621111507","long":"126.86426068","items":[{"name":"주식회사지에이시몬","tel":"031-971-2348","addr":"경기도 고양시 덕양구 도내동 599-9번지","category":"전기제품 - 냉열기기"},{"name":"주식회사지에이시몬","tel":"031-971-2348","addr":"경기도 고양시 덕양구 도내동 599-9번지","category":""}]},{"lat":"37.623941765","long":"126.86528623","items":[{"name":"지원청과","tel":"031-979-1023","addr":"경기도 고양시 덕양구 도내동 290-14번지","category":"음료식품 - 농·축·수산품"},{"name":"지원청과","tel":"031-979-1023","addr":"경기도 고양시 덕양구 도내동 290-14번지","category":""}]},{"lat":"37.62416755","long":"126.85820608","items":[{"name":"진성카센타","tel":"031-970-4437","addr":"경기도 고양시 덕양구 도내동 798-4번지","category":"자동차정비 유지 - 자동차정비"},{"name":"진성카센타","tel":"031-970-4437","addr":"경기도 고양시 덕양구 도내동 798-4번지","category":""}]},{"lat":"37.625968784","long":"126.87308738","items":[{"name":"차이나","tel":"031-967-9902","addr":"경기도 고양시 덕양구 도내동 1117-2번지","category":"일반휴게음식 - 중국식"}]},{"lat":"37.629023264","long":"126.873252","items":[{"name":"참조은 케이터링","tel":"031-962-2266","addr":"경기도 고양시 덕양구 도내동 1062-1번지","category":"일반휴게음식 - 일반한식"}]},{"lat":"37.618888119","long":"126.85843152","items":[{"name":"참치홀릭","tel":"031-972-8663","addr":"경기도 고양시 덕양구 도내동 산88-3번지","category":"음료식품 - 농·축·수산품"},{"name":"참치홀릭","tel":"031-972-8663","addr":"경기도 고양시 덕양구 도내동 산88-3번지","category":""}]},{"lat":"37.629912397","long":"126.87070155","items":[{"name":"카디테일리스트","tel":"031-000-0000","addr":"경기도 고양시 덕양구 도내동 1032-1번지","category":"자동차정비 유지 - 세차장"}]},{"lat":"37.629858339","long":"126.87070165","items":[{"name":"카디테일리스트","tel":"031-0-0000","addr":"경기도 고양시 덕양구 도내동 1032-1번지","category":""}]},{"lat":"37.629689683","long":"126.87297896","items":[{"name":"카페안녕","tel":"031-979-3434","addr":"경기도 고양시 덕양구 도내동 1042-2번지","category":"일반휴게음식 - 서양음식"}]},{"lat":"37.629689721","long":"126.87301294","items":[{"name":"카페안녕","tel":"031-979-3434","addr":"경기도 고양시 덕양구 도내동 1042-2번지","category":""}]},{"lat":"37.632690086","long":"126.86517947","items":[{"name":"커피명당","tel":"","addr":"경기도 고양시 덕양구 도내동 447번지","category":"일반휴게음식 - 서양음식"}]},{"lat":"37.624112108","long":"126.87247892","items":[{"name":"커피베이 원흥도래울점","tel":"031-963-8719","addr":"경기도 고양시 덕양구 도내동 1122-5번지","category":"일반휴게음식 - 서양음식"},{"name":"커피베이 원흥도래울점","tel":"031-963-8719","addr":"경기도 고양시 덕양구 도내동 1122-5번지","category":""}]},{"lat":"37.630328145","long":"126.87186765","items":[{"name":"커피토스타(COFFEE TOSTAR)","tel":"031-964-6980","addr":"경기도 고양시 덕양구 도내동 1030-10번지","category":"일반휴게음식 - 서양음식"}]},{"lat":"37.630274062","long":"126.87184509","items":[{"name":"커피토스타(COFFEE TOSTAR)","tel":"031-964-6980","addr":"경기도 고양시 덕양구 도내동 1030-10번지","category":""}]},{"lat":"37.629554288","long":"126.87275263","items":[{"name":"콜라보네일","tel":"031-962-4862","addr":"경기도 고양시 덕양구 도내동 1044번지","category":""}]},{"lat":"37.622744788","long":"126.86642118","items":[{"name":"크래커플러스주식회사","tel":"031-926-3099","addr":"경기도 고양시 덕양구 도내동 287번지","category":""},{"name":"크래커플러스주식회사","tel":"031-926-3099","addr":"경기도 고양시 덕양구 도내동 287번지","category":"서적문구 - 완구점"}]},{"lat":"37.63032778","long":"126.87153913","items":[{"name":"크린토피아코인워시 원흥점","tel":"031-967-3429","addr":"경기도 고양시 덕양구 도내동 1030-8번지","category":""}]},{"lat":"37.626607606","long":"126.86439774","items":[{"name":"키웨스트 도내점","tel":"031-967-3356","addr":"경기도 고양시 덕양구 도내동 940번지","category":"일반휴게음식 - 서양음식"},{"name":"키웨스트 도내점","tel":"031-967-3356","addr":"경기도 고양시 덕양구 도내동 940번지","category":""}]},{"lat":"37.612613865","long":"126.85562353","items":[{"name":"타일위생도기전문상설할인매장","tel":"031-967-5804","addr":"경기도 고양시 덕양구 도내동 723-38번지","category":"건축자재 - 건축용 요업제품"},{"name":"타일위생도기전문상설할인매장","tel":"031-967-5804","addr":"경기도 고양시 덕양구 도내동 723-38번지","category":""},{"name":"해피랜드F&C화전점","tel":"031-970-0701","addr":"경기도 고양시 덕양구 도내동 723-38번지","category":""}]},{"lat":"37.629636718","long":"126.87397595","items":[{"name":"탑클래스","tel":"031-979-3434","addr":"경기도 고양시 덕양구 도내동 1048-5번지","category":""}]},{"lat":"37.611636588","long":"126.85951016","items":[{"name":"태흥가설","tel":"031-971-4141","addr":"경기도 고양시 덕양구 도내동","category":"건축자재 - 기타건축자재"},{"name":"태흥가설","tel":"031-971-4141","addr":"경기도 고양시 덕양구 도내동 694-1번지","category":""}]},{"lat":"37.630249292","long":"126.87389559","items":[{"name":"토이펀(toyfun)","tel":"031-964-2557","addr":"경기도 고양시 덕양구 도내동 1051-3번지","category":"서적문구 - 완구점"}]},{"lat":"37.630249267","long":"126.87387294","items":[{"name":"토이펀(toyfun)","tel":"031-964-2557","addr":"경기도 고양시 덕양구 도내동 1051-3번지","category":""}]},{"lat":"37.623942307","long":"126.85820652","items":[{"name":"트리플퍼니처","tel":"031-979-1949","addr":"경기도 고양시 덕양구 도내동 798-8번지","category":"가구 - 일반가구"},{"name":"트리플퍼니처","tel":"031-979-1949","addr":"경기도 고양시 덕양구 도내동 798-8번지","category":""}]},{"lat":"37.629383228","long":"126.87286621","items":[{"name":"특별한돼지","tel":"031-962-9280","addr":"경기도 고양시 덕양구 도내동 1044-2번지","category":""}]},{"lat":"37.626502519","long":"126.86700336","items":[{"name":"푸른돌 캘리그라피","tel":"070-7632-3132","addr":"경기도 고양시 덕양구 도내동 1103번지 엘에이치원흥도래울마을6단지","category":""},{"name":"푸른돌 캘리그라피","tel":"070-7632-3132","addr":"경기도 고양시 덕양구 도내동 1103번지 엘에이치원흥도래울마을6단지","category":"건축자재 - 인테리어전문"}]},{"lat":"37.623743571","long":"126.87326117","items":[{"name":"풀앤바이(FullNbuy)","tel":"02-707-2525","addr":"경기도 고양시 덕양구 도내동 109-6","category":""}]},{"lat":"37.626302268","long":"126.87320008","items":[{"name":"프로메사","tel":"031-966-5855","addr":"경기도 고양시 덕양구 도내동 1117번지","category":"일반휴게음식 - 서양음식"},{"name":"프로메사","tel":"031-966-5855","addr":"경기도 고양시 덕양구 도내동 1117번지","category":""}]},{"lat":"37.619335134","long":"126.8556216","items":[{"name":"프린트존","tel":"02-2274-1998","addr":"경기도 고양시 덕양구 도내동 768-1번지","category":""},{"name":"프린트존","tel":"02-2274-1998","addr":"경기도 고양시 덕양구 도내동 768-1번지","category":"서적문구 - 출판 및 인쇄물"}]},{"lat":"37.634689068","long":"126.87206392","items":[{"name":"플레이온(Playon)","tel":"032-663-7679","addr":"경기도 고양시 덕양구 도내동 965번지","category":"학원 - 예·체능계학원"}]},{"lat":"37.62727871","long":"126.86051097","items":[{"name":"피크닉","tel":"031-967-7586","addr":"경기도 고양시 덕양구 도내동 559-10번지","category":""},{"name":"피크닉","tel":"031-967-7586","addr":"경기도 고양시 덕양구 도내동 559-10번지","category":"유통업 영리 - 슈퍼마켓"}]},{"lat":"37.630194712","long":"126.87341989","items":[{"name":"필승감자","tel":"031-111-1111","addr":"경기도 고양시 덕양구 도내동 1051번지","category":"일반휴게음식 - 주점"}]},{"lat":"37.632167026","long":"126.85726162","items":[{"name":"하선","tel":"031-966-0696","addr":"경기도 고양시 덕양구 도내동 851번지","category":""},{"name":"하선","tel":"031-966-0696","addr":"경기도 고양시 덕양구 도내동 851번지","category":"일반휴게음식 - 일반한식"}]},{"lat":"37.629301289","long":"126.87209602","items":[{"name":"하임스커피","tel":"","addr":"경기도 고양시 덕양구 도내동 1061-1번지","category":""},{"name":"하임스커피","tel":"","addr":"경기도 고양시 덕양구 도내동 1061-1번지","category":"일반휴게음식 - 서양음식"}]},{"lat":"37.624166439","long":"126.85017484","items":[{"name":"한결식품","tel":"031-967-3423","addr":"경기도 고양시 덕양구 도내동 883번지","category":"음료식품 - 농·축·수산품"},{"name":"한결식품","tel":"031-967-3423","addr":"경기도 고양시 덕양구 도내동 883번지","category":""}]},{"lat":"37.620223913","long":"126.86036585","items":[{"name":"한빛퀵화물","tel":"02-359-7282","addr":"경기도 고양시 덕양구 도내동 산90-13번지","category":""}]},{"lat":"37.62588736","long":"126.87278167","items":[{"name":"할리(Harly)","tel":"031-969-2920","addr":"경기도 고양시 덕양구 도내동 1114-3번지","category":"일반휴게음식 - 서양음식"},{"name":"할리(Harly)","tel":"031-0-0000","addr":"경기도 고양시 덕양구 도내동 1114-3번지","category":""}]},{"lat":"37.625909791","long":"126.85367157","items":[{"name":"해승식품","tel":"031-968-7420","addr":"경기도 고양시 덕양구 도내동 823-3번지","category":"음료식품 - 기타음료식품"},{"name":"해승식품","tel":"031-968-7420","addr":"경기도 고양시 덕양구 도내동 823-3번지","category":""}]},{"lat":"37.611384522","long":"126.85968053","items":[{"name":"행신물류","tel":"031-970-4333","addr":"경기도 고양시 덕양구 도내동 694-9","category":""},{"name":"행신물류","tel":"031-970-4333","addr":"경기도 고양시 덕양구 도내동","category":"용역 서비스 - 보관및 창고업"}]},{"lat":"37.625193337","long":"126.87253367","items":[{"name":"헬로마트","tel":"031-962-1010","addr":"경기도 고양시 덕양구 도내동 1116-3번지","category":""},{"name":"헬로마트","tel":"031-962-1010","addr":"경기도 고양시 덕양구 도내동 1116-3번지","category":"유통업 영리 - 슈퍼마켓"}]},{"lat":"37.630159529","long":"126.87420162","items":[{"name":"호신이네 왕족발","tel":"031-962-7799","addr":"경기도 고양시 덕양구 도내동 1053번지","category":"일반휴게음식 - 일반한식"}]},{"lat":"37.630078379","long":"126.87414511","items":[{"name":"호신이네 왕족발","tel":"031-962-7799","addr":"경기도 고양시 덕양구 도내동 1053번지","category":""}]},{"lat":"37.629139052","long":"126.87203967","items":[{"name":"화목토","tel":"070-7365-0492","addr":"경기도 고양시 덕양구 도내동 1061-12번지","category":""},{"name":"화목토","tel":"070-7365-0492","addr":"경기도 고양시 덕양구 도내동 1061-12번지","category":"문화.취미 - 화원"}]},{"lat":"37.622942464","long":"126.86595639","items":[{"name":"화전가정대리점","tel":"02-384-0278","addr":"경기도 고양시 덕양구 도내동 285","category":""},{"name":"화전가정대리점","tel":"02-384-0278","addr":"경기도 고양시 덕양구 도내동","category":"음료식품 - 기타음료식품"}]},{"lat":"37.629834262","long":"126.87336387","items":[{"name":"황금 식자재마트","tel":"031-966-8367","addr":"경기도 고양시 덕양구 도내동 1045번지","category":"유통업 영리 - 슈퍼마켓"}]},{"lat":"37.619027104","long":"126.86933896","items":[{"name":"황금농장","tel":"031-965-8086","addr":"경기도 고양시 덕양구 도내동 224-3번지","category":""},{"name":"황금농장","tel":"031-965-8086","addr":"경기도 고양시 덕양구 도내동","category":"음료식품 - 정육점"}]},{"lat":"37.627859359","long":"126.87175871","items":[{"name":"흥도유치원[아이행복]","tel":"031-968-6875","addr":"경기도 고양시 덕양구 도내동 1100번지","category":"학원 - 유치원"},{"name":"흥도초등학교","tel":"031-967-7934","addr":"경기도 고양시 덕양구 도내동 1100번지","category":"학원 - 초중고교육기관"}]}]