[{"lat":"37.401773427","long":"126.89845743","imageIndex":13,"items":[{"name":"OK노래연습장","tel":"031-441-3892","addr":"경기도 안양시 만안구 박달동 607-20번지","indutype":"레저업소 - 노 래 방","category":"leisure"}]},{"lat":"37.404494331","long":"126.90903653","imageIndex":13,"items":[{"name":"가로등노래연습장","tel":"031-448-1630","addr":"경기도 안양시 만안구 박달동 16-19번지","indutype":"레저업소 - 노 래 방","category":"leisure"}]},{"lat":"37.405550148","long":"126.91112472","imageIndex":13,"items":[{"name":"갈채노래연습장","tel":"031-468-7572","addr":"경기도 안양시 만안구 박달동 55-28번지","indutype":"레저업소 - 노 래 방","category":"leisure"}]},{"lat":"37.403885471","long":"126.89259274","imageIndex":13,"items":[{"name":"강호합기도,킥복싱","tel":"031-342-9420","addr":"경기도 안양시 만안구 박달동 616-9번지","indutype":"레저업소 - 헬스클럽","category":"leisure"}]},{"lat":"37.402694228","long":"126.91147832","imageIndex":13,"items":[{"name":"고래고래 노래연습장","tel":"031-444-0520","addr":"경기도 안양시 만안구 박달동 74-19번지","indutype":"레저업소 - 노 래 방","category":"leisure"}]},{"lat":"37.403778995","long":"126.90467782","imageIndex":13,"items":[{"name":"구구당구클럽","tel":"","addr":"경기도 안양시 만안구 박달동 111-1번지","indutype":"레저업소 - 당 구 장","category":"leisure"}]},{"lat":"37.401385103","long":"126.89745281","imageIndex":13,"items":[{"name":"김희열탁구교실","tel":"031-449-4583","addr":"경기도 안양시 만안구 박달동 604-25번지","indutype":"레저업소 - 기타레져업소","category":"leisure"}]},{"lat":"37.402194072","long":"126.90570765","imageIndex":13,"items":[{"name":"노리파크 박달점","tel":"031-447-5612","addr":"경기도 안양시 만안구 박달동 135-5번지","indutype":"레저업소 - 기타레져업소","category":"leisure"},{"name":"밀레니엄","tel":"031-466-1489","addr":"경기도 안양시 만안구 박달동 135-5번지","indutype":"레저업소 - 노 래 방","category":"leisure"},{"name":"삼거리당구장","tel":"031-443-1480","addr":"경기도 안양시 만안구 박달동 135-5번지","indutype":"레저업소 - 당 구 장","category":"leisure"}]},{"lat":"37.405584333","long":"126.9087641","imageIndex":13,"items":[{"name":"다와노래연습장","tel":"031-468-8771","addr":"경기도 안양시 만안구 박달동 22-1번지","indutype":"레저업소 - 노 래 방","category":"leisure"}]},{"lat":"37.405107194","long":"126.90926166","imageIndex":13,"items":[{"name":"다이브 PC방","tel":"070-7627-5976","addr":"경기도 안양시 만안구 박달동 22-6번지","indutype":"레저업소 - 기타레져업소","category":"leisure"}]},{"lat":"37.402131842","long":"126.90673549","imageIndex":13,"items":[{"name":"대한검도회박달검도관","tel":"031-443-5820","addr":"경기도 안양시 만안구 박달동 94-143번지","indutype":"레저업소 - 헬스클럽","category":"leisure"},{"name":"보보스스포츠","tel":"031-441-1277","addr":"경기도 안양시 만안구 박달동 94-143번지","indutype":"레저업소 - 골프연습장","category":"leisure"},{"name":"쭌스크린골프존","tel":"031-466-0753","addr":"경기도 안양시 만안구 박달동 94-143번지","indutype":"레저업소 - 스크린골프","category":"leisure"}]},{"lat":"37.402360619","long":"126.91117378","imageIndex":13,"items":[{"name":"더 숲 필라테스","tel":"","addr":"경기도 안양시 만안구 박달동 68-27번지","indutype":"레저업소 - 헬스클럽","category":"leisure"}]},{"lat":"37.403053708","long":"126.91029199","imageIndex":13,"items":[{"name":"더에스(S) 필라테스","tel":"031-755-7303","addr":"경기도 안양시 만안구 박달동 20-35번지","indutype":"레저업소 - 헬스클럽","category":"leisure"}]},{"lat":"37.405496455","long":"126.91159915","imageIndex":13,"items":[{"name":"로데오당구장","tel":"031-465-7988","addr":"경기도 안양시 만안구 박달동 58-7번지","indutype":"레저업소 - 당 구 장","category":"leisure"}]},{"lat":"37.405722254","long":"126.91231044","imageIndex":13,"items":[{"name":"로소PC방","tel":"031-449-5871","addr":"경기도 안양시 만안구 박달동 58-3번지","indutype":"레저업소 - 기타레져업소","category":"leisure"}]},{"lat":"37.40494424","long":"126.90829054","imageIndex":13,"items":[{"name":"맨뉴당구장","tel":"031-441-9693","addr":"경기도 안양시 만안구 박달동 15-2번지 박달동동원베네스트","indutype":"레저업소 - 당 구 장","category":"leisure"}]},{"lat":"37.403440618","long":"126.90962515","imageIndex":13,"items":[{"name":"박달노래연습장","tel":"031-466-2796","addr":"경기도 안양시 만안구 박달동","indutype":"레저업소 - 노 래 방","category":"leisure"}]},{"lat":"37.405412809","long":"126.90834642","imageIndex":13,"items":[{"name":"배화골프","tel":"031-441-7553","addr":"경기도 안양시 만안구 박달동 15-1번지","indutype":"레저업소 - 스크린골프","category":"leisure"}]},{"lat":"37.404665387","long":"126.9088669","imageIndex":13,"items":[{"name":"비타민당구장","tel":"031-465-5544","addr":"경기도 안양시 만안구 박달동 15-6번지","indutype":"레저업소 - 당 구 장","category":"leisure"},{"name":"스타노래연습장","tel":"031-466-8091","addr":"경기도 안양시 만안구 박달동 15-6번지","indutype":"레저업소 - 노 래 방","category":"leisure"}]},{"lat":"37.402472722","long":"126.90490541","imageIndex":13,"items":[{"name":"비핏 (BE FIT)","tel":"","addr":"경기도 안양시 만안구 박달동 134-5번지","indutype":"레저업소 - 헬스클럽","category":"leisure"},{"name":"쟁반노래연습장","tel":"031-442-8214","addr":"경기도 안양시 만안구 박달동 134-5번지","indutype":"레저업소 - 노 래 방","category":"leisure"}]},{"lat":"37.405243155","long":"126.91028929","imageIndex":13,"items":[{"name":"상하이노래연습장","tel":"","addr":"경기도 안양시 만안구 박달동 56-30번지","indutype":"레저업소 - 노 래 방","category":"leisure"}]},{"lat":"37.403801234","long":"126.90989577","imageIndex":13,"items":[{"name":"슈프림짐","tel":"","addr":"경기도 안양시 만안구 박달동 20-2번지","indutype":"레저업소 - 헬스클럽","category":"leisure"},{"name":"안양 바다낚시터","tel":"031-442-3331","addr":"경기도 안양시 만안구 박달동 20-2번지","indutype":"레저업소 - 기타레져업소","category":"leisure"},{"name":"자이언트PC","tel":"031-555-2580","addr":"경기도 안양시 만안구 박달동 20-2번지","indutype":"레저업소 - 기타레져업소","category":"leisure"}]},{"lat":"37.405577711","long":"126.91181365","imageIndex":13,"items":[{"name":"스카이노래연습장","tel":"031-446-1563","addr":"경기도 안양시 만안구 박달동 58-9번지","indutype":"레저업소 - 노 래 방","category":"leisure"}]},{"lat":"37.405577284","long":"126.91126022","imageIndex":13,"items":[{"name":"시티","tel":"031-466-7851","addr":"경기도 안양시 만안구 박달동 55-29번지","indutype":"레저업소 - 노 래 방","category":"leisure"}]},{"lat":"37.403889454","long":"126.90753514","imageIndex":13,"items":[{"name":"신바람노래연습장","tel":"031-465-1228","addr":"경기도 안양시 만안구 박달동 103-2번지","indutype":"레저업소 - 노 래 방","category":"leisure"}]},{"lat":"37.402360733","long":"126.91132061","imageIndex":13,"items":[{"name":"썬노래연습장","tel":"031-442-8214","addr":"경기도 안양시 만안구 박달동 68-29번지","indutype":"레저업소 - 노 래 방","category":"leisure"}]},{"lat":"37.401691533","long":"126.90820427","imageIndex":13,"items":[{"name":"아이센스PC안양박달점","tel":"","addr":"경기도 안양시 만안구 박달동 85-26번지","indutype":"레저업소 - 기타레져업소","category":"leisure"}]},{"lat":"37.402689514","long":"126.90557148","imageIndex":13,"items":[{"name":"안양클라이밍","tel":"070-8690-3722","addr":"경기도 안양시 만안구 박달동 137-1번지","indutype":"레저업소 - 기타레져업소","category":"leisure"}]},{"lat":"37.404747184","long":"126.90975906","imageIndex":13,"items":[{"name":"앵콜노래연습장","tel":"031-465-4777","addr":"경기도 안양시 만안구 박달동 21-6번지","indutype":"레저업소 - 노 래 방","category":"leisure"}]},{"lat":"37.404358892","long":"126.90867528","imageIndex":13,"items":[{"name":"열창노래연습장","tel":"031-469-0888","addr":"경기도 안양시 만안구 박달동 46번지","indutype":"레저업소 - 노 래 방","category":"leisure"}]},{"lat":"37.40410738","long":"126.90964691","imageIndex":13,"items":[{"name":"와와노래연습장","tel":"031-468-2040","addr":"경기도 안양시 만안구 박달동 21-22번지","indutype":"레저업소 - 노 래 방","category":"leisure"}]},{"lat":"37.398973901","long":"126.90145412","imageIndex":13,"items":[{"name":"요가포유","tel":"031-465-9809","addr":"경기도 안양시 만안구 박달동 149-1번지","indutype":"레저업소 - 헬스클럽","category":"leisure"},{"name":"키즈월드팡팡","tel":"031-464-9060","addr":"경기도 안양시 만안구 박달동 149-1번지","indutype":"레저업소 - 기타레져업소","category":"leisure"}]},{"lat":"37.402694594","long":"126.91195267","imageIndex":13,"items":[{"name":"일이삼(123)노래연습장","tel":"","addr":"경기도 안양시 만안구 박달동 74-11번지","indutype":"레저업소 - 노 래 방","category":"leisure"}]},{"lat":"37.402639086","long":"126.9100892","imageIndex":13,"items":[{"name":"제일노래연습장","tel":"031-444-7404","addr":"경기도 안양시 만안구 박달동 18-10번지","indutype":"레저업소 - 노 래 방","category":"leisure"}]},{"lat":"37.405467265","long":"126.90884331","imageIndex":13,"items":[{"name":"줌바댄스","tel":"070-8236-4308","addr":"경기도 안양시 만안구 박달동 22-37번지","indutype":"레저업소 - 헬스클럽","category":"leisure"}]},{"lat":"37.402331139","long":"126.90806794","imageIndex":13,"items":[{"name":"즐거운노래연습장","tel":"031-468-2199","addr":"경기도 안양시 만안구 박달동 85-1번지","indutype":"레저업소 - 노 래 방","category":"leisure"}]},{"lat":"37.402361326","long":"126.9120886","imageIndex":13,"items":[{"name":"질러짱노래연습장","tel":"031-441-3067","addr":"경기도 안양시 만안구 박달동 68-39번지","indutype":"레저업소 - 노 래 방","category":"leisure"}]},{"lat":"37.403773838","long":"126.90943273","imageIndex":13,"items":[{"name":"차차차노래연습장","tel":"031-469-8090","addr":"경기도 안양시 만안구 박달동 17-3번지","indutype":"레저업소 - 노 래 방","category":"leisure"}]},{"lat":"37.405938374","long":"126.91215206","imageIndex":13,"items":[{"name":"콘서트노래연습장","tel":"031-441-9052","addr":"경기도 안양시 만안구 박달동 55-21번지","indutype":"레저업소 - 노 래 방","category":"leisure"}]},{"lat":"37.402693694","long":"126.91078937","imageIndex":13,"items":[{"name":"탑당구장","tel":"070-8116-0244","addr":"경기도 안양시 만안구 박달동 19-9번지","indutype":"레저업소 - 당 구 장","category":"leisure"}]},{"lat":"37.405692786","long":"126.90918187","imageIndex":13,"items":[{"name":"팡팡노래연습장","tel":"031-443-6456","addr":"경기도 안양시 만안구 박달동 22-33번지","indutype":"레저업소 - 노 래 방","category":"leisure"}]}]