[{"lat":"37.269026725","long":"127.44612469","imageIndex":4,"items":[{"name":"눙이버섯고을","tel":"031-636-3500","addr":"경기도 이천시 진리동 372-1번지 1층","indutype":"일반휴게음식 - 일반한식","category":"restaurant"}]},{"lat":"37.271938284","long":"127.45531921","imageIndex":4,"items":[{"name":"맘존","tel":"031-633-3077","addr":"경기도 이천시 진리동 51-4번지 1동 1층","indutype":"일반휴게음식 - 서양음식","category":"restaurant"}]},{"lat":"37.273499341","long":"127.45235202","imageIndex":4,"items":[{"name":"샤론술통","tel":"031-637-1555","addr":"경기도 이천시 진리동 26-2번지 2285번길 5-22 103호","indutype":"일반휴게음식 - 주점","category":"restaurant"}]},{"lat":"37.272020408","long":"127.45504911","imageIndex":4,"items":[{"name":"신갈미추어탕생선국수","tel":"031-631-0018","addr":"경기도 이천시 진리동 51-1번지","indutype":"일반휴게음식 - 일반한식","category":"restaurant"}]},{"lat":"37.272025524","long":"127.45370747","imageIndex":4,"items":[{"name":"신진농장정육식당","tel":"031-634-5888","addr":"경기도 이천시 진리동 31-2번지 D동","indutype":"일반휴게음식 - 일반한식","category":"restaurant"}]},{"lat":"37.273020741","long":"127.45263104","imageIndex":4,"items":[{"name":"윤가네장원추어탕","tel":"031-638-1360","addr":"경기도 이천시 진리동 27-3번지 다나빌딩 101호","indutype":"일반휴게음식 - 일반한식","category":"restaurant"},{"name":"홍고집쭈꾸미","tel":"031-634-7898","addr":"경기도 이천시 진리동 27-3번지","indutype":"일반휴게음식 - 일반한식","category":"restaurant"}]},{"lat":"37.272047875","long":"127.45256888","imageIndex":4,"items":[{"name":"전파사통닭","tel":"","addr":"경기도 이천시 진리동 24-1번지 1층 1호","indutype":"일반휴게음식 - 스넥","category":"restaurant"}]},{"lat":"37.272603752","long":"127.45329376","imageIndex":4,"items":[{"name":"카페메리","tel":"031-633-8321","addr":"경기도 이천시 진리동 29-9번지 아크로마마 102호","indutype":"일반휴게음식 - 서양음식","category":"restaurant"}]},{"lat":"37.266688163","long":"127.45457755","imageIndex":4,"items":[{"name":"카페진리","tel":"031-0000-0000","addr":"경기도 이천시 진리동 278-1번지 1층","indutype":"일반휴게음식 - 서양음식","category":"restaurant"}]}]