[{"lat":"37.3503135","long":"127.1107452","items":[{"name":"SH유통 (SH할인마트)","tel":"031-718-2161","addr":"경기도 성남시 분당구 금곡동 153번지","category":""},{"name":"렌즈미 미금점","tel":"031-711-0022","addr":"경기도 성남시 분당구 금곡동 153번지","category":""},{"name":"엉터리생고기 미금역점","tel":"031-711-7486","addr":"경기도 성남시 분당구 금곡동 153번지","category":""},{"name":"이삭토스트 미금점","tel":"031-714-2464","addr":"경기도 성남시 분당구 금곡동 153번지","category":""}]},{"lat":"37.3506762","long":"127.1082401","items":[{"name":"가디랑","tel":"031-625-0700","addr":"경기도 성남시 분당구 금곡동 161번지","category":""},{"name":"고센미용실","tel":"031-782-4377","addr":"경기도 성남시 분당구 금곡동 161번지","category":""},{"name":"글라스바바안경","tel":"031-716-3907","addr":"경기도 성남시 분당구 금곡동 161번지","category":""},{"name":"보드레빵","tel":"031-625-1355","addr":"경기도 성남시 분당구 금곡동 161번지","category":""},{"name":"송이보감","tel":"031-782-4456","addr":"경기도 성남시 분당구 금곡동 161번지","category":""},{"name":"엔젤홈마트","tel":"031-782-4900","addr":"경기도 성남시 분당구 금곡동 161번지","category":""},{"name":"영심이 미금점","tel":"031-782-4090","addr":"경기도 성남시 분당구 금곡동 161번지","category":""},{"name":"장스헤어","tel":"031-716-2353","addr":"경기도 성남시 분당구 금곡동 161번지","category":""}]},{"lat":"37.3503443","long":"127.1066031","items":[{"name":"가족플러스한의원","tel":"031-714-3553","addr":"경기도 성남시 분당구 금곡동 168번지","category":""},{"name":"건강백세약국","tel":"031-711-3204","addr":"경기도 성남시 분당구 금곡동 168번지","category":""}]},{"lat":"37.3626407","long":"127.0987409","items":[{"name":"구좌리얼크니손칼국수","tel":"031-711-5557","addr":"경기도 성남시 분당구 금곡동 56-3번지","category":""}]},{"lat":"37.3523093","long":"127.1056013","items":[{"name":"김밥나라 금곡점","tel":"031-711-7229","addr":"경기도 성남시 분당구 금곡동 206번지","category":""},{"name":"동압대","tel":"031-372-5292","addr":"경기도 성남시 분당구 금곡동 206번지","category":""},{"name":"로뎀에스테틱","tel":"031-716-0698","addr":"경기도 성남시 분당구 금곡동 206번지","category":""},{"name":"분당예일음악학원","tel":"031-717-5141","addr":"경기도 성남시 분당구 금곡동 206번지","category":""},{"name":"해피푸릇","tel":"031-719-1588","addr":"경기도 성남시 분당구 금곡동 206번지","category":""}]},{"lat":"37.3508103","long":"127.1094367","items":[{"name":"닭이봉춘천닭갈비","tel":"031-714-9589","addr":"경기도 성남시 분당구 금곡동 158번지","category":""},{"name":"안경플러스","tel":"031-718-5232","addr":"경기도 성남시 분당구 금곡동 158번지","category":""},{"name":"웰킨 (미금)","tel":"031-719-0644","addr":"경기도 성남시 분당구 금곡동 158번지","category":""},{"name":"콩두 미금점","tel":"031-713-7705","addr":"경기도 성남시 분당구 금곡동 158번지","category":""},{"name":"태광약국","tel":"031-715-8870","addr":"경기도 성남시 분당구 금곡동 158번지","category":""}]},{"lat":"37.3510649","long":"127.1067396","items":[{"name":"머구리횟집","tel":"031-717-5404","addr":"경기도 성남시 분당구 금곡동 172번지","category":""}]},{"lat":"37.3510896","long":"127.1094596","items":[{"name":"메취랑","tel":"031-711-9598","addr":"경기도 성남시 분당구 금곡동 159번지","category":""},{"name":"보람온누리약국","tel":"031-717-8532","addr":"경기도 성남시 분당구 금곡동 159번지","category":""},{"name":"오렌즈 분당미금점","tel":"031-717-6555","addr":"경기도 성남시 분당구 금곡동 159번지","category":""},{"name":"임약국","tel":"031-716-3444","addr":"경기도 성남시 분당구 금곡동 159번지","category":""}]},{"lat":"37.3504228","long":"127.10947","items":[{"name":"미금문고","tel":"031-719-7465","addr":"경기도 성남시 분당구 금곡동 157번지","category":""},{"name":"분당베스트문구할인매장","tel":"031-718-2008","addr":"경기도 성남시 분당구 금곡동 157번지","category":""},{"name":"엄가네 막퍼주는집","tel":"","addr":"경기도 성남시 분당구 금곡동 157번지","category":""}]},{"lat":"37.3508085","long":"127.1114118","items":[{"name":"병천순대","tel":"031-712-8147","addr":"경기도 성남시 분당구 금곡동 150번지","category":""}]},{"lat":"37.3503127","long":"127.1116594","items":[{"name":"블럭제빵소 미금점","tel":"031-711-4800","addr":"경기도 성남시 분당구 금곡동 151번지","category":""},{"name":"신개념 축산","tel":"070-8864-3197","addr":"경기도 성남시 분당구 금곡동 151번지","category":""}]},{"lat":"37.3510643","long":"127.1074958","items":[{"name":"순두부와빈대떡마을","tel":"031-726-9585","addr":"경기도 성남시 분당구 금곡동 171번지","category":""},{"name":"평양찹쌀순대","tel":"031-713-0456","addr":"경기도 성남시 분당구 금곡동 171번지","category":""}]},{"lat":"37.3503142","long":"127.109989","items":[{"name":"안경마을 금곡동","tel":"031-717-9222","addr":"경기도 성남시 분당구 금곡동 155번지","category":""}]},{"lat":"37.3516155","long":"127.1056907","items":[{"name":"영진문구","tel":"031-786-0346","addr":"경기도 성남시 분당구 금곡동 208번지 삼라마이다스빌","category":""},{"name":"오늘하루","tel":"031-714-6607","addr":"경기도 성남시 분당구 금곡동 208번지 삼라마이다스빌","category":""},{"name":"제주동광농수산","tel":"031-711-2114","addr":"경기도 성남시 분당구 금곡동 208번지 삼라마이다스빌","category":""},{"name":"춘하추동","tel":"031-712-6110","addr":"경기도 성남시 분당구 금곡동 208번지 삼라마이다스빌","category":""},{"name":"플젠","tel":"031-623-8055","addr":"경기도 성남시 분당구 금곡동 208번지 삼라마이다스빌","category":""}]},{"lat":"37.3552586","long":"127.1021064","items":[{"name":"옥빛린한의원","tel":"031-717-3075","addr":"경기도 성남시 분당구 금곡동 368-10번지","category":""}]},{"lat":"37.350313","long":"127.1112982","items":[{"name":"우리 농산물","tel":"031-712-1866","addr":"경기도 성남시 분당구 금곡동 152번지","category":""},{"name":"하티벨플라워","tel":"031-713-3670","addr":"경기도 성남시 분당구 금곡동 152번지","category":""}]},{"lat":"37.3521488","long":"127.1137387","items":[{"name":"이미정헤어뱅크","tel":"031-715-4838","addr":"경기도 성남시 분당구 금곡동 133-2번지","category":""}]},{"lat":"37.3507058","long":"127.1053509","items":[{"name":"참사랑어머니회","tel":"031-726-4363","addr":"경기도 성남시 분당구 금곡동 210번지","category":""}]},{"lat":"37.3518955","long":"127.1048559","items":[{"name":"초심한우정육식당","tel":"031-726-5559","addr":"경기도 성남시 분당구 금곡동 202번지 분당하우스토리","category":""},{"name":"한살림성남용인소비자 생협 금곡매장","tel":"031-714-9830","addr":"경기도 성남시 분당구 금곡동 202번지 분당하우스토리","category":""}]}]