[{"lat":"37.655075573","long":"126.78998258","imageIndex":16,"items":[{"name":"(주)랜드마크에듀케이션","tel":"031-902-0525","addr":"경기도 고양시 일산동구 일산로","indutype":"회원제형태 - 학원","category":"study"}]},{"lat":"37.658405684","long":"126.78806917","imageIndex":16,"items":[{"name":"공감학원","tel":"031-904-4080","addr":"경기도 고양시 일산동구 일산로","indutype":"학원 - 보습학원","category":"study"},{"name":"공감학원","tel":"031-904-4080","addr":"경기도 고양시 일산동구 일산로","indutype":"학원 - 보습학원","category":"study"},{"name":"이은영 국어학원","tel":"031-901-9509","addr":"경기도 고양시 일산동구 일산로","indutype":"학원 - 보습학원","category":"study"},{"name":"한서학원","tel":"031-906-3900","addr":"경기도 고양시 일산동구 일산로","indutype":"회원제형태 - 학원","category":"study"}]},{"lat":"37.672903735","long":"126.77918611","imageIndex":16,"items":[{"name":"더웨이컴퍼니","tel":"070-7825-2611","addr":"경기도 고양시 일산동구 일산로","indutype":"회원제형태 - 학원","category":"study"}]},{"lat":"37.657045168","long":"126.78803909","imageIndex":16,"items":[{"name":"막강수학학원","tel":"031-906-7508","addr":"경기도 고양시 일산동구 일산로","indutype":"학원 - 보습학원","category":"study"}]},{"lat":"37.658161204","long":"126.78740124","imageIndex":16,"items":[{"name":"백마포티언어학학원","tel":"031-905-0595","addr":"경기도 고양시 일산동구 일산로","indutype":"학원 - 보습학원","category":"study"}]},{"lat":"37.655237603","long":"126.78990279","imageIndex":16,"items":[{"name":"보리수학교습소","tel":"070-8792-2818","addr":"경기도 고양시 일산동구 일산로","indutype":"학원 - 보습학원","category":"study"}]},{"lat":"37.657127635","long":"126.78879813","imageIndex":16,"items":[{"name":"브릭스영어학원","tel":"031-905-7336","addr":"경기도 고양시 일산동구 일산로","indutype":"회원제형태 - 학원","category":"study"},{"name":"엠펙트수학학원","tel":"031-813-1885","addr":"경기도 고양시 일산동구 일산로","indutype":"학원 - 보습학원","category":"study"},{"name":"정일품수학학원","tel":"031-904-1053","addr":"경기도 고양시 일산동구 일산로","indutype":"회원제형태 - 학원","category":"study"}]},{"lat":"37.664660562","long":"126.78434502","imageIndex":16,"items":[{"name":"세계로우리말영어교습소","tel":"031-902-0978","addr":"경기도 고양시 일산동구 일산로","indutype":"학원 - 외국어학원","category":"study"}]},{"lat":"37.654156099","long":"126.78971323","imageIndex":16,"items":[{"name":"씨아이어학원","tel":"031-902-5049","addr":"경기도 고양시 일산동구 일산로","indutype":"회원제형태 - 학원","category":"study"},{"name":"윙스 짐(GYM)","tel":"031-915-7803","addr":"경기도 고양시 일산동구 일산로","indutype":"회원제형태 - 학원","category":"study"}]},{"lat":"37.65634126","long":"126.7874065","imageIndex":16,"items":[{"name":"아트앤하트","tel":"031-903-5971","addr":"경기도 고양시 일산동구 일산로","indutype":"회원제형태 - 학원","category":"study"}]},{"lat":"37.67273986","long":"126.77829114","imageIndex":16,"items":[{"name":"원월드학원","tel":"031-915-3305","addr":"경기도 고양시 일산동구 일산로","indutype":"회원제형태 - 학원","category":"study"}]},{"lat":"37.673627886","long":"126.77623681","imageIndex":16,"items":[{"name":"이엠스터디학원","tel":"031-919-9328","addr":"경기도 고양시 일산동구 일산로","indutype":"회원제형태 - 학원","category":"study"}]},{"lat":"37.655632016","long":"126.78879109","imageIndex":16,"items":[{"name":"주식회사 남경에이엔씨","tel":"031-907-2345","addr":"경기도 고양시 일산동구 일산로","indutype":"회원제형태 - 학원","category":"study"}]},{"lat":"37.649215055","long":"126.79265085","imageIndex":16,"items":[{"name":"참조운고시원","tel":"031-901-6490","addr":"경기도 고양시 일산동구 일산로","indutype":"학원 - 독서실","category":"study"}]},{"lat":"37.673962524","long":"126.77690457","imageIndex":16,"items":[{"name":"최강수학교습소","tel":"031-925-7082","addr":"경기도 고양시 일산동구 일산로","indutype":"회원제형태 - 학원","category":"study"}]},{"lat":"37.654714143","long":"126.78940567","imageIndex":16,"items":[{"name":"최영미수학교습소","tel":"031-901-2688","addr":"경기도 고양시 일산동구 일산로","indutype":"회원제형태 - 학원","category":"study"}]},{"lat":"37.674097038","long":"126.77657544","imageIndex":16,"items":[{"name":"한웅논술학원","tel":"031-906-7959","addr":"경기도 고양시 일산동구 일산로","indutype":"학원 - 보습학원","category":"study"}]}]