[{"lat":"37.604232258","long":"127.37890192","imageIndex":4,"items":[{"name":"더그로브(The grove)","tel":"031-774-5444","addr":"경기도 양평군 서종면 도장리 236번지 1층","indutype":"일반휴게음식 - 서양음식","category":"restaurant"}]},{"lat":"37.603256604","long":"127.39357336","imageIndex":4,"items":[{"name":"도장계곡","tel":"031-774-7673","addr":"경기도 양평군 서종면 도장리 87-13번지","indutype":"일반휴게음식 - 일반한식","category":"restaurant"}]},{"lat":"37.606513026","long":"127.38964935","imageIndex":4,"items":[{"name":"두앤두갤러리카페","tel":"031-773-1050","addr":"경기도 양평군 서종면 도장리 144-23번지","indutype":"일반휴게음식 - 서양음식","category":"restaurant"}]},{"lat":"37.605925986","long":"127.37893309","imageIndex":4,"items":[{"name":"리블랑커리로스터스","tel":"070-7755-7354","addr":"경기도 양평군 서종면 도장리 246-2번지 1층","indutype":"일반휴게음식 - 일반한식","category":"restaurant"}]},{"lat":"37.603623181","long":"127.38340597","imageIndex":4,"items":[{"name":"만석골","tel":"031-774-7433","addr":"경기도 양평군 서종면 도장리 177-2번지","indutype":"일반휴게음식 - 일반한식","category":"restaurant"}]},{"lat":"37.607922538","long":"127.37723306","imageIndex":4,"items":[{"name":"몽촌","tel":"031-772-2225","addr":"경기도 양평군 서종면 도장리 268-2번지","indutype":"일반휴게음식 - 일반한식","category":"restaurant"}]},{"lat":"37.605727821","long":"127.3900643","imageIndex":4,"items":[{"name":"브리사 (BRISA)","tel":"070-7862-1697","addr":"경기도 양평군 서종면 도장리 144-2번지 1층","indutype":"일반휴게음식 - 서양음식","category":"restaurant"}]},{"lat":"37.601343884","long":"127.40772975","imageIndex":4,"items":[{"name":"송어사냥","tel":"","addr":"경기도 양평군 서종면 도장리 23-1번지","indutype":"일반휴게음식 - 일반한식","category":"restaurant"}]},{"lat":"37.602874449","long":"127.39470379","imageIndex":4,"items":[{"name":"스모커리","tel":"","addr":"경기도 양평군 서종면 도장리 89-1번지 가동 3호","indutype":"일반휴게음식 - 서양음식","category":"restaurant"},{"name":"카페에덴","tel":"031-754-5165","addr":"경기도 양평군 서종면 도장리 89-1번지","indutype":"일반휴게음식 - 서양음식","category":"restaurant"}]}]