[{"lat":"37.666517144","long":"126.94825198","items":[{"name":"(주)뉴라이프헬스케어","tel":"02-322-2228","addr":"경기도 고양시 덕양구 지축동 128-15번지","category":"용역 서비스 - 사무서비스"}]},{"lat":"37.64608158","long":"126.91564526","items":[{"name":"(주)원전","tel":"02-381-3000","addr":"경기도 고양시 덕양구 지축동","category":"학원 - 기능학원"},{"name":"(주)원전","tel":"02-381-3000","addr":"경기도 고양시 덕양구 지축동 707번지","category":""}]},{"lat":"37.647194379","long":"126.92211401","items":[{"name":"BEST테크","tel":"080-777-7227","addr":"경기도 고양시 덕양구 지축동 451-39번지","category":""},{"name":"BEST테크","tel":"080-777-7227","addr":"경기도 고양시 덕양구 지축동","category":"전기제품 - 기타전기제품"}]},{"lat":"37.67996404","long":"126.95896603","items":[{"name":"BW(비더블유)6276","tel":"070-4200-5144","addr":"경기도 고양시 덕양구 지축동 87-3번지","category":""},{"name":"BW(비더블유)6276","tel":"070-4200-5144","addr":"경기도 고양시 덕양구 지축동 87-3번지","category":"일반휴게음식 - 서양음식"},{"name":"비더블유(BW)6276브런치카페","tel":"070-4200-5144","addr":"경기도 고양시 덕양구 지축동 87-3번지","category":""},{"name":"비더블유(BW)6276브런치카페","tel":"070-4200-5144","addr":"경기도 고양시 덕양구 지축동 87-3번지","category":"일반휴게음식 - 서양음식"}]},{"lat":"37.65271525","long":"126.90728588","items":[{"name":"GS25지축명성점","tel":"","addr":"경기도 고양시 덕양구 지축동 724-28번지","category":"유통업 영리 - 편 의 점"},{"name":"이디야 고양지축점","tel":"","addr":"경기도 고양시 덕양구 지축동 724-28번지","category":"일반휴게음식 - 서양음식"},{"name":"이디야 고양지축점","tel":"","addr":"경기도 고양시 덕양구 지축동 724-28번지","category":""}]},{"lat":"37.657852515","long":"126.93597368","items":[{"name":"Garden&Green","tel":"02-355-2793","addr":"경기도 고양시 덕양구 지축동","category":"건축자재 - 인테리어전문"},{"name":"Garden&Green","tel":"02-355-2793","addr":"경기도 고양시 덕양구 지축동 219","category":""}]},{"lat":"37.664634954","long":"126.95007809","items":[{"name":"fine thank(화인뗑큐)","tel":"02-352-7823","addr":"경기도 고양시 덕양구 지축동 135-15번지","category":"숙박업 - 여관/기타숙박업"},{"name":"fine thank(화인뗑큐)","tel":"02-352-7823","addr":"경기도 고양시 덕양구 지축동 135-15번지","category":""}]},{"lat":"37.656770257","long":"126.92005245","items":[{"name":"가은플라워","tel":"02-337-5630","addr":"경기도 고양시 덕양구 지축동 580-12번지","category":""},{"name":"기주화훼","tel":"02-356-5285","addr":"경기도 고양시 덕양구 지축동 580-12번지","category":"문화.취미 - 화원"},{"name":"기주화훼","tel":"02-356-5285","addr":"경기도 고양시 덕양구 지축동 580-12번지","category":""}]},{"lat":"37.653605148","long":"126.91628239","items":[{"name":"강쥐하우스","tel":"02-381-6211","addr":"경기도 고양시 덕양구 지축동 548-1번지","category":""},{"name":"강쥐하우스","tel":"02-381-6211","addr":"경기도 고양시 덕양구 지축동","category":"문화.취미 - 애완동물"}]},{"lat":"37.648440961","long":"126.91409012","items":[{"name":"거부정","tel":"031-381-8282","addr":"경기도 고양시 덕양구 지축동 681-36번지","category":""},{"name":"거부정","tel":"031-381-8282","addr":"경기도 고양시 덕양구 지축동","category":"일반휴게음식 - 일반한식"}]},{"lat":"37.659914896","long":"126.92042294","items":[{"name":"경남식당","tel":"02-381-1845","addr":"경기도 고양시 덕양구 지축동 595-1번지","category":"일반휴게음식 - 일반한식"},{"name":"경남식당","tel":"02-381-1845","addr":"경기도 고양시 덕양구 지축동 595-1번지","category":""},{"name":"경남식당","tel":"02-381-1845","addr":"경기도 고양시 덕양구 지축동 595-1번지","category":""}]},{"lat":"37.654267993","long":"126.90022396","items":[{"name":"고양중앙로타리클럽","tel":"031-381-6573","addr":"경기도 고양시 덕양구 지축동 765-95번지","category":""},{"name":"고양중앙로타리클럽","tel":"031-381-6573","addr":"경기도 고양시 덕양구 지축동 765-95번지","category":"기타 - 비영리/비대상"},{"name":"삼화프라스틱","tel":"02-381-6646","addr":"경기도 고양시 덕양구 지축동 765-95번지","category":"기타 - 기타 전문점"},{"name":"삼화프라스틱","tel":"02-381-6646","addr":"경기도 고양시 덕양구 지축동 765-95번지","category":""}]},{"lat":"37.65263441","long":"126.90759195","items":[{"name":"고양한식부페","tel":"02-381-9100","addr":"경기도 고양시 덕양구 지축동 725-20번지","category":""},{"name":"고양한식부페","tel":"02-381-9100","addr":"경기도 고양시 덕양구 지축동 725-20번지","category":"일반휴게음식 - 일반한식"},{"name":"우리한식부페","tel":"02-371-1165","addr":"경기도 고양시 덕양구 지축동 725-20번지","category":"일반휴게음식 - 일반한식"},{"name":"우리한식부페","tel":"02-371-1165","addr":"경기도 고양시 덕양구 지축동 725-20번지","category":""}]},{"lat":"37.647297746","long":"126.91545121","items":[{"name":"광운전자전기조명설비","tel":"031-844-8504","addr":"경기도 고양시 덕양구 지축동 696-2.10/10","category":""}]},{"lat":"37.64930148","long":"126.92042335","items":[{"name":"구파발꽃플라워","tel":"02-381-0810","addr":"경기도 고양시 덕양구 지축동","category":"문화.취미 - 화원"},{"name":"구파발꽃플라워","tel":"02-381-0810","addr":"경기도 고양시 덕양구 지축동 495-7","category":""}]},{"lat":"37.659382224","long":"126.93264043","items":[{"name":"굿베드","tel":"02-543-0914","addr":"경기도 고양시 덕양구 지축동 408번지","category":""},{"name":"북한산 온천","tel":"","addr":"경기도 고양시 덕양구 지축동 408번지","category":"음료식품 - 기타음료식품"},{"name":"북한산온천","tel":"02-381-5656","addr":"경기도 고양시 덕양구 지축동 408번지","category":""},{"name":"북한산온천","tel":"02-381-5656","addr":"경기도 고양시 덕양구 지축동 408번지","category":"보건위생 - 사우나"},{"name":"빅포레스트(북한산카스테라)","tel":"02-381-9608","addr":"경기도 고양시 덕양구 지축동 408번지","category":""},{"name":"온천칼국수","tel":"02-3672-1471","addr":"경기도 고양시 덕양구 지축동 408번지","category":"일반휴게음식 - 일반한식"},{"name":"온천칼국수","tel":"02-3672-1471","addr":"경기도 고양시 덕양구 지축동 408번지","category":""},{"name":"온천칼국수","tel":"02-3672-1471","addr":"경기도 고양시 덕양구 지축동 408번지","category":"일반휴게음식 - 일반한식"}]},{"lat":"37.649135513","long":"126.91516578","items":[{"name":"그린농원","tel":"02-384-7567","addr":"경기도 고양시 덕양구 지축동 680-1","category":""}]},{"lat":"37.648130756","long":"126.92119517","items":[{"name":"그린유통","tel":"02-381-8380","addr":"경기도 고양시 덕양구 지축동 492-3번지","category":""},{"name":"그린유통","tel":"02-381-8380","addr":"경기도 고양시 덕양구 지축동","category":"문화.취미 - 화원"}]},{"lat":"37.653855102","long":"126.90202633","items":[{"name":"금잔디한식뷔페","tel":"","addr":"경기도 고양시 덕양구 지축동 765-201번지","category":""},{"name":"금잔디한식뷔페","tel":"02-1111-1111","addr":"경기도 고양시 덕양구 지축동 765-201번지","category":"일반휴게음식 - 일반한식"}]},{"lat":"37.647440843","long":"126.91403466","items":[{"name":"길성인터내셔널","tel":"031-967-6732","addr":"경기도 고양시 덕양구 지축동","category":"회원제형태 - 기타4"},{"name":"길성인터내셔널","tel":"031-967-6732","addr":"경기도 고양시 덕양구 지축동 699-22 9/5","category":""},{"name":"마리아PC존","tel":"02-722-6003","addr":"경기도 고양시 덕양구 지축동 699-22","category":""}]},{"lat":"37.653191233","long":"126.9054155","items":[{"name":"끌과대패","tel":"02-381-9090","addr":"경기도 고양시 덕양구 지축동 758-1번지","category":""},{"name":"끌과대패","tel":"02-381-9090","addr":"경기도 고양시 덕양구 지축동 758-1번지","category":"문화.취미 - 민예·공예품"},{"name":"수산나 ART FLOWER","tel":"02-371-0780","addr":"경기도 고양시 덕양구 지축동 758-1번지","category":"문화.취미 - 화원"},{"name":"수산나 ART FLOWER","tel":"02-371-0780","addr":"경기도 고양시 덕양구 지축동 758-1번지","category":""},{"name":"수산나ART FLOWER","tel":"02-371-0780","addr":"경기도 고양시 덕양구 지축동 758-1번지","category":""},{"name":"수산나ART FLOWER","tel":"02-371-0780","addr":"경기도 고양시 덕양구 지축동 758-1번지","category":"유통업 영리 - 복지매장"},{"name":"신도방수설비","tel":"02-371-0411","addr":"경기도 고양시 덕양구 지축동 758-1번지","category":""},{"name":"코리아마네킹유통","tel":"02-381-0541","addr":"경기도 고양시 덕양구 지축동 758-1번지","category":"신변잡화 - 기타잡화"},{"name":"코리아마네킹유통","tel":"02-381-0541","addr":"경기도 고양시 덕양구 지축동 758-1번지","category":""}]},{"lat":"37.662940797","long":"126.94933128","items":[{"name":"너와나가든","tel":"02-384-2726","addr":"경기도 고양시 덕양구 지축동 148번지","category":""},{"name":"너와나가든","tel":"02-384-2726","addr":"경기도 고양시 덕양구 지축동 148번지","category":"일반휴게음식 - 일반한식"}]},{"lat":"37.66371535","long":"126.94871871","items":[{"name":"너와나산장","tel":"02-386-2726","addr":"경기도 고양시 덕양구 지축동 149번지","category":""},{"name":"너와나산장","tel":"02-386-2726","addr":"경기도 고양시 덕양구 지축동 149번지","category":"일반휴게음식 - 일반한식"}]},{"lat":"37.648103977","long":"126.92155779","items":[{"name":"늘봄식물원","tel":"02-381-1588","addr":"경기도 고양시 덕양구 지축동","category":"문화.취미 - 화원"},{"name":"늘봄식물원","tel":"02-381-1588","addr":"경기도 고양시 덕양구 지축동 449-1","category":""}]},{"lat":"37.663382297","long":"126.94938763","items":[{"name":"다솔","tel":"02-357-0087","addr":"경기도 고양시 덕양구 지축동 144-2번지","category":""}]},{"lat":"37.663914134","long":"126.94997659","items":[{"name":"다솔가든","tel":"02-353-7722","addr":"경기도 고양시 덕양구 지축동 133번지","category":""},{"name":"다솔가든","tel":"02-353-7722","addr":"경기도 고양시 덕양구 지축동 133번지","category":""},{"name":"다솔가든","tel":"02-353-7722","addr":"경기도 고양시 덕양구 지축동 133번지","category":"일반휴게음식 - 일반한식"}]},{"lat":"37.663995353","long":"126.95027121","items":[{"name":"다솔신관","tel":"031-371-1177","addr":"경기도 고양시 덕양구 지축동 134번지","category":""},{"name":"다솔신관","tel":"02-371-1177","addr":"경기도 고양시 덕양구 지축동 134번지","category":"일반휴게음식 - 일반한식"},{"name":"다솔신관","tel":"02-353-7955","addr":"경기도 고양시 덕양구 지축동 134번지","category":""},{"name":"다솔신관","tel":"02-371-1177","addr":"경기도 고양시 덕양구 지축동 134번지","category":""},{"name":"참목원정육식당","tel":"02-371-1177","addr":"경기도 고양시 덕양구 지축동 134번지","category":""},{"name":"참목원정육식당","tel":"02-371-1177","addr":"경기도 고양시 덕양구 지축동 134번지","category":"음료식품 - 정육점"}]},{"lat":"37.653854127","long":"126.90089313","items":[{"name":"다인카워시","tel":"02-371-1779","addr":"경기도 고양시 덕양구 지축동 768-2번지","category":""},{"name":"다인카워시","tel":"","addr":"경기도 고양시 덕양구 지축동 768-2번지","category":"자동차정비 유지 - 세차장"},{"name":"세솔장터","tel":"031-381-3090","addr":"경기도 고양시 덕양구 지축동 768-2번지","category":""},{"name":"애니카랜드삼송점","tel":"031-906-4155","addr":"경기도 고양시 덕양구 지축동 768-2번지","category":""},{"name":"애니카랜드삼송점(Dain motors)","tel":"02-381-7155","addr":"경기도 고양시 덕양구 지축동","category":"자동차정비 유지 - 자동차정비"},{"name":"애니카랜드삼송점(Dain motors)","tel":"02-381-7155","addr":"경기도 고양시 덕양구 지축동 768-2번지","category":""}]},{"lat":"37.647354202","long":"126.9187485","items":[{"name":"대륙문화사(일신서적)","tel":"031-905-6778","addr":"경기도 고양시 덕양구 지축동 487-20번지","category":""}]},{"lat":"37.653684843","long":"126.90311444","items":[{"name":"대우철물건재","tel":"02-381-6504","addr":"경기도 고양시 덕양구 지축동 765-187번지","category":""},{"name":"대우철물건재","tel":"02-381-6504","addr":"경기도 고양시 덕양구 지축동 765-187번지","category":"건축자재 - 기타건축자재"}]},{"lat":"37.663602807","long":"126.9398106","items":[{"name":"대한불교 조계종 흥국사","tel":"02-381-7970","addr":"경기도 고양시 덕양구 지축동 203번지","category":"기타 - 비영리/대상"},{"name":"대한불교 조계종 흥국사","tel":"02-381-7970","addr":"경기도 고양시 덕양구 지축동 203번지","category":""},{"name":"대한불교조계종 흥국사","tel":"02-381-7970","addr":"경기도 고양시 덕양구 지축동 203번지","category":"기타 - 비영리/대상"}]},{"lat":"37.663184411","long":"126.95011311","items":[{"name":"더매미골","tel":"02-359-9192","addr":"경기도 고양시 덕양구 지축동 142-2번지","category":"일반휴게음식 - 일반한식"},{"name":"더매미골","tel":"02-359-9192","addr":"경기도 고양시 덕양구 지축동 142-2번지","category":""},{"name":"돈가장","tel":"02-359-9192","addr":"경기도 고양시 덕양구 지축동 142-2번지","category":""},{"name":"매미꾸미","tel":"02-359-9192","addr":"경기도 고양시 덕양구 지축동 142-2번지","category":""}]},{"lat":"37.655573594","long":"126.93691631","items":[{"name":"덕배","tel":"02-381-3301","addr":"경기도 고양시 덕양구 지축동 281-4번지","category":""},{"name":"덕배","tel":"02-381-3302","addr":"경기도 고양시 덕양구 지축동 281-4번지","category":""},{"name":"아이사구와(i sagua)","tel":"070-8880-2492","addr":"경기도 고양시 덕양구 지축동 281-4번지","category":""},{"name":"아이사구와(i sagua)","tel":"070-8880-2492","addr":"경기도 고양시 덕양구 지축동 281-4번지","category":"유통업 영리 - 기타유통업"}]},{"lat":"37.653880823","long":"126.9005078","items":[{"name":"동원감자탕","tel":"02-371-3771","addr":"경기도 고양시 덕양구 지축동 768-1번지","category":""},{"name":"동원감자탕","tel":"02-371-3771","addr":"경기도 고양시 덕양구 지축동 768-1번지","category":"일반휴게음식 - 일반한식"}]},{"lat":"37.651687415","long":"126.93175247","items":[{"name":"동원생수(현유통)","tel":"02-381-3633","addr":"경기도 고양시 덕양구 지축동 325-1번지","category":""},{"name":"동원생수(현유통)","tel":"02-381-3633","addr":"경기도 고양시 덕양구 지축동 325-1번지","category":"유통업 영리 - 기타유통업"}]},{"lat":"37.657634935","long":"126.93363935","items":[{"name":"두리산업","tel":"031-381-2715","addr":"경기도 고양시 덕양구 지축동 234-1번지","category":""},{"name":"두리산업","tel":"031-381-2715","addr":"경기도 고양시 덕양구 지축동 234-1번지","category":"주방용구 - 주방용구"}]},{"lat":"37.662246788","long":"126.94875377","items":[{"name":"둥글이네","tel":"031-386-3638","addr":"경기도 고양시 덕양구 지축동 153번지","category":""},{"name":"둥글이네","tel":"031-386-3638","addr":"경기도 고양시 덕양구 지축동 153번지","category":"음료식품 - 기타음료식품"},{"name":"둥글이네","tel":"031-386-3638","addr":"경기도 고양시 덕양구 지축동 153번지","category":"일반휴게음식 - 서양음식"},{"name":"둥글이네","tel":"031-386-3638","addr":"경기도 고양시 덕양구 지축동 153번지","category":""}]},{"lat":"37.649887031","long":"126.92030939","items":[{"name":"드림꽃농원","tel":"02-371-1808","addr":"경기도 고양시 덕양구 지축동 519-9,10,11","category":""},{"name":"드림꽃농원","tel":"02-371-1808","addr":"경기도 고양시 덕양구 지축동","category":"문화.취미 - 화원"},{"name":"푸른들농장","tel":"031-381-4229","addr":"경기도 고양시 덕양구 지축동 519-9,10,11","category":""}]},{"lat":"37.656051156","long":"126.89936025","items":[{"name":"딱지랜드(DDAKJJI)","tel":"031-730-5539","addr":"경기도 고양시 덕양구 지축동 766-25번지","category":""}]},{"lat":"37.647629935","long":"126.91388713","items":[{"name":"또와또와","tel":"02-381-4246","addr":"경기도 고양시 덕양구 지축동 699-17번지","category":""}]},{"lat":"37.651193425","long":"126.93435923","items":[{"name":"뜰","tel":"02-381-5340","addr":"경기도 고양시 덕양구 지축동 312번지","category":"문화.취미 - 화원"},{"name":"뜰","tel":"02-381-5340","addr":"경기도 고양시 덕양구 지축동 312번지","category":""}]},{"lat":"37.651081302","long":"126.91475555","items":[{"name":"라이브PR","tel":"02-381-1861","addr":"경기도 고양시 덕양구 지축동 667-7","category":""},{"name":"라이브PR","tel":"02-381-1861","addr":"경기도 고양시 덕양구 지축동","category":"용역 서비스 - 종합용역"}]},{"lat":"37.653020832","long":"126.9063676","items":[{"name":"레몬비 삼송점","tel":"02-381-1485","addr":"경기도 고양시 덕양구 지축동 724-18번지","category":"유통업 영리 - 편 의 점"},{"name":"레몬비 삼송점","tel":"02-381-1485","addr":"경기도 고양시 덕양구 지축동 724-18번지","category":""}]},{"lat":"37.653245637","long":"126.90583471","items":[{"name":"르노삼성자동차 서비스코너 삼송점","tel":"02-381-1121","addr":"경기도 고양시 덕양구 지축동 724-7번지","category":"자동차정비 유지 - 자동차정비"},{"name":"르노삼성자동차 서비스코너 삼송점","tel":"02-381-1121","addr":"경기도 고양시 덕양구 지축동 724-7번지","category":""}]},{"lat":"37.664437078","long":"126.95083758","items":[{"name":"마운틴95캠프","tel":"02-387-9533","addr":"경기도 고양시 덕양구 지축동 136번지","category":""},{"name":"마운틴95캠프","tel":"02-387-9533","addr":"경기도 고양시 덕양구 지축동 136번지","category":"숙박업 - 여관/기타숙박업"}]},{"lat":"37.65740948","long":"126.91939444","items":[{"name":"마음씨네공작소","tel":"02-381-2558","addr":"경기도 고양시 덕양구 지축동 589번지","category":"문화.취미 - 민예·공예품"},{"name":"마음씨네공작소","tel":"02-381-2558","addr":"경기도 고양시 덕양구 지축동 589번지","category":""}]},{"lat":"37.64966005","long":"126.91786204","items":[{"name":"마포산업제과기계","tel":"02-381-7336","addr":"경기도 고양시 덕양구 지축동 496-68번지","category":""}]},{"lat":"37.663490912","long":"126.95049824","items":[{"name":"매미골","tel":"02-359-5566","addr":"경기도 고양시 덕양구 지축동 143-1번지","category":""},{"name":"매미골","tel":"02-359-5566","addr":"경기도 고양시 덕양구 지축동 143-1번지","category":"일반휴게음식 - 일반한식"}]},{"lat":"37.663490826","long":"126.95030557","items":[{"name":"매미골가든","tel":"02-359-9190","addr":"경기도 고양시 덕양구 지축동 143번지","category":""}]},{"lat":"37.657052957","long":"126.94016745","items":[{"name":"명록원","tel":"","addr":"경기도 고양시 덕양구 지축동 164번지","category":"건축자재 - 인테리어전문"}]},{"lat":"37.646797477","long":"126.92142325","items":[{"name":"문성농원","tel":"02-381-2811","addr":"경기도 고양시 덕양구 지축동","category":"문화.취미 - 화원"}]},{"lat":"37.653469288","long":"126.90391931","items":[{"name":"미소식당","tel":"","addr":"경기도 고양시 덕양구 지축동 774-1번지","category":"일반휴게음식 - 일반한식"}]},{"lat":"37.651940633","long":"126.93333868","items":[{"name":"백운군장슈퍼","tel":"","addr":"경기도 고양시 덕양구 지축동 309-1번지","category":""},{"name":"백운군장슈퍼","tel":"02-0000-0000","addr":"경기도 고양시 덕양구 지축동 309-1번지","category":"유통업 영리 - 슈퍼마켓"}]},{"lat":"37.645657998","long":"126.9154758","items":[{"name":"베드로화원","tel":"02-381-8804","addr":"경기도 고양시 덕양구 지축동","category":"문화.취미 - 화원"},{"name":"베드로화원","tel":"02-381-8804","addr":"경기도 고양시 덕양구 지축동 708-3번지","category":""}]},{"lat":"37.65455457","long":"126.92105214","items":[{"name":"베스테크","tel":"","addr":"경기도 고양시 덕양구 지축동 573-10","category":""}]},{"lat":"37.658103322","long":"126.91952966","items":[{"name":"복산농원","tel":"02-354-3846","addr":"경기도 고양시 덕양구 지축동 588번지","category":"문화.취미 - 화원"},{"name":"복산농원","tel":"02-354-3846","addr":"경기도 고양시 덕양구 지축동 588번지","category":""},{"name":"서부종합자재","tel":"02-1588-1510","addr":"경기도 고양시 덕양구 지축동 588번지","category":""},{"name":"서부종합자재","tel":"02-1588-1510","addr":"경기도 고양시 덕양구 지축동 588번지","category":"건축자재 - 기타건축자재"},{"name":"수난원","tel":"02-371-2426","addr":"경기도 고양시 덕양구 지축동 588번지","category":""},{"name":"제이엔데코","tel":"","addr":"경기도 고양시 덕양구 지축동 588번지","category":""},{"name":"제이엔데코","tel":"02-1111-1111","addr":"경기도 고양시 덕양구 지축동 588번지","category":"문화.취미 - 화원"},{"name":"주식회사 서부","tel":"02-1588-1510","addr":"경기도 고양시 덕양구 지축동 588번지","category":""},{"name":"중앙화분화훼","tel":"02-381-0355","addr":"경기도 고양시 덕양구 지축동 588번지","category":""},{"name":"중앙화분화훼","tel":"02-381-0355","addr":"경기도 고양시 덕양구 지축동 588번지","category":""},{"name":"진선미난원","tel":"02-371-2888","addr":"경기도 고양시 덕양구 지축동 588번지","category":""},{"name":"진선미난원","tel":"02-371-2888","addr":"경기도 고양시 덕양구 지축동 588번지","category":"문화.취미 - 화원"}]},{"lat":"37.660076072","long":"126.91900614","items":[{"name":"부흥농원","tel":"031-381-1428","addr":"경기도 고양시 덕양구 지축동 592번지","category":""}]},{"lat":"37.663076096","long":"126.94967118","items":[{"name":"북악골가든","tel":"02-353-1160","addr":"경기도 고양시 덕양구 지축동 147번지","category":""},{"name":"카페그레이스","tel":"02-353-1160","addr":"경기도 고양시 덕양구 지축동 147번지","category":"일반휴게음식 - 일반한식"}]},{"lat":"37.666851211","long":"126.9498045","items":[{"name":"북한산 농바위 캠핑장","tel":"02-335-4300","addr":"경기도 고양시 덕양구 지축동 127-1번지","category":""},{"name":"북한산 농바위 캠핑장","tel":"02-335-4300","addr":"경기도 고양시 덕양구 지축동 127-1번지","category":"숙박업 - 여관/기타숙박업"},{"name":"북한산농바위캠핑장(매점)","tel":"02-335-4300","addr":"경기도 고양시 덕양구 지축동 127-1번지","category":"음료식품 - 기타음료식품"},{"name":"북한산농바위캠핑장(매점)","tel":"02-335-4300","addr":"경기도 고양시 덕양구 지축동 127-1번지","category":""}]},{"lat":"37.658823872","long":"126.93306027","items":[{"name":"북한산쌈밥","tel":"02-381-5524","addr":"경기도 고양시 덕양구 지축동 209번지","category":""},{"name":"북한산쌈밥","tel":"02-381-5524","addr":"경기도 고양시 덕양구 지축동 209번지","category":"일반휴게음식 - 일반한식"}]},{"lat":"37.680910334","long":"126.959725","items":[{"name":"북한산우동집","tel":"070-4413-7700","addr":"경기도 고양시 덕양구 지축동 81-11번지","category":"일반휴게음식 - 일식·회집"},{"name":"북한산우동집","tel":"070-4413-7700","addr":"경기도 고양시 덕양구 지축동 81-11번지","category":""}]},{"lat":"37.659076029","long":"126.93286738","items":[{"name":"비젠 웰빙 라이프","tel":"031-1234-5678","addr":"경기도 고양시 덕양구 지축동 207-1번지","category":""},{"name":"비젠 웰빙 라이프","tel":"031-1234-5678","addr":"경기도 고양시 덕양구 지축동 207-1번지","category":"보건위생 - 화장품"}]},{"lat":"37.659748787","long":"126.9439164","items":[{"name":"빨간다리","tel":"02-543-8578","addr":"경기도 고양시 덕양구 지축동 산27번지","category":""},{"name":"장가네쉼터","tel":"031-389-3160","addr":"경기도 고양시 덕양구 지축동 산27번지","category":""}]},{"lat":"37.659967718","long":"126.93241322","items":[{"name":"산가","tel":"02-381-4529","addr":"경기도 고양시 덕양구 지축동 809-18번지","category":""},{"name":"산가","tel":"02-381-4529","addr":"경기도 고양시 덕양구 지축동 809-18번지","category":"음료식품 - 기타음료식품"}]},{"lat":"37.65399501","long":"126.897176","items":[{"name":"삼송돈가","tel":"02-381-2598","addr":"경기도 고양시 덕양구 지축동 786-16번지","category":""}]},{"lat":"37.653774401","long":"126.90247973","items":[{"name":"삼송돈트리","tel":"02-371-1611","addr":"경기도 고양시 덕양구 지축동 765-179번지","category":""}]},{"lat":"37.65432849","long":"126.89731152","items":[{"name":"삼송요양보호사교육원","tel":"02-381-0070","addr":"경기도 고양시 덕양구 지축동 786-35번지","category":"학원 - 기능학원"},{"name":"삼송요양보호사교육원","tel":"","addr":"경기도 고양시 덕양구 지축동 786-35번지","category":""},{"name":"유한회사 서울유통","tel":"031-0-0000","addr":"경기도 고양시 덕양구 지축동 786-35번지","category":""},{"name":"유한회사 서울유통","tel":"031-000-0000","addr":"경기도 고양시 덕양구 지축동 786-35번지","category":"음료식품 - 기타음료식품"},{"name":"트리플바이크","tel":"02-371-3433","addr":"경기도 고양시 덕양구 지축동 786-35번지","category":"자동차판매 - 이륜차판매"},{"name":"트리플바이크","tel":"02-371-3433","addr":"경기도 고양시 덕양구 지축동 786-35번지","category":""}]},{"lat":"37.649130816","long":"126.92117141","items":[{"name":"삼호농원","tel":"02-381-7644","addr":"경기도 고양시 덕양구 지축동","category":"문화.취미 - 화원"},{"name":"자연조경","tel":"02-381-7422","addr":"경기도 고양시 덕양구 지축동","category":"건축자재 - 보일러·펌프·샷시"}]},{"lat":"37.65249055","long":"126.93389343","items":[{"name":"상상","tel":"031-965-0822","addr":"경기도 고양시 덕양구 지축동 309-1번지","category":"보건위생 - 화장품"}]},{"lat":"37.657935918","long":"126.94018938","items":[{"name":"서광자연생태 어린이집[아이행복]","tel":"","addr":"경기도 고양시 덕양구 지축동 165-1번지","category":"학원 - 유아원"},{"name":"효진기독문화센터","tel":"02-381-3253","addr":"경기도 고양시 덕양구 지축동 165-1번지","category":""},{"name":"효진기독문화센터","tel":"02-381-3253","addr":"경기도 고양시 덕양구 지축동 165-1번지","category":"학원 - 기타 교육기관"}]},{"lat":"37.646413318","long":"126.91348066","items":[{"name":"서산란원","tel":"02-381-0965","addr":"경기도 고양시 덕양구 지축동 705-8번지","category":""}]},{"lat":"37.654018879","long":"126.90391858","items":[{"name":"서울공조시스템","tel":"02-381-1123","addr":"경기도 고양시 덕양구 지축동 765-168번지","category":""},{"name":"서울공조시스템","tel":"02-381-1123","addr":"경기도 고양시 덕양구 지축동","category":"전기제품 - 냉열기기"}]},{"lat":"37.653747584","long":"126.90272907","items":[{"name":"서원","tel":"031-381-5955","addr":"경기도 고양시 덕양구 지축동 765-182번지","category":"일반휴게음식 - 한정식"},{"name":"서원","tel":"031-381-5955","addr":"경기도 고양시 덕양구 지축동 765-182번지","category":""}]},{"lat":"37.654906638","long":"126.8990332","items":[{"name":"소나무","tel":"031-877-6263","addr":"경기도 고양시 덕양구 지축동 766-113번지","category":""}]},{"lat":"37.655213087","long":"126.89916876","items":[{"name":"순환상사","tel":"031-381-8581","addr":"경기도 고양시 덕양구 지축동 766-91번지","category":""}]},{"lat":"37.659743554","long":"126.92019647","items":[{"name":"숲소리유치원[아이행복]","tel":"02-371-0300","addr":"경기도 고양시 덕양구 지축동 595-7번지","category":"학원 - 유치원"}]},{"lat":"37.654216443","long":"126.90314773","items":[{"name":"신성","tel":"02-715-9432","addr":"경기도 고양시 덕양구 지축동 765-104번지","category":""}]},{"lat":"37.647297291","long":"126.91483934","items":[{"name":"신화농원","tel":"02-381-9693","addr":"경기도 고양시 덕양구 지축동 698-1번지","category":""},{"name":"팔도농원","tel":"031-381-4807","addr":"경기도 고양시 덕양구 지축동 698-1번지","category":""},{"name":"팔도농원","tel":"031-381-4807","addr":"경기도 고양시 덕양구 지축동","category":"문화.취미 - 화원"}]},{"lat":"37.657130612","long":"126.92000672","items":[{"name":"신화화분","tel":"02-381-9990","addr":"경기도 고양시 덕양구 지축동 580-1","category":""},{"name":"신화화분","tel":"02-381-9990","addr":"경기도 고양시 덕양구 지축동","category":"문화.취미 - 화원"},{"name":"유진플라워","tel":"02-381-0027","addr":"경기도 고양시 덕양구 지축동 580-1","category":""},{"name":"유진플라워","tel":"02-381-0027","addr":"경기도 고양시 덕양구 지축동","category":"문화.취미 - 화원"}]},{"lat":"37.65479769","long":"126.89809278","items":[{"name":"쌍용프라자RV정비","tel":"02-381-5584","addr":"경기도 고양시 덕양구 지축동 766-171번지","category":""},{"name":"쌍용프라자RV정비","tel":"02-381-5584","addr":"경기도 고양시 덕양구 지축동 766-171번지","category":"자동차정비 유지 - 자동차정비"}]},{"lat":"37.65382746","long":"126.90131245","items":[{"name":"썬팅프라자","tel":"02-6925-1115","addr":"경기도 고양시 덕양구 지축동 768-10번지","category":"자동차정비 유지 - 자동차부품"}]},{"lat":"37.659329013","long":"126.92006094","items":[{"name":"아너스클럽","tel":"031-381-7976","addr":"경기도 고양시 덕양구 지축동","category":"레저업소 - 테니스장"},{"name":"아너스클럽","tel":"031-381-7976","addr":"경기도 고양시 덕양구 지축동 594번지, 산 137-2번지","category":""}]},{"lat":"37.655934011","long":"126.89933774","items":[{"name":"아시아시스템","tel":"02-666-9141","addr":"경기도 고양시 덕양구 지축동 766-30번지","category":"사무통신 - 컴퓨터"},{"name":"아시아시스템","tel":"02-666-9141","addr":"경기도 고양시 덕양구 지축동 766-30번지","category":""}]},{"lat":"37.654608708","long":"126.89834235","items":[{"name":"아이레스튜디오","tel":"02-711-2588","addr":"경기도 고양시 덕양구 지축동 766-157번지","category":""},{"name":"아이레스튜디오","tel":"02-711-2588","addr":"경기도 고양시 덕양구 지축동 766-157번지","category":"광학제품 - 사진관"}]},{"lat":"37.653663324","long":"126.93653271","items":[{"name":"아이사랑","tel":"","addr":"경기도 고양시 덕양구 지축동 264-3번지","category":"학원 - 기타 교육기관"}]},{"lat":"37.649856128","long":"126.91494963","items":[{"name":"알뜰의류할인매장","tel":"02-381-6491","addr":"경기도 고양시 덕양구 지축동 676-6","category":""}]},{"lat":"37.649386095","long":"126.91292186","items":[{"name":"야촌농장","tel":"031-826-8385","addr":"경기도 고양시 덕양구 지축동 638-2","category":""}]},{"lat":"37.653969731","long":"126.89914783","items":[{"name":"얼큰이네","tel":"02-352-0012","addr":"경기도 고양시 덕양구 지축동 766-4번지","category":"일반휴게음식 - 일반한식"}]},{"lat":"37.647331391","long":"126.91227847","items":[{"name":"엑센트","tel":"02-350-7962","addr":"경기도 고양시 덕양구 지축동 693-5","category":""},{"name":"엑센트","tel":"02-350-7962","addr":"경기도 고양시 덕양구 지축동","category":"신변잡화 - 신발"}]},{"lat":"37.656581891","long":"126.9212539","items":[{"name":"엔젤숲 유치원[아이행복]","tel":"02-371-0098","addr":"경기도 고양시 덕양구 지축동 418-7번지","category":"학원 - 유치원"}]},{"lat":"37.646910898","long":"126.91622218","items":[{"name":"영인그래픽","tel":"02-381-1311","addr":"경기도 고양시 덕양구 지축동 468-1번지","category":""}]},{"lat":"37.686018587","long":"126.95913251","items":[{"name":"예비군회관","tel":"070-4028-4350","addr":"경기도 고양시 덕양구 지축동 산 7-5","category":""},{"name":"예비군회관","tel":"02-386-4352","addr":"경기도 고양시 덕양구 지축동","category":"일반휴게음식 - 일반한식"},{"name":"예비군회관","tel":"070-4028-4350","addr":"경기도 고양시 덕양구 지축동","category":"일반휴게음식 - 일반한식"},{"name":"예비군회관","tel":"02-386-4352","addr":"경기도 고양시 덕양구 지축동 산7-5","category":""}]},{"lat":"37.657462577","long":"126.93166763","items":[{"name":"예원 북한산 전원주택","tel":"02-381-2377","addr":"경기도 고양시 덕양구 지축동 397-1번지","category":"건축자재 - 부동산 분양"},{"name":"예원 북한산 전원주택","tel":"02-381-2377","addr":"경기도 고양시 덕양구 지축동 397-1번지","category":""}]},{"lat":"37.662553143","long":"126.94881022","items":[{"name":"오늘농원","tel":"031-359-3344","addr":"경기도 고양시 덕양구 지축동","category":"일반휴게음식 - 일반한식"},{"name":"오늘농원","tel":"031-359-3344","addr":"경기도 고양시 덕양구 지축동 151번지","category":""}]},{"lat":"37.674907931","long":"126.95463893","items":[{"name":"오동나무집","tel":"02-353-1735","addr":"경기도 고양시 덕양구 지축동 102번지","category":""},{"name":"오동나무집","tel":"02-353-1735","addr":"경기도 고양시 덕양구 지축동 102번지","category":"일반휴게음식 - 일반한식"}]},{"lat":"37.650912102","long":"126.91745268","items":[{"name":"우성기획","tel":"031-997-1451","addr":"경기도 고양시 덕양구 지축동","category":"회원제형태 - 서적"},{"name":"우성기획","tel":"031-997-1451","addr":"경기도 고양시 덕양구 지축동 500-9","category":""}]},{"lat":"37.660914109","long":"126.91919786","items":[{"name":"울넘어상회","tel":"02-381-8051","addr":"경기도 고양시 덕양구 지축동 601번지","category":""},{"name":"청해종합건축자재","tel":"02-371-0312","addr":"경기도 고양시 덕양구 지축동","category":"건축자재 - 기타건축자재"},{"name":"청해종합건축자재","tel":"02-371-0312","addr":"경기도 고양시 덕양구 지축동 601","category":""}]},{"lat":"37.654664082","long":"126.9377557","items":[{"name":"원당감자탕","tel":"02-382-3275","addr":"경기도 고양시 덕양구 지축동 288번지","category":"일반휴게음식 - 일반한식"},{"name":"종가","tel":"02-382-3275","addr":"경기도 고양시 덕양구 지축동 288번지","category":""},{"name":"종가","tel":"02-382-3275","addr":"경기도 고양시 덕양구 지축동 288번지","category":""}]},{"lat":"37.648804047","long":"126.91774971","items":[{"name":"유림농원","tel":"02-381-6847","addr":"경기도 고양시 덕양구 지축동","category":"문화.취미 - 화원"},{"name":"유림농원","tel":"02-381-6847","addr":"경기도 고양시 덕양구 지축동 496-34,12","category":""}]},{"lat":"37.650359165","long":"126.92566869","items":[{"name":"은솔농원","tel":"031-969-5289","addr":"경기도 고양시 덕양구 지축동 442-4","category":""}]},{"lat":"37.65993651","long":"126.94102634","items":[{"name":"이마트24 지축흥국사 입구점","tel":"031-1111-1111","addr":"경기도 고양시 덕양구 지축동 178-2번지","category":"유통업 영리 - 편 의 점"}]},{"lat":"37.653246467","long":"126.91863986","items":[{"name":"이코노믹코리아","tel":"02-381-0801","addr":"경기도 고양시 덕양구 지축동 537","category":""}]},{"lat":"37.654907692","long":"126.93839009","items":[{"name":"이티엘티","tel":"02-384-4916","addr":"경기도 고양시 덕양구 지축동 802번지","category":""}]},{"lat":"37.658830609","long":"126.94556039","items":[{"name":"이티엘티","tel":"02-384-4916","addr":"경기도 고양시 덕양구 지축동 802번지","category":"일반휴게음식 - 일반한식"}]},{"lat":"37.651526928","long":"126.93460822","items":[{"name":"장어포구","tel":"02-381-1515","addr":"경기도 고양시 덕양구 지축동 313번지","category":"일반휴게음식 - 일반한식"}]},{"lat":"37.655023441","long":"126.93591956","items":[{"name":"전가네 추어탕","tel":"02-381-0117","addr":"경기도 고양시 덕양구 지축동 270-1번지","category":""},{"name":"전가네 추어탕","tel":"02-381-0117","addr":"경기도 고양시 덕양구 지축동 270-1번지","category":"일반휴게음식 - 일반한식"}]},{"lat":"37.653854869","long":"126.90175437","items":[{"name":"전주식당","tel":"02-381-8535","addr":"경기도 고양시 덕양구 지축동 765-173번지","category":"일반휴게음식 - 일반한식"}]},{"lat":"37.659274323","long":"126.9191657","items":[{"name":"제일농원","tel":"02-381-7335","addr":"경기도 고양시 덕양구 지축동 593-1","category":""},{"name":"제일농원","tel":"031-381-7335","addr":"경기도 고양시 덕양구 지축동","category":"문화.취미 - 화원"}]},{"lat":"37.653910085","long":"126.90311414","items":[{"name":"제일상회","tel":"02-381-5661","addr":"경기도 고양시 덕양구 지축동 765-186번지","category":""}]},{"lat":"37.654134982","long":"126.91394736","items":[{"name":"주식회사 핫텍코리아","tel":"031-381-0362","addr":"경기도 고양시 덕양구 지축동 612-1번지","category":""}]},{"lat":"37.652131885","long":"126.92239196","items":[{"name":"중앙헬스스포츠","tel":"02-381-1633","addr":"경기도 고양시 덕양구 지축동","category":"레져용품 - 스포츠·레져용품"},{"name":"중앙헬스스포츠","tel":"02-381-1633","addr":"경기도 고양시 덕양구 지축동 428","category":""}]},{"lat":"37.653883572","long":"126.90372611","items":[{"name":"지성청과","tel":"031-962-6241","addr":"경기도 고양시 덕양구 지축동 765-195번지","category":""}]},{"lat":"37.656436938","long":"126.92010948","items":[{"name":"지축농원","tel":"","addr":"경기도 고양시 덕양구 지축동 580-3번지","category":"문화.취미 - 화원"}]},{"lat":"37.649887591","long":"126.92111392","items":[{"name":"참좋은농장","tel":"02-371-2239","addr":"경기도 고양시 덕양구 지축동","category":"문화.취미 - 화원"},{"name":"참좋은농장","tel":"02-371-2239","addr":"경기도 고양시 덕양구 지축동 514-6","category":""}]},{"lat":"37.649166311","long":"126.9203895","items":[{"name":"청자농원","tel":"031-972-3939","addr":"경기도 고양시 덕양구 지축동 494-2번지","category":""},{"name":"청자농원","tel":"031-972-3939","addr":"경기도 고양시 덕양구 지축동","category":"문화.취미 - 화원"}]},{"lat":"37.654608582","long":"126.93519467","items":[{"name":"초가","tel":"","addr":"경기도 고양시 덕양구 지축동 255-1번지","category":""}]},{"lat":"37.656993923","long":"126.93141876","items":[{"name":"카퍼하우스","tel":"031-381-1607","addr":"경기도 고양시 덕양구 지축동 397-2번지","category":"일반휴게음식 - 칵테일바"},{"name":"카퍼하우스","tel":"031-381-1607","addr":"경기도 고양시 덕양구 지축동 397-2번지","category":""}]},{"lat":"37.652769143","long":"126.90708184","items":[{"name":"태능숯불갈비","tel":"02-381-0583","addr":"경기도 고양시 덕양구 지축동 724-27번지","category":""},{"name":"태능숯불갈비","tel":"02-381-0583","addr":"경기도 고양시 덕양구 지축동 724-27번지","category":"일반휴게음식 - 일반한식"}]},{"lat":"37.647770712","long":"126.92169413","items":[{"name":"토방란원","tel":"031-381-8787","addr":"경기도 고양시 덕양구 지축동 449-5번지","category":""},{"name":"토방란원","tel":"031-381-8787","addr":"경기도 고양시 덕양구 지축동","category":"문화.취미 - 화원"}]},{"lat":"37.662769308","long":"126.94866273","items":[{"name":"투데이스","tel":"02-359-3344","addr":"경기도 고양시 덕양구 지축동 151-1번지","category":""},{"name":"투데이스","tel":"02-359-3344","addr":"경기도 고양시 덕양구 지축동 151-1번지","category":""},{"name":"투데이스/주식회사 투데이스","tel":"02-3595-3341","addr":"경기도 고양시 덕양구 지축동 151-1번지","category":"일반휴게음식 - 일반한식"}]},{"lat":"37.648352557","long":"126.91636781","items":[{"name":"파말꽃배달","tel":"02-371-1242","addr":"경기도 고양시 덕양구 지축동 476-11번지","category":""}]},{"lat":"37.660130851","long":"126.92002605","items":[{"name":"파발한식뷔페","tel":"02-381-9266","addr":"경기도 고양시 덕양구 지축동 595번지","category":"일반휴게음식 - 일반한식"},{"name":"파발한식뷔페","tel":"02-381-9266","addr":"경기도 고양시 덕양구 지축동 595번지","category":""}]},{"lat":"37.653684958","long":"126.90325043","items":[{"name":"팔팔익스프레스","tel":"02-356-7700","addr":"경기도 고양시 덕양구 지축동 765-189번지","category":""}]},{"lat":"37.667635053","long":"126.94980394","items":[{"name":"포인트빌(POINTVILL)","tel":"","addr":"경기도 고양시 덕양구 지축동 119-2번지","category":""},{"name":"포인트빌(POINTVILL)","tel":"","addr":"경기도 고양시 덕양구 지축동 119-2번지","category":"일반휴게음식 - 일반한식"}]},{"lat":"37.657994469","long":"126.93219976","items":[{"name":"풍기의류","tel":"070-7666-9348","addr":"경기도 고양시 덕양구 지축동 809-11번지","category":""}]},{"lat":"37.653213302","long":"126.93736035","items":[{"name":"한솔천막사업","tel":"02-388-0018","addr":"경기도 고양시 덕양구 지축동","category":"직물 - 카페트,커튼,천막,지물"},{"name":"한솔천막사업","tel":"02-388-0018","addr":"경기도 고양시 덕양구 지축동 294번지","category":""}]},{"lat":"37.658435909","long":"126.93214268","items":[{"name":"한촌사랑","tel":"02-381-2551","addr":"경기도 고양시 덕양구 지축동 405-1번지","category":""},{"name":"한촌사랑","tel":"02-381-2551","addr":"경기도 고양시 덕양구 지축동 405-1번지","category":"일반휴게음식 - 스넥"}]},{"lat":"37.66027483","long":"126.91977656","items":[{"name":"항아리칼국수","tel":"031-381-9218","addr":"경기도 고양시 덕양구 지축동 597번지","category":""}]},{"lat":"37.651276526","long":"126.92322009","items":[{"name":"해늘요가단식원","tel":"031-965-6726","addr":"경기도 고양시 덕양구 지축동","category":"기타 - 기타 전문점"},{"name":"해늘요가단식원","tel":"031-965-6726","addr":"경기도 고양시 덕양구 지축동 440-52,54번지","category":""}]},{"lat":"37.652658177","long":"126.92805734","items":[{"name":"혜민O.A","tel":"031-966-9086","addr":"경기도 고양시 덕양구 지축동 산79번지","category":"사무통신 - 기타 사무용품"},{"name":"혜민O.A","tel":"031-966-9086","addr":"경기도 고양시 덕양구 지축동 산79번지","category":""}]},{"lat":"37.648386861","long":"126.91403353","items":[{"name":"호남푸드","tel":"02-371-2028","addr":"경기도 고양시 덕양구 지축동 681-33","category":""}]},{"lat":"37.649770559","long":"126.92125003","items":[{"name":"홍은플라워","tel":"02-381-3614","addr":"경기도 고양시 덕양구 지축동","category":"문화.취미 - 화원"}]},{"lat":"37.654159876","long":"126.90022411","items":[{"name":"희망슈퍼","tel":"070-7872-0126","addr":"경기도 고양시 덕양구 지축동 765-76번지","category":""},{"name":"희망슈퍼","tel":"070-7872-0126","addr":"경기도 고양시 덕양구 지축동 765-76번지","category":"유통업 영리 - 슈퍼마켓"}]}]