[{"lat":"37.165392162","long":"127.04380757","items":[{"name":"(의료)오산신경정신병원유지재단","tel":"031-373-1254","addr":"경기도 오산시 궐동 543번지","category":"병원 - 병원"},{"name":"주식회사광덕","tel":"031-370-2312","addr":"경기도 오산시 궐동 543번지","category":"음료식품 - 농·축·수산품"}]},{"lat":"37.157311685","long":"127.06085841","items":[{"name":"(주)대림이앤씨","tel":"031-372-0300","addr":"경기도 오산시 궐동 648-20번지","category":"용역 서비스 - 기타용역서비스"}]},{"lat":"37.159972133","long":"127.05580562","items":[{"name":"(주)더베스트","tel":"031-378-1555","addr":"경기도 오산시 궐동 672-4번지 1호 (1층)","category":"사무통신 - 통신기기"},{"name":"베스트폰","tel":"031-378-0916","addr":"경기도 오산시 궐동 672-4번지 1층 1호","category":"사무통신 - 통신기기"},{"name":"빌리아드당구클럽","tel":"031-572-4242","addr":"경기도 오산시 궐동 672-4번지 2층","category":"레저업소 - 당 구 장"},{"name":"크린아트세탁소","tel":"031-375-0052","addr":"경기도 오산시 궐동 672-4번지 103호","category":"수리서비스 - 세탁소"},{"name":"피자마루(궐동점)","tel":"031-372-1082","addr":"경기도 오산시 궐동 672-4번지","category":"일반휴게음식 - 서양음식"},{"name":"피자마루궐동점","tel":"031-372-1082","addr":"경기도 오산시 궐동 672-4번지","category":"일반휴게음식 - 서양음식"}]},{"lat":"37.156278922","long":"127.05333768","items":[{"name":"(주)더웨이","tel":"031-212-6348","addr":"경기도 오산시 궐동 22-1천지빌딩5층","category":"여행 - 관광여행"},{"name":"까페의영주","tel":"","addr":"경기도 오산시 궐동 702-4번지 천지빌딩 101호","category":"일반휴게음식 - 서양음식"}]},{"lat":"37.159947637","long":"127.06872973","items":[{"name":"(주)디더블유플러스","tel":"031-613-5868","addr":"경기도 오산시 궐동 27-8번지","category":"용역 서비스 - 기타용역서비스"},{"name":"주식회사 금강씨스템","tel":"031-613-5868","addr":"경기도 오산시 궐동 27-8번지","category":"용역 서비스 - 기타용역서비스"}]},{"lat":"37.156224965","long":"127.05308998","items":[{"name":"(주)봄봄뜨락","tel":"031-376-2228","addr":"경기도 오산시 궐동 703-1번지 천지빌딩 1층","category":"음료식품 - 기타음료식품"},{"name":"에이드PC방","tel":"","addr":"경기도 오산시 궐동 703-1번지 2층","category":"레저업소 - 기타레져업소"}]},{"lat":"37.156863213","long":"127.05650142","items":[{"name":"(주)삼정환경","tel":"031-378-1576","addr":"경기도 오산시 궐동 697-16번지 예나 102호","category":"용역 서비스 - 종합용역"}]},{"lat":"37.158615338","long":"127.06644325","items":[{"name":"(주)씨디타일","tel":"031-375-2929","addr":"경기도 오산시 궐동 38-3번지","category":"건축자재 - 건축용 요업제품"},{"name":"청도방앗간","tel":"031-374-7974","addr":"경기도 오산시 궐동 38-3번지","category":"음료식품 - 제과점"}]},{"lat":"37.158084338","long":"127.06528327","items":[{"name":"(주)아미타","tel":"031-377-3937","addr":"경기도 오산시 궐동 105번지","category":"음료식품 - 기타음료식품"},{"name":"궐동불한증막식당","tel":"","addr":"경기도 오산시 궐동 105번지 2층","category":"일반휴게음식 - 일반한식"},{"name":"다인","tel":"031-8050-2761","addr":"경기도 오산시 궐동 105번지 3층","category":"건축자재 - 인테리어전문"}]},{"lat":"37.156999711","long":"127.05345073","items":[{"name":"(주)엠엔에스오토 (M&S auto)","tel":"031-376-5995","addr":"경기도 오산시 궐동 686-12번지 경기빌딩 706호","category":"자동차정비 유지 - 자동차부품"}]},{"lat":"37.158470673","long":"127.06736626","items":[{"name":"(주)오산제일차번호판제작사","tel":"031-377-8810","addr":"경기도 오산시 궐동 45-1번지","category":"자동차정비 유지 - 가타자동차서비스"},{"name":"나무랑 공방","tel":"02-898-1006","addr":"경기도 오산시 궐동 45-1번지 태선태크 B동","category":"문화.취미 - 문화취미기타"},{"name":"씨크에스피에스","tel":"031-377-1508","addr":"경기도 오산시 궐동 45-1번지 1층","category":"레져용품 - 스포츠·레져용품"}]},{"lat":"37.157584683","long":"127.05508347","items":[{"name":"(주)케이할인마트","tel":"031-376-6699","addr":"경기도 오산시 궐동 693-2번지","category":"유통업 영리 - 슈퍼마켓"},{"name":"장수한우촌","tel":"031-377-1322","addr":"경기도 오산시 궐동 693-2번지 외6필지 K마트 1층","category":"일반휴게음식 - 일반한식"}]},{"lat":"37.157475456","long":"127.05752629","items":[{"name":"1989 닭날개","tel":"031-111-1111","addr":"경기도 오산시 궐동 696-1번지 주성빌딩 1층","category":"일반휴게음식 - 일반한식"},{"name":"법무사임원묵사무소","tel":"031-373-7800","addr":"경기도 오산시 궐동 696-1 2주성빌딩 201","category":"용역 서비스 - 법률회계서비스(개인)"},{"name":"보보헤어","tel":"031-378-7720","addr":"경기도 오산시 궐동 696-1번지 주성빌딩 102호","category":"보건위생 - 미용원"},{"name":"스시케이","tel":"031-373-5100","addr":"경기도 오산시 궐동 696-1번지","category":"일반휴게음식 - 일식·회집"},{"name":"시스페이스오산점","tel":"031-378-7484","addr":"경기도 오산시 궐동 696-1번지","category":"유통업 영리 - 슈퍼마켓"},{"name":"중경소면","tel":"","addr":"경기도 오산시 궐동 696-1번지 주성빌딩 1층","category":"일반휴게음식 - 일반한식"},{"name":"치킨마루궐동법원점","tel":"031-373-0804","addr":"경기도 오산시 궐동 696-1번지","category":"일반휴게음식 - 스넥"},{"name":"파리바게뜨(오산대점)","tel":"031-373-8233","addr":"경기도 오산시 궐동 696-1번지 주성빌딩 103호","category":"음료식품 - 제과점"},{"name":"폰스토어","tel":"031-377-1486","addr":"경기도 오산시 궐동 696-1번지 1층","category":"사무통신 - 통신기기"},{"name":"홍고추오리목","tel":"031-375-1129","addr":"경기도 오산시 궐동 696-1번지 1층","category":"일반휴게음식 - 중국식"}]},{"lat":"37.159558277","long":"127.05438684","items":[{"name":"24시명품국밥큰손화로구이","tel":"031-373-5592","addr":"경기도 오산시 궐동 679-2번지","category":"일반휴게음식 - 일반한식"},{"name":"토마토노래연습장","tel":"031-376-4363","addr":"경기도 오산시 궐동 679-2번지 2층","category":"레저업소 - 노 래 방"}]},{"lat":"37.159945287","long":"127.05538906","items":[{"name":"26번가커피앤포토","tel":"","addr":"경기도 오산시 궐동 672-2번지 엘림빌딩","category":"일반휴게음식 - 서양음식"},{"name":"EJ바디체인지","tel":"031-367-1922","addr":"경기도 오산시 궐동 672-2번지 엘림빌딩 5층","category":"회원제형태 - 레져업소"},{"name":"GS25궐동하이빌점","tel":"","addr":"경기도 오산시 궐동 672-2번지 엘림빌딩 102호","category":"유통업 영리 - 편 의 점"},{"name":"가마로강정(궐동지점)","tel":"031-376-7879","addr":"경기도 오산시 궐동 672-2번지 엘림빌딩 103호","category":"일반휴게음식 - 스넥"},{"name":"더힐링","tel":"031-376-6426","addr":"경기도 오산시 궐동 672-2번지 엘림빌딩 2층 201호","category":"레저업소 - 헬스클럽"},{"name":"루나헤어","tel":"031-372-4323","addr":"경기도 오산시 궐동 672-2번지 엘림빌딩 101호","category":"보건위생 - 미용원"},{"name":"즐거운 탁구교실","tel":"031-1111-1111","addr":"경기도 오산시 궐동 672-2번지 엘림빌딩 지하1층","category":"레저업소 - 기타레져업소"},{"name":"컵쿤타이","tel":"070-4806-9588","addr":"경기도 오산시 궐동 672-2번지 엘림빌딩 201호","category":"보건위생 - 화장품"}]},{"lat":"37.159557425","long":"127.05631194","items":[{"name":"292짬떡 (짬볶이)","tel":"031-374-1550","addr":"경기도 오산시 궐동 671-4번지 대성빌딩 1층","category":"일반휴게음식 - 스넥"},{"name":"돈키돈키치킨","tel":"031-376-5092","addr":"경기도 오산시 궐동 671-4번지 대성빌 1층","category":"일반휴게음식 - 일반한식"},{"name":"미스터짱닭","tel":"031-375-9969","addr":"경기도 오산시 궐동 671-4번지 1층","category":"일반휴게음식 - 스넥"}]},{"lat":"37.159332461","long":"127.05564757","items":[{"name":"292짬떡(궐동점)","tel":"031-374-1550","addr":"경기도 오산시 궐동 674-1번지 청어빌","category":"일반휴게음식 - 스넥"},{"name":"강남스타일헤어샵","tel":"031-8050-2655","addr":"경기도 오산시 궐동 674-1번지 청어빌 1층","category":"보건위생 - 미용원"},{"name":"강아지놀이터","tel":"031-372-0982","addr":"경기도 오산시 궐동 674-1번지 청어빌1층102호~103호 102호","category":"문화.취미 - 애완동물"},{"name":"푸른클리닝","tel":"","addr":"경기도 오산시 궐동 674-1번지 청어빌 1층","category":"용역 서비스 - 종합용역"}]},{"lat":"37.159838018","long":"127.05341885","items":[{"name":"2옷장","tel":"070-4211-7988","addr":"경기도 오산시 궐동 681-1번지 센트하임 1층 112호","category":"의류 - 정장"},{"name":"감초한약국","tel":"070-4849-5530","addr":"경기도 오산시 궐동 681-1번지 센트하임 114호","category":"약국 - 약국"},{"name":"공빵","tel":"031-000-0000","addr":"경기도 오산시 궐동 681-1번지 센트하임 113호","category":"음료식품 - 제과점"},{"name":"광해상회","tel":"031-372-2284","addr":"경기도 오산시 궐동 681-1번지 센트하임 137호","category":"유통업 영리 - 슈퍼마켓"},{"name":"깡에스떼","tel":"031-378-3080","addr":"경기도 오산시 궐동 681-1번지 센트하임 1층 143호","category":"보건위생 - 화장품"},{"name":"꾸망(수원센터)","tel":"031-1670-9195","addr":"경기도 오산시 궐동 681-1번지 센트하임 10층 1009호","category":"학원 - 기타 교육기관"},{"name":"달콤한 팝아트","tel":"070-5022-4846","addr":"경기도 오산시 궐동 681-1번지 센트하임 514호","category":"문화.취미 - 화랑"},{"name":"더스킨 패밀리","tel":"070-7666-8332","addr":"경기도 오산시 궐동 681-1번지 센트하임 204호","category":"보건위생 - 화장품"},{"name":"돈기부여 오산점","tel":"","addr":"경기도 오산시 궐동 681-1번지 센트하임 1층 118호","category":"일반휴게음식 - 일반한식"},{"name":"루마 인다","tel":"031-375-1107","addr":"경기도 오산시 궐동 681-1번지 111호 112","category":"의류 - 정장"},{"name":"복이네","tel":"031-377-1797","addr":"경기도 오산시 궐동 681-1번지 센트하임 1층 104호","category":"일반휴게음식 - 일반한식"},{"name":"봉이치킨궐동점","tel":"031-376-3507","addr":"경기도 오산시 궐동 681-1번지 센트하임 127호","category":"일반휴게음식 - 스넥"},{"name":"비엘전자","tel":"031-6331-5565","addr":"경기도 오산시 궐동 681-1번지 센트하임 204호","category":"전기제품 - 가전제품"},{"name":"쇼콜라떼","tel":"070-7799-0998","addr":"경기도 오산시 궐동 681-1번지 센트하임 1동 116호","category":"일반휴게음식 - 서양음식"},{"name":"스케치","tel":"031-374-7942","addr":"경기도 오산시 궐동 681-1번지 센트하임 127호","category":"의류 - 정장"},{"name":"스타일리스트케이(StylistK)","tel":"031-373-0991","addr":"경기도 오산시 궐동 681-1번지 센트하임 128호","category":"보건위생 - 미용원"},{"name":"스파이용원","tel":"031-372-4437","addr":"경기도 오산시 궐동 681-1번지 센트하임 3층","category":"보건위생 - 이용원"},{"name":"아우라제이미용실(그린나래점)","tel":"031-372-1984","addr":"경기도 오산시 궐동 681-1번지 센트하임 102,103,126호","category":"보건위생 - 미용원"},{"name":"아이린","tel":"070-4211-7988","addr":"경기도 오산시 궐동 681-1번지 센트하임 112호","category":"의류 - 정장"},{"name":"알찬만두","tel":"031-373-2518","addr":"경기도 오산시 궐동 681-1번지 센트하임제1층제129~130호,제144호~제145호","category":"일반휴게음식 - 일반한식"},{"name":"여주웰빙한식뷔페","tel":"031-378-3026","addr":"경기도 오산시 궐동 681-1번지 센트하임 1층 117호","category":"일반휴게음식 - 일반한식"},{"name":"우리농산","tel":"031-372-8748","addr":"경기도 오산시 궐동 681-1번지 센트하임 136호","category":"음료식품 - 미곡상"},{"name":"위드독","tel":"070-4048-0217","addr":"경기도 오산시 궐동 681-1번지 센트하임 114호","category":"문화.취미 - 애완동물"},{"name":"위드독","tel":"031-376-0216","addr":"경기도 오산시 궐동 681-1번지 센트하임 114호","category":"문화.취미 - 애완동물"},{"name":"위드미오산센트하임","tel":"031-378-0050","addr":"경기도 오산시 궐동 681-1번지 센트하임 1층","category":"유통업 영리 - 슈퍼마켓"},{"name":"은성유리창호공사","tel":"031-374-6604","addr":"경기도 오산시 궐동 681-1번지 센트하임 142호","category":"용역 서비스 - 기타용역서비스"},{"name":"주식회사 푸드프렌즈","tel":"031-376-4333","addr":"경기도 오산시 궐동 681-1번지 센트하임 112호","category":"음료식품 - 기타음료식품"},{"name":"하나장식총판","tel":"041-363-3977","addr":"경기도 오산시 궐동 681-1번지 센트하임 상가 117호","category":"직물 - 카페트,커튼,천막,지물"},{"name":"홍익돈까스","tel":"031-378-1832","addr":"경기도 오산시 궐동 681-1번지 센트하임 146호","category":"일반휴게음식 - 서양음식"}]},{"lat":"37.159755882","long":"127.05580547","items":[{"name":"3.4.5헤어살롱 오산궐동점","tel":"031-373-3433","addr":"경기도 오산시 궐동 673-2번지 대한빌딩 1층 102호","category":"보건위생 - 미용원"},{"name":"청춘포차","tel":"031-372-0992","addr":"경기도 오산시 궐동 673-2번지 대한빌딩 1층 101호","category":"일반휴게음식 - 일반한식"}]},{"lat":"37.159197859","long":"127.05438659","items":[{"name":"700비어","tel":"031-374-5003","addr":"경기도 오산시 궐동 679-4번지 1층 102호","category":"일반휴게음식 - 주점"},{"name":"자세마춤센터","tel":"070-4686-9412","addr":"경기도 오산시 궐동 679-4번지 웨스턴빌 2층","category":"보건위생 - 화장품"},{"name":"한상가득족발","tel":"031-372-5503","addr":"경기도 오산시 궐동 679-4번지 웨스턴빌딩 1층 101호","category":"일반휴게음식 - 일반한식"},{"name":"한상가득족발","tel":"031-372-5503","addr":"경기도 오산시 궐동 679-4번지 1층","category":"일반휴게음식 - 일반한식"}]},{"lat":"37.159998367","long":"127.05756188","items":[{"name":"7번가피자궐동점","tel":"031-376-5477","addr":"경기도 오산시 궐동 619-9번지 105호 상가","category":"일반휴게음식 - 서양음식"},{"name":"가을애뜰","tel":"031-373-5478","addr":"경기도 오산시 궐동 619-9번지 102호","category":"일반휴게음식 - 서양음식"},{"name":"송어세상","tel":"031-377-9959","addr":"경기도 오산시 궐동 619-9번지 1층 104호","category":"일반휴게음식 - 일반한식"},{"name":"스카이 (S.K.Y)","tel":"070-7590-9800","addr":"경기도 오산시 궐동 619-9번지 203호","category":"보건위생 - 화장품"},{"name":"프리틴스튜디오","tel":"031-375-0993","addr":"경기도 오산시 궐동 619-9번지 106호","category":"광학제품 - 사진관"}]},{"lat":"37.159476962","long":"127.05489339","items":[{"name":"BH.FOOD","tel":"031-378-1018","addr":"경기도 오산시 궐동 677-3번지 형제빌딩 1층","category":"일반휴게음식 - 일반한식"}]},{"lat":"37.160169731","long":"127.05720175","items":[{"name":"D.C마트","tel":"031-377-7191","addr":"경기도 오산시 궐동 619-7번지","category":"유통업 영리 - 슈퍼마켓"},{"name":"궐동보성보습학원","tel":"031-376-4606","addr":"경기도 오산시 궐동 619-7번지 3층","category":"학원 - 보습학원"}]},{"lat":"37.159776439","long":"127.06872958","items":[{"name":"DVM시스템에어컨","tel":"031-352-1673","addr":"경기도 오산시 궐동 27-12번지 상가 101호","category":"전기제품 - 냉열기기"}]},{"lat":"37.158445436","long":"127.06397767","items":[{"name":"E-Ya2 PC방","tel":"070-7624-1244","addr":"경기도 오산시 궐동 640-9번지 2층","category":"레저업소 - 기타레져업소"},{"name":"태향부","tel":"031-372-2357","addr":"경기도 오산시 궐동 640-9번지 101호","category":"일반휴게음식 - 일반한식"}]},{"lat":"37.155864369","long":"127.05350626","items":[{"name":"EG마트","tel":"031-375-5364","addr":"경기도 오산시 궐동 704-18번지 미소지움 1층","category":"유통업 영리 - 슈퍼마켓"}]},{"lat":"37.158918749","long":"127.05389106","items":[{"name":"GALLERY PC(갤러리 피시방)","tel":"031-7150-3522","addr":"경기도 오산시 궐동 682-3번지 골드뷰아파트","category":"레저업소 - 기타레져업소"},{"name":"노랑통닭(궐동세교점)","tel":"031-372-3798","addr":"경기도 오산시 궐동 682-3번지 102호전체, 103호일부","category":"일반휴게음식 - 스넥"}]},{"lat":"37.158420694","long":"127.05936198","items":[{"name":"GS25궐동구산점","tel":"02-2006-2485","addr":"경기도 오산시 궐동 654-2번지 구산빌 101호","category":"유통업 영리 - 편 의 점"},{"name":"다온향","tel":"","addr":"경기도 오산시 궐동 654-2번지 구산빌 304호","category":"신변잡화 - 기타잡화"}]},{"lat":"37.158279171","long":"127.05350787","items":[{"name":"GS25궐동대호점","tel":"","addr":"경기도 오산시 궐동 683-5번지 P&P프라자 105호","category":"유통업 영리 - 편 의 점"},{"name":"PC토랑","tel":"070-6352-0098","addr":"경기도 오산시 궐동 683-5번지 P&P프라자 2층","category":"레저업소 - 기타레져업소"},{"name":"SBS당구장","tel":"031-372-0520","addr":"경기도 오산시 궐동 683-5번지 1-301 (1동 301호 302호)","category":"레저업소 - 당 구 장"},{"name":"궐동유통","tel":"031-000-0000","addr":"경기도 오산시 궐동 683-5번지 101호,106호","category":"의류 - 내의판매"},{"name":"꽐라에프에이엠(Fam)","tel":"070-9974-5664","addr":"경기도 오산시 궐동 683-5번지 P&P프라자 108,109","category":"일반휴게음식 - 주점"},{"name":"동백연가궐동점","tel":"031-377-1991","addr":"경기도 오산시 궐동 683-5번지 P&P프라자 103호","category":"일반휴게음식 - 일반한식"},{"name":"리얼야구존 궐동점","tel":"031-374-8974","addr":"경기도 오산시 궐동 683-5번지 P&P프라자 4층 401호","category":"레저업소 - 기타레져업소"},{"name":"신품짐한뼈해장국","tel":"031-377-0033","addr":"경기도 오산시 궐동 683-5번지 P&P프라자 105,106","category":"일반휴게음식 - 일반한식"},{"name":"해두리치킨궐동점","tel":"031-663-0447","addr":"경기도 오산시 궐동 683-5번지 P&P프라자 107호","category":"일반휴게음식 - 스넥"},{"name":"화이트세탁빨래방","tel":"031-372-0151","addr":"경기도 오산시 궐동 683-5번지 P&P프라자 102호","category":"수리서비스 - 세탁소"},{"name":"환희노래연습장","tel":"031-376-7887","addr":"경기도 오산시 궐동 683-5번지 P&P프라자 3층","category":"레저업소 - 노 래 방"}]},{"lat":"37.16125247","long":"127.05385886","items":[{"name":"GS25궐동명성점","tel":"","addr":"경기도 오산시 궐동 612-4번지 세준빌딩 1층","category":"유통업 영리 - 편 의 점"}]},{"lat":"37.158085616","long":"127.06280658","items":[{"name":"GS25궐동본점","tel":"02-2006-2485","addr":"경기도 오산시 궐동 641-2번지 정빌딩 102호","category":"유통업 영리 - 편 의 점"},{"name":"Luxury pc cafe","tel":"070-5022-4846","addr":"경기도 오산시 궐동 641-2번지 3층","category":"레저업소 - 기타레져업소"},{"name":"금도끼","tel":"031-374-5243","addr":"경기도 오산시 궐동 641-2번지 정빌딩 101호","category":"신변잡화 - 귀금속"},{"name":"김밥나라(궐동1호점)","tel":"031-378-8003","addr":"경기도 오산시 궐동 641-2번지","category":"일반휴게음식 - 스넥"},{"name":"김밥나라궐동1호점","tel":"031-378-8003","addr":"경기도 오산시 궐동 641-2번지","category":"일반휴게음식 - 스넥"},{"name":"앗싸노래연습장","tel":"031-378-8005","addr":"경기도 오산시 궐동 641-2번지 정빌딩 2층","category":"레저업소 - 노 래 방"},{"name":"하나이불","tel":"031-378-8621","addr":"경기도 오산시 궐동 641-2번지 정빌딩 103호","category":"직물 - 침구·수예점"}]},{"lat":"37.160721027","long":"127.05345321","items":[{"name":"GS25궐동빌리지점","tel":"","addr":"경기도 오산시 궐동 613-5번지 1층","category":"유통업 영리 - 편 의 점"}]},{"lat":"37.158251392","long":"127.05523028","items":[{"name":"GS25궐동상미점","tel":"","addr":"경기도 오산시 궐동 676-1번지","category":"유통업 영리 - 편 의 점"}]},{"lat":"37.156278735","long":"127.05377671","items":[{"name":"GS25궐동승리점","tel":"","addr":"경기도 오산시 궐동 702-6번지","category":"유통업 영리 - 편 의 점"}]},{"lat":"37.15447612","long":"127.05498002","items":[{"name":"GS25궐동우진점","tel":"02-2006-2118","addr":"경기도 오산시 궐동 705-9번지","category":"유통업 영리 - 편 의 점"}]},{"lat":"37.156918185","long":"127.05445259","items":[{"name":"GS25궐동중앙점","tel":"","addr":"경기도 오산시 궐동 689-3번지","category":"유통업 영리 - 편 의 점"}]},{"lat":"37.157004543","long":"127.06244549","items":[{"name":"GS25오산궐동점","tel":"","addr":"경기도 오산시 궐동 646-4번지 다움빌3차 101호","category":"유통업 영리 - 편 의 점"},{"name":"곱창파이터오산점","tel":"031-111-1111","addr":"경기도 오산시 궐동 646-4번지 다움빌3차 1층동1층","category":"일반휴게음식 - 주점"},{"name":"마음을담은궐동점","tel":"031-378-0660","addr":"경기도 오산시 궐동 646-4번지 다움빌3차 103호","category":"일반휴게음식 - 일반한식"},{"name":"에이치케이푸드 (HK)","tel":"070-4922-1261","addr":"경기도 오산시 궐동 646-4번지 다움빌3차 1층","category":"일반휴게음식 - 일반한식"},{"name":"위코리아","tel":"","addr":"경기도 오산시 궐동 646-4번지 다움빌3차 504호","category":"보건위생 - 화장품"}]},{"lat":"37.159136903","long":"127.06835752","items":[{"name":"GS25오산로점","tel":"02-2006-2485","addr":"경기도 오산시 궐동 36-1번지","category":"유통업 영리 - 편 의 점"}]},{"lat":"37.159276713","long":"127.05930633","items":[{"name":"GS25오산법원점","tel":"080-555-2525","addr":"경기도 오산시 궐동 631-1번지 (631-1 코아마트)","category":"유통업 영리 - 편 의 점"},{"name":"만물열쇠","tel":"031-377-1314","addr":"경기도 오산시 궐동 631-1번지","category":"기타 - 기계공구"},{"name":"서가앤쿡(오산점)","tel":"031-375-9991","addr":"경기도 오산시 궐동 631-1번지 2층 201호","category":"일반휴게음식 - 일반한식"},{"name":"제이제이(JJ)컴퍼니","tel":"031-375-5162","addr":"경기도 오산시 궐동 631-1번지 1층 101호","category":"사무통신 - 통신기기"}]},{"lat":"37.162144514","long":"127.05383694","items":[{"name":"GS25오산타운점","tel":"02-2006-2485","addr":"경기도 오산시 궐동 611-6번지 101호 , 상가","category":"유통업 영리 - 편 의 점"},{"name":"경아두마리치킨궐동점","tel":"031-377-2201","addr":"경기도 오산시 궐동 611-6번지 에스아이프라자","category":"일반휴게음식 - 스넥"},{"name":"떡사롱","tel":"031-375-4014","addr":"경기도 오산시 궐동 611-6번지 에스아이프라자 103호","category":"일반휴게음식 - 일반한식"},{"name":"맛집가정식백반","tel":"031-378-9409","addr":"경기도 오산시 궐동 611-6번지","category":"일반휴게음식 - 일반한식"},{"name":"발리노래연습장","tel":"031-376-0234","addr":"경기도 오산시 궐동 611-6번지 601호 602호","category":"레저업소 - 노 래 방"},{"name":"발리노래연습장","tel":"031-376-0234","addr":"경기도 오산시 궐동 611-6 601호~602호","category":"레저업소 - 노 래 방"},{"name":"오산CC대대클럽","tel":"","addr":"경기도 오산시 궐동 611-6번지 201,202호","category":"레저업소 - 당 구 장"},{"name":"화성렌탈","tel":"031-374-5771","addr":"경기도 오산시 궐동 611-6번지 에스아이프라자 103호","category":"직물 - 카페트,커튼,천막,지물"}]},{"lat":"37.156949944","long":"127.06350365","items":[{"name":"GS25오산하나점","tel":"","addr":"경기도 오산시 궐동 645-1번지 102호","category":"유통업 영리 - 편 의 점"},{"name":"깨비푸드","tel":"031-376-9180","addr":"경기도 오산시 궐동 645-1번지 하나빌딩 101호","category":"일반휴게음식 - 일반한식"},{"name":"프린센스","tel":"070-4711-0902","addr":"경기도 오산시 궐동 645-1번지 하나빌딩 101호","category":"보건위생 - 화장품"}]},{"lat":"37.16011531","long":"127.05797851","items":[{"name":"IGA e-스페이스점","tel":"031-000-0000","addr":"경기도 오산시 궐동 625-13번지 e스페이스 101호","category":"유통업 영리 - 편 의 점"},{"name":"뜰안채","tel":"031-111-1111","addr":"경기도 오산시 궐동 625-13번지 e스페이스 1층 103호","category":"음료식품 - 기타음료식품"}]},{"lat":"37.159945545","long":"127.05480365","items":[{"name":"J&J당구장","tel":"031-374-3620","addr":"경기도 오산시 궐동 678-1번지 다보빌딩 2층","category":"레저업소 - 당 구 장"},{"name":"로얄스크린","tel":"031-376-5006","addr":"경기도 오산시 궐동 678-1번지 다보빌딩 3층","category":"레저업소 - 스크린골프"},{"name":"로얄스크린골프","tel":"031-376-5006","addr":"경기도 오산시 궐동 678-1번지 3층","category":"회원제형태 - 레져업소"},{"name":"벌서방부대찌개","tel":"031-374-1373","addr":"경기도 오산시 궐동 678-1번지 1층","category":"일반휴게음식 - 일반한식"}]},{"lat":"37.158141748","long":"127.05856248","items":[{"name":"JCI KOREA-오산","tel":"031-374-7740","addr":"경기도 오산시 궐동 653-5번지 태성빌딩 3층","category":"기타 - 비영리/대상"},{"name":"문영행정여행사사무소","tel":"031-376-6402","addr":"경기도 오산시 궐동 653-5번지 태성 1층 3호","category":"용역 서비스 - 법률회계서비스(개인)"},{"name":"법무사신상훈사무소","tel":"031-373-4903","addr":"경기도 오산시 궐동 653-5번지","category":"용역 서비스 - 법률회계서비스(개인)"},{"name":"오산청년회의소","tel":"031-374-7740","addr":"경기도 오산시 궐동 653-5 태성빌딩 2,3층","category":"기타 - 비영리/비대상"},{"name":"코니카코리아","tel":"031-372-2946","addr":"경기도 오산시 궐동 653-5번지 태성 103호","category":"사무통신 - 컴퓨터"}]},{"lat":"37.157666282","long":"127.05392399","items":[{"name":"K-1노래방","tel":"031-377-5499","addr":"경기도 오산시 궐동 687-2번지 드라마타워 502호","category":"레저업소 - 노 래 방"},{"name":"고추매운갈비찜","tel":"031-376-4878","addr":"경기도 오산시 궐동 687-2번지 드라마타워 상가 108호","category":"일반휴게음식 - 일반한식"},{"name":"고추장석쇠구이","tel":"031-387-1845","addr":"경기도 오산시 궐동 687-2번지 드라마타워 1층 101호","category":"일반휴게음식 - 일반한식"},{"name":"굿모닝골프아카데미","tel":"031-378-3786","addr":"경기도 오산시 궐동 687-2번지 드라마타워 9층 901호","category":"레저업소 - 골프연습장"},{"name":"다담","tel":"","addr":"경기도 오산시 궐동 687-2번지 드라마타워 104호","category":"레져용품 - 스포츠·레져용품"},{"name":"러블리노래연습장","tel":"031-377-2553","addr":"경기도 오산시 궐동 687-2번지 드라마타워 301호일부, 302,304호","category":"레저업소 - 노 래 방"},{"name":"러블리데이노래연습장","tel":"031-377-2553","addr":"경기도 오산시 궐동 687-2번지 드라마타워 3층 301호일부,303호","category":"레저업소 - 노 래 방"},{"name":"세븐일레븐오산궐동드림점","tel":"031-372-7614","addr":"경기도 오산시 궐동 687-2번지 드라마타워 102호","category":"유통업 영리 - 편 의 점"},{"name":"약손","tel":"070-8111-8829","addr":"경기도 오산시 궐동 687-2번지 드라마타워 6층 601호","category":"보건위생 - 피부미용실"},{"name":"약손","tel":"070-8111-8829","addr":"경기도 오산시 궐동 687-2번지 드라마타워 6층 601호","category":"보건위생 - 미용재료"},{"name":"이불나라","tel":"031-352-7271","addr":"경기도 오산시 궐동 687-2번지 드라마타워 105호","category":"직물 - 침구·수예점"},{"name":"제이팝7080","tel":"031-374-7098","addr":"경기도 오산시 궐동 687-2번지 드라마타워 2층,202,204호","category":"일반휴게음식 - 주점"},{"name":"칠보석","tel":"031-372-6867","addr":"경기도 오산시 궐동 687-2번지 드라마타워 601호","category":"보건위생 - 피부미용실"},{"name":"한돈식당","tel":"031-375-5825","addr":"경기도 오산시 궐동 687-2번지 드라마타워 107호","category":"일반휴게음식 - 일반한식"}]},{"lat":"37.15622438","long":"127.05445212","items":[{"name":"MIN당구클럽","tel":"031-000-0000","addr":"경기도 오산시 궐동 701-1번지 타임빌딩 201호","category":"레저업소 - 당 구 장"},{"name":"보스톤노래연습장","tel":"031-374-7158","addr":"경기도 오산시 궐동 701-1번지 타임빌딩 3층","category":"레저업소 - 노 래 방"},{"name":"보스톤노래연습장","tel":"031-374-7158","addr":"경기도 오산시 궐동 701-1번지 타임빌딩 3층","category":"레저업소 - 노 래 방"},{"name":"본초불닭발","tel":"031-376-8292","addr":"경기도 오산시 궐동 701-1번지 1층","category":"일반휴게음식 - 일반한식"},{"name":"제일유통","tel":"031-373-9327","addr":"경기도 오산시 궐동 701-1번지 타임빌딩 4층","category":"주방용구 - 주방용구"},{"name":"청파당구클럽","tel":"031-373-2313","addr":"경기도 오산시 궐동 701-1번지 타임빌딩 2층","category":"레저업소 - 당 구 장"},{"name":"카페에파스타","tel":"031-373-1981","addr":"경기도 오산시 궐동 701-1번지 타임빌딩 1층","category":"일반휴게음식 - 서양음식"}]},{"lat":"37.159553692","long":"127.06403485","items":[{"name":"NJC","tel":"031-222-6844","addr":"경기도 오산시 궐동 586-3번지","category":"신변잡화 - 기타잡화"},{"name":"미니스톱 오산신장점","tel":"031-1577-9621","addr":"경기도 오산시 궐동 586-3번지 1층","category":"유통업 영리 - 편 의 점"},{"name":"청학타일위생도기","tel":"031-375-8705","addr":"경기도 오산시 궐동 586-3번지","category":"건축자재 - 건축용 요업제품"}]},{"lat":"37.159138926","long":"127.06458615","items":[{"name":"PC119","tel":"031-372-6119","addr":"경기도 오산시 궐동 590-4번지","category":"사무통신 - 컴퓨터"},{"name":"오산점 WEPED","tel":"","addr":"경기도 오산시 궐동 590-4번지 공간스케치 101호","category":"레져용품 - 스포츠·레져용품"},{"name":"천도마라요리점","tel":"031-8043-9518","addr":"경기도 오산시 궐동 590-4번지 공간스케치 103호","category":"일반휴게음식 - 중국식"}]},{"lat":"37.161811306","long":"127.05342016","items":[{"name":"Par&bar스크린골프존","tel":"031-378-3335","addr":"경기도 오산시 궐동 613-1번지 101호","category":"회원제형태 - 레져업소"},{"name":"피비(PB)","tel":"031-378-3335","addr":"경기도 오산시 궐동 613-1번지 102호","category":"일반휴게음식 - 주점"}]},{"lat":"37.154557278","long":"127.05483373","items":[{"name":"SEVEN","tel":"031-376-3900","addr":"경기도 오산시 궐동 705-10번지 도양빌 1층","category":"사무통신 - 통신기기"}]},{"lat":"37.158196725","long":"127.05658116","items":[{"name":"Skin cafe스킨까페","tel":"031-373-4850","addr":"경기도 오산시 궐동 676-7번지 풍경채 206호","category":"보건위생 - 화장품"},{"name":"마포갈매기(오산대궐동점)","tel":"031-375-6092","addr":"경기도 오산시 궐동 676-7번지 1층","category":"일반휴게음식 - 일반한식"},{"name":"양씨네푸드","tel":"031-375-6092","addr":"경기도 오산시 궐동 676-7번지 1층","category":"일반휴게음식 - 일반한식"}]},{"lat":"37.159194693","long":"127.0612201","items":[{"name":"TG자동차서비스","tel":"031-375-6411","addr":"경기도 오산시 궐동 635-6번지","category":"자동차정비 유지 - 자동차정비"}]},{"lat":"37.155611169","long":"127.05558869","items":[{"name":"가나OA","tel":"031-373-8568","addr":"경기도 오산시 궐동 705-1번지 서울빌상가(좌)","category":"사무통신 - 컴퓨터"}]},{"lat":"37.156001931","long":"127.06713902","items":[{"name":"가나종합물류","tel":"070-7570-7449","addr":"경기도 오산시 궐동 67-4번지 안국 상가 3층","category":"보건위생 - 화장품"}]},{"lat":"37.1580579","long":"127.06414622","items":[{"name":"가남전기조명","tel":"031-378-8441","addr":"경기도 오산시 궐동 641-9번지","category":"건축자재 - 조명기구"},{"name":"광 (   )텔레콤","tel":"031-377-1113","addr":"경기도 오산시 궐동 641-9번지 109호","category":"사무통신 - 통신기기"},{"name":"꽃마을","tel":"031-378-4558","addr":"경기도 오산시 궐동 641-9번지","category":"문화.취미 - 화원"},{"name":"아이리스","tel":"070-8752-6094","addr":"경기도 오산시 궐동 641-9,10","category":"보건위생 - 화장품"}]},{"lat":"37.157671106","long":"127.06286254","items":[{"name":"가위소리","tel":"031-000-0000","addr":"경기도 오산시 궐동 643-17번지 CSliving 101호","category":"보건위생 - 미용원"},{"name":"뷰티(가위소리)","tel":"","addr":"경기도 오산시 궐동 643-17번지 CSliving 101호 일부","category":"보건위생 - 화장품"},{"name":"장금이가야","tel":"031-374-8895","addr":"경기도 오산시 궐동 643-17번지 1층","category":"일반휴게음식 - 일반한식"}]},{"lat":"37.156304964","long":"127.05561169","items":[{"name":"가장맛있는족발(궐동점)","tel":"031-378-6443","addr":"경기도 오산시 궐동 699-2번지 1층","category":"일반휴게음식 - 일반한식"},{"name":"골든벨 노래연습장","tel":"031-377-5582","addr":"경기도 오산시 궐동 699-2번지","category":"레저업소 - 노 래 방"},{"name":"골든벨노래연습장","tel":"031-377-5582","addr":"경기도 오산시 궐동 699-2번지","category":"레저업소 - 노 래 방"},{"name":"큰집멸치국수","tel":"031-378-3313","addr":"경기도 오산시 궐동 699-2번지 태상빌딩 1층","category":"일반휴게음식 - 일반한식"}]},{"lat":"37.157891543","long":"127.05392415","items":[{"name":"간사이오뎅","tel":"031-378-8688","addr":"경기도 오산시 궐동 687-1번지 대경빌딩 102호","category":"일반휴게음식 - 일반한식"},{"name":"기준O.A시스템","tel":"031-378-3215","addr":"경기도 오산시 궐동 687-1번지 대경빌딩 101호","category":"사무통신 - 사무용 OA기기"},{"name":"꽃길호프","tel":"031-375-5266","addr":"경기도 오산시 궐동 687-1번지 석상타워 1층 102호","category":"일반휴게음식 - 일반한식"},{"name":"더bar(바)","tel":"031-206-1743","addr":"경기도 오산시 궐동 687-1번지 석상타워 2층","category":"일반휴게음식 - 주점"},{"name":"돌풍당구클럽","tel":"031-372-4202","addr":"경기도 오산시 궐동 687-1번지 석상타워 501호","category":"레저업소 - 당 구 장"},{"name":"뚱보집궐동점","tel":"031-373-7543","addr":"경기도 오산시 궐동 687-1번지 103-1호","category":"일반휴게음식 - 일반한식"},{"name":"맥스피드 피시방(궐동점)","tel":"02-222-2222","addr":"경기도 오산시 궐동 687-1번지 석상타워 3층","category":"레저업소 - 기타레져업소"},{"name":"비(B)","tel":"031-373-5445","addr":"경기도 오산시 궐동 687-1번지 석상타워 2층","category":"일반휴게음식 - 일반한식"},{"name":"취하고","tel":"031-373-7543","addr":"경기도 오산시 궐동 687-1번지 석상타워 1층","category":"일반휴게음식 - 주점"},{"name":"캐슬 노래연습장","tel":"031-375-7772","addr":"경기도 오산시 궐동 687-1번지 석상타워 4층 2호","category":"레저업소 - 노 래 방"},{"name":"한우암소정육식당","tel":"070-8111-9293","addr":"경기도 오산시 궐동 687-1번지 대경빌딩 101호","category":"일반휴게음식 - 일반한식"},{"name":"한우암소정육식당","tel":"031-374-1546","addr":"경기도 오산시 궐동 687-1번지 대경빌딩 101호","category":"음료식품 - 정육점"},{"name":"힐링","tel":"031-374-1470","addr":"경기도 오산시 궐동 687-1번지 대경빌딩 502,503호","category":"레저업소 - 헬스클럽"}]},{"lat":"37.15750406","long":"127.05400269","items":[{"name":"간큰떡볶이","tel":"031-376-1150","addr":"경기도 오산시 궐동 687-9번지 1층","category":"일반휴게음식 - 스넥"}]},{"lat":"37.159557847","long":"127.05536628","items":[{"name":"간판없는집","tel":"031-000-0000","addr":"경기도 오산시 궐동 675-3번지 오산빌 1층","category":"일반휴게음식 - 일반한식"},{"name":"일미리금계찜닭오산점","tel":"031-373-7885","addr":"경기도 오산시 궐동 675-3번지 오산빌 1층","category":"일반휴게음식 - 일반한식"}]},{"lat":"37.157284266","long":"127.06164642","items":[{"name":"갈비대장","tel":"031-374-4123","addr":"경기도 오산시 궐동 648-15번지 근혜빌리지 1층","category":"일반휴게음식 - 일반한식"},{"name":"사랑방","tel":"031-373-6999","addr":"경기도 오산시 궐동 648-15번지 근혜빌리지 101호","category":"일반휴게음식 - 일반한식"},{"name":"튀김방","tel":"","addr":"경기도 오산시 궐동 648-15번지 근혜빌리지 101호","category":"일반휴게음식 - 일반한식"}]},{"lat":"37.157220372","long":"127.06327871","items":[{"name":"감동까스","tel":"070-1111-1111","addr":"경기도 오산시 궐동 644-12번지 1층","category":"일반휴게음식 - 일반한식"},{"name":"똥꼬","tel":"070-7566-5085","addr":"경기도 오산시 궐동 644-12번지 1층 102호","category":"일반휴게음식 - 일반한식"}]},{"lat":"37.156170234","long":"127.05464346","items":[{"name":"감성노래연습장","tel":"031-372-9576","addr":"경기도 오산시 궐동 701-2번지 2층","category":"레저업소 - 노 래 방"},{"name":"미니스톱오산대궐점","tel":"031-1577-9621","addr":"경기도 오산시 궐동 701-2번지 1층","category":"유통업 영리 - 편 의 점"},{"name":"카라헤어","tel":"031-378-1637","addr":"경기도 오산시 궐동 701-2번지 대궐빌딩 102호","category":"보건위생 - 미용원"}]},{"lat":"37.157080982","long":"127.05303426","items":[{"name":"강군닭발","tel":"031-8050-9678","addr":"경기도 오산시 궐동 685-4번지 1층","category":"일반휴게음식 - 일반한식"},{"name":"현대카서비스","tel":"031-372-2051","addr":"경기도 오산시 궐동 685-4번지","category":"자동차정비 유지 - 자동차정비"}]},{"lat":"37.157887748","long":"127.06208593","items":[{"name":"강남스타일","tel":"","addr":"경기도 오산시 궐동 649-10번지 영원빌딩 101호","category":"의류 - 기타의류"}]},{"lat":"37.158978481","long":"127.06114113","items":[{"name":"강릉교동짬뽕","tel":"031-377-0292","addr":"경기도 오산시 궐동 634-1번지 1층","category":"일반휴게음식 - 중국식"}]},{"lat":"37.160588729","long":"127.06625352","items":[{"name":"강원식당","tel":"031-374-9448","addr":"경기도 오산시 궐동 9-6번지 동진주택 101호","category":"일반휴게음식 - 일반한식"}]},{"lat":"37.157137279","long":"127.06708369","items":[{"name":"개미떼식당","tel":"031-376-0653","addr":"경기도 오산시 궐동 75-7번지","category":"일반휴게음식 - 일반한식"},{"name":"산골식품","tel":"031-547-3528","addr":"경기도 오산시 궐동 75-7번지 1호","category":"음료식품 - 기타음료식품"}]},{"lat":"37.163639902","long":"127.05463729","items":[{"name":"개인과외","tel":"031-000-0000","addr":"경기도 오산시 궐동 616-1번지 우남퍼스트빌 104동 101호","category":"학원 - 기타 교육기관"}]},{"lat":"37.157247769","long":"127.06255825","items":[{"name":"객잔","tel":"","addr":"경기도 오산시 궐동 644-15번지 써니빌 1층","category":"일반휴게음식 - 주점"},{"name":"러블리헤어","tel":"031-373-6655","addr":"경기도 오산시 궐동 644-15번지 써니빌","category":"보건위생 - 미용원"},{"name":"조이헤어","tel":"031-375-2630","addr":"경기도 오산시 궐동 644-15번지 써니빌","category":"보건위생 - 미용원"}]},{"lat":"37.162613057","long":"127.05383725","items":[{"name":"갤러리 커피 카리스","tel":"031-374-0878","addr":"경기도 오산시 궐동 611-4번지 102호","category":"일반휴게음식 - 서양음식"},{"name":"주식회사 굿보이24","tel":"","addr":"경기도 오산시 궐동 611-4번지 4층 401호","category":"의류 - 기타의류"}]},{"lat":"37.160360455","long":"127.05381322","items":[{"name":"건축사사무소한빛","tel":"031-378-2663","addr":"경기도 오산시 궐동 615-5번지","category":"용역 서비스 - 사무서비스"},{"name":"시원","tel":"031-376-1237","addr":"경기도 오산시 궐동 615-5번지 2층","category":"보건위생 - 화장품"},{"name":"황제닭발본점","tel":"031-000-0000","addr":"경기도 오산시 궐동 615-5번지 1층","category":"일반휴게음식 - 일반한식"},{"name":"황제오리본점","tel":"031-373-9292","addr":"경기도 오산시 궐동 615-5번지 농협 외1필지(615-5,615-6)","category":"일반휴게음식 - 일반한식"}]},{"lat":"37.160030039","long":"127.06633185","items":[{"name":"게이머즈","tel":"031-374-6878","addr":"경기도 오산시 궐동 9-9번지","category":"신변잡화 - 기타잡화"},{"name":"신도오에이프라자","tel":"031-375-2151","addr":"경기도 오산시 궐동 9-9번지","category":"사무통신 - 사무용 OA기기"},{"name":"커피콩","tel":"031-377-6861","addr":"경기도 오산시 궐동 9-9번지 1층","category":"일반휴게음식 - 서양음식"},{"name":"현대카오디오","tel":"031-375-1479","addr":"경기도 오산시 궐동 9-9번지","category":"자동차정비 유지 - 자동차부품"}]},{"lat":"37.156558366","long":"127.05305643","items":[{"name":"경기도재활용유통센터","tel":"031-373-4886","addr":"경기도 오산시 궐동 685-6번지 일품게장한정식","category":"신변잡화 - 기타잡화"},{"name":"수정자갈치꼼장어궐동점","tel":"031-377-1196","addr":"경기도 오산시 궐동 685-6번지 103호","category":"일반휴게음식 - 일반한식"},{"name":"전라도무안집","tel":"031-375-8506","addr":"경기도 오산시 궐동 685-6번지 1층","category":"일반휴게음식 - 일반한식"},{"name":"제일실사","tel":"031-372-6277","addr":"경기도 오산시 궐동 685-6번지","category":"용역 서비스 - 종합용역"},{"name":"조개창고","tel":"031-377-8281","addr":"경기도 오산시 궐동 685-6번지","category":"일반휴게음식 - 일반한식"}]},{"lat":"37.157556263","long":"127.05814552","items":[{"name":"경기열쇠","tel":"031-376-1348","addr":"경기도 오산시 궐동 657-1번지 유경빌딩 102호","category":"기타 - 기계공구"},{"name":"멜버른헤어","tel":"031-376-2842","addr":"경기도 오산시 궐동 657-1번지 유경빌딩 103호","category":"보건위생 - 미용원"},{"name":"씨유궐동행복점","tel":"031-375-5811","addr":"경기도 오산시 궐동 657-1번지 1층","category":"유통업 영리 - 편 의 점"}]},{"lat":"37.160950014","long":"127.06461013","items":[{"name":"경기종합카센타","tel":"031-373-8807","addr":"경기도 오산시 궐동 594-1번지","category":"자동차정비 유지 - 자동차정비"}]},{"lat":"37.158950125","long":"127.06377543","items":[{"name":"경성방앗간","tel":"031-373-0364","addr":"경기도 오산시 궐동 587-4번지","category":"음료식품 - 제과점"}]},{"lat":"37.157755044","long":"127.05695235","items":[{"name":"경성술집궐동점","tel":"070-4085-1202","addr":"경기도 오산시 궐동 695-2번지 1층","category":"일반휴게음식 - 주점"},{"name":"홍연화양꼬치","tel":"031-274-3560","addr":"경기도 오산시 궐동 695-2번지","category":"일반휴게음식 - 중국식"}]},{"lat":"37.160948398","long":"127.06763856","items":[{"name":"경인미용재료","tel":"031-376-0888","addr":"경기도 오산시 궐동 18-8번지 2층","category":"보건위생 - 미용재료"}]},{"lat":"37.157558301","long":"127.05358619","items":[{"name":"경일종합건재","tel":"031-375-4444","addr":"경기도 오산시 궐동 686-4","category":"건축자재 - 목재·석재·철물"}]},{"lat":"37.159251784","long":"127.05470185","items":[{"name":"계동원안동찜닭오산점","tel":"031-378-2510","addr":"경기도 오산시 궐동 677-18번지 해인빌 1층","category":"일반휴게음식 - 일반한식"},{"name":"중앙상회","tel":"031-372-8111","addr":"경기도 오산시 궐동 677-18번지","category":"일반휴게음식 - 일반한식"}]},{"lat":"37.159222251","long":"127.06013937","items":[{"name":"계림촌치킨","tel":"031-374-9297","addr":"경기도 오산시 궐동 633-12번지 1층","category":"일반휴게음식 - 스넥"},{"name":"라벨르","tel":"031-111-1111","addr":"경기도 오산시 궐동 633-12번지","category":"의류 - 정장"},{"name":"라벨르뚜","tel":"","addr":"경기도 오산시 궐동 633-12번지","category":"의류 - 정장"},{"name":"미선분식식당","tel":"031-372-8131","addr":"경기도 오산시 궐동 633-12번지 상가 1층 2호","category":"일반휴게음식 - 일반한식"}]},{"lat":"37.156977387","long":"127.06269313","items":[{"name":"고기대장","tel":"031-374-4592","addr":"경기도 오산시 궐동 646-5번지 가화 1층 102호","category":"일반휴게음식 - 일반한식"},{"name":"미니스톱 오산가화점","tel":"031-1577-9621","addr":"경기도 오산시 궐동 646-5번지","category":"유통업 영리 - 편 의 점"}]},{"lat":"37.156977119","long":"127.06322223","items":[{"name":"고기랑냉면고기떡볶이","tel":"031-376-0515","addr":"경기도 오산시 궐동 646-7번지 1층","category":"일반휴게음식 - 일반한식"},{"name":"명작노래연습장","tel":"031-373-3940","addr":"경기도 오산시 궐동 646-7번지 3층 상가","category":"레저업소 - 노 래 방"}]},{"lat":"37.157973017","long":"127.05303485","items":[{"name":"고래등","tel":"031-375-4417","addr":"경기도 오산시 궐동 685-1번지","category":"일반휴게음식 - 일반한식"}]},{"lat":"37.157389418","long":"127.06736534","items":[{"name":"고려페인트(현대상사)","tel":"031-377-2023","addr":"경기도 오산시 궐동 76-4번지","category":"건축자재 - 페인트"},{"name":"별이","tel":"031-374-2081","addr":"경기도 오산시 궐동 76-4번지","category":"일반휴게음식 - 일반한식"}]},{"lat":"37.15728416","long":"127.06186031","items":[{"name":"고봉","tel":"031-375-4252","addr":"경기도 오산시 궐동 648-14번지","category":"일반휴게음식 - 일반한식"},{"name":"구구왕오산점","tel":"031-377-9119","addr":"경기도 오산시 궐동 648-14번지 정도3차좌측 상가","category":"일반휴게음식 - 중국식"},{"name":"도련님미니양꼬치","tel":"031-377-9119","addr":"경기도 오산시 궐동 648-14번지 1층","category":"일반휴게음식 - 일반한식"}]},{"lat":"37.158251649","long":"127.05464488","items":[{"name":"고엔","tel":"031-245-8958","addr":"경기도 오산시 궐동 680-2번지 1층","category":"일반휴게음식 - 주점"},{"name":"먹고보자무한리필","tel":"070-7765-1133","addr":"경기도 오산시 궐동 680-2번지 타워빌딩 1층","category":"일반휴게음식 - 일반한식"}]},{"lat":"37.157331593","long":"127.05686199","items":[{"name":"고향반찬","tel":"070-8621-7188","addr":"경기도 오산시 궐동 697-21번지 대궁빌 1층 101호","category":"음료식품 - 기타음료식품"}]},{"lat":"37.158339465","long":"127.05964336","items":[{"name":"고향영양탕","tel":"031-378-0722","addr":"경기도 오산시 궐동 655-1번지 1층","category":"일반휴게음식 - 일반한식"},{"name":"너구리순대국","tel":"031-375-4656","addr":"경기도 오산시 궐동 655-1번지 1층 101호","category":"일반휴게음식 - 일반한식"},{"name":"쌈바리하우스","tel":"031-378-9220","addr":"경기도 오산시 궐동 655-1번지 1층 101호","category":"일반휴게음식 - 일반한식"}]},{"lat":"37.159693296","long":"127.05470215","items":[{"name":"고향집손칼국수","tel":"031-377-5549","addr":"경기도 오산시 궐동 677-1번지 상경빌딩 1층","category":"일반휴게음식 - 일반한식"},{"name":"오산양꼬치","tel":"","addr":"경기도 오산시 궐동 677-1번지 상경빌딩 101호","category":"일반휴게음식 - 중국식"}]},{"lat":"37.157942604","long":"127.06047613","items":[{"name":"골목대장","tel":"031-375-6037","addr":"경기도 오산시 궐동 649-1번지 꿈이룸 상가 1층","category":"일반휴게음식 - 일반한식"},{"name":"주막골","tel":"","addr":"경기도 오산시 궐동 649-1번지 1층","category":"일반휴게음식 - 일반한식"}]},{"lat":"37.161525977","long":"127.06595033","items":[{"name":"골프존파크 궐동한흥","tel":"031-375-2207","addr":"경기도 오산시 궐동 6-17번지","category":"레져용품 - 골프용품 전문점"},{"name":"낙원갈비집","tel":"031-373-1121","addr":"경기도 오산시 궐동 6-17번지 1층 일부","category":"일반휴게음식 - 일반한식"},{"name":"어랑","tel":"031-372-2865","addr":"경기도 오산시 궐동 6-17번지 1층","category":"일반휴게음식 - 일반한식"}]},{"lat":"37.15825154","long":"127.05489255","items":[{"name":"곱창고","tel":"031-377-2022","addr":"경기도 오산시 궐동 680-3번지 1층","category":"일반휴게음식 - 일반한식"},{"name":"궁","tel":"","addr":"경기도 오산시 궐동 680-3번지 정선빌딩 301호","category":"보건위생 - 화장품"},{"name":"꼬꼬방집으로삼겹오산점","tel":"031-378-9964","addr":"경기도 오산시 궐동 680-3번지 정선빌딩 201호","category":"일반휴게음식 - 일반한식"},{"name":"나나펫","tel":"031-377-0098","addr":"경기도 오산시 궐동 680-3번지 정선빌딩 102호","category":"문화.취미 - 애완동물"},{"name":"모비딕호프","tel":"031-372-7357","addr":"경기도 오산시 궐동 680-3번지 정선빌딩 2층 202호","category":"일반휴게음식 - 칵테일바"},{"name":"솔로몬대박당구","tel":"031-000-0000","addr":"경기도 오산시 궐동 680-3번지 정선빌딩 4층","category":"레저업소 - 당 구 장"},{"name":"우리집공인중개사사무소","tel":"031-374-8942","addr":"경기도 오산시 궐동 680-3번지 정선빌딩 102호","category":"용역 서비스 - 부동산 중개·임대"},{"name":"차이나향기","tel":"031-378-5789","addr":"경기도 오산시 궐동 680-3번지 정선빌딩 1층 102호","category":"일반휴게음식 - 중국식"},{"name":"티샷궐동점","tel":"031-372-7307","addr":"경기도 오산시 궐동 680-3번지 정선빌딩 2층","category":"일반휴게음식 - 주점"}]},{"lat":"37.159700059","long":"127.05961061","items":[{"name":"공블리카페","tel":"","addr":"경기도 오산시 궐동 630-8번지 1층","category":"일반휴게음식 - 서양음식"}]},{"lat":"37.15761468","long":"127.06736554","items":[{"name":"광성종합상사","tel":"031-377-2702","addr":"경기도 오산시 궐동 76-1","category":"기타 - 기타 전문점"}]},{"lat":"37.158976925","long":"127.06422577","items":[{"name":"구구닭발 (오산점)","tel":"031-378-9945","addr":"경기도 오산시 궐동 586-12번지 102호","category":"일반휴게음식 - 일반한식"},{"name":"구구닭발(오산점)","tel":"031-378-9945","addr":"경기도 오산시 궐동 586-12번지 102호","category":"일반휴게음식 - 일반한식"},{"name":"더샵","tel":"031-377-7764","addr":"경기도 오산시 궐동 586-12번지","category":"보건위생 - 화장품"},{"name":"해피컴퓨터","tel":"031-372-7175","addr":"경기도 오산시 궐동 586-12번지 상가 1층 2호","category":"사무통신 - 컴퓨터"}]},{"lat":"37.156026306","long":"127.05409175","items":[{"name":"구들장삼겹살","tel":"031-373-6478","addr":"경기도 오산시 궐동 704-4번지","category":"일반휴게음식 - 일반한식"}]},{"lat":"37.157917031","long":"127.05739152","items":[{"name":"구들짱황소곱창","tel":"031-374-5383","addr":"경기도 오산시 궐동 665-4번지 1층","category":"일반휴게음식 - 일반한식"}]},{"lat":"37.160809943","long":"127.05616646","items":[{"name":"국수나무 궐동점","tel":"031-373-2028","addr":"경기도 오산시 궐동 618-7번지","category":"일반휴게음식 - 스넥"},{"name":"국수나무궐동점","tel":"031-373-2028","addr":"경기도 오산시 궐동 618-7번지 부자빌딩 101호","category":"일반휴게음식 - 일반한식"},{"name":"비전학원","tel":"070-4222-3737","addr":"경기도 오산시 궐동 618-7번지 부자빌딩 4층","category":"학원 - 보습학원"},{"name":"씨저스헤어","tel":"031-375-1884","addr":"경기도 오산시 궐동 618-7번지 부자빌딩 101호","category":"보건위생 - 미용원"},{"name":"하울음악학원","tel":"031-377-7969","addr":"경기도 오산시 궐동 618-7번지 3층","category":"학원 - 예·체능계학원"}]},{"lat":"37.161811128","long":"127.05383671","items":[{"name":"굽네치킨 세교1호점","tel":"031-375-6969","addr":"경기도 오산시 궐동 612-1번지 대유프라자 1층 107호","category":"일반휴게음식 - 스넥"},{"name":"궐동면옥","tel":"031-477-3273","addr":"경기도 오산시 궐동 612-1번지 대유프라자 105호","category":"일반휴게음식 - 일반한식"},{"name":"글로리헬스","tel":"031-377-1273","addr":"경기도 오산시 궐동 612-1번지 대유프라자 3층","category":"레저업소 - 헬스클럽"},{"name":"리플레이 당구장","tel":"031-663-0447","addr":"경기도 오산시 궐동 612-1번지 대유프라자 6층","category":"레저업소 - 당 구 장"},{"name":"리플레이당구장","tel":"031-374-3969","addr":"경기도 오산시 궐동 612-1번지 대유프라자 6층","category":"레저업소 - 당 구 장"},{"name":"맥스피드PC(피씨)방 궐동2호점","tel":"02-222-2222","addr":"경기도 오산시 궐동 612-1번지 대유프라자 2층 201호","category":"레저업소 - 기타레져업소"},{"name":"명품","tel":"031-372-6988","addr":"경기도 오산시 궐동 612-1번지 대유프라자 403호","category":"보건위생 - 화장품"},{"name":"쎄븐포차","tel":"031-372-1630","addr":"경기도 오산시 궐동 612-1번지 대유프라자 104호","category":"일반휴게음식 - 주점"},{"name":"큐노래연습장","tel":"031-376-5544","addr":"경기도 오산시 궐동 612-1번지 대유프라자 401,402호","category":"레저업소 - 노 래 방"}]},{"lat":"37.15802916","long":"127.06736589","items":[{"name":"굽네치킨 오산신장점","tel":"031-423-0919","addr":"경기도 오산시 궐동 45-2번지","category":"일반휴게음식 - 스넥"},{"name":"굽네치킨 오산신장점","tel":"031-372-3006","addr":"경기도 오산시 궐동 45-2번지 1층","category":"일반휴게음식 - 스넥"},{"name":"백승아헤어샵","tel":"","addr":"경기도 오산시 궐동 45-2번지 1층","category":"보건위생 - 미용원"},{"name":"술쟁이","tel":"031-1111-1111","addr":"경기도 오산시 궐동 45-2번지 1층 1호","category":"일반휴게음식 - 일반한식"},{"name":"예림꽃화원","tel":"031-373-9584","addr":"경기도 오산시 궐동 45-2번지","category":"문화.취미 - 화원"},{"name":"오산태권도체육관","tel":"031-374-8390","addr":"경기도 오산시 궐동 45-2번지 202호","category":"회원제형태 - 학원"},{"name":"용인대오산체육관","tel":"031-375-7572","addr":"경기도 오산시 궐동 45-2번지","category":"학원 - 예·체능계학원"},{"name":"천지","tel":"031-373-2698","addr":"경기도 오산시 궐동 45-2번지","category":"보건위생 - 피부미용실"},{"name":"천지","tel":"031-373-2698","addr":"경기도 오산시 궐동 45-2번지","category":"보건위생 - 피부미용실"}]},{"lat":"37.158142534","long":"127.05686257","items":[{"name":"굿마트 궐동점","tel":"031-374-0555","addr":"경기도 오산시 궐동 665-1상가(1층3칸)","category":"유통업 영리 - 편 의 점"},{"name":"세븐일레븐오산궐동중앙점","tel":"","addr":"경기도 오산시 궐동 665-1 상가(1층3칸)","category":"유통업 영리 - 편 의 점"}]},{"lat":"37.158830943","long":"127.06763676","items":[{"name":"굿비트","tel":"070-8658-9238","addr":"경기도 오산시 궐동 36-14번지 지하","category":"전기제품 - 가전제품"}]},{"lat":"37.158248877","long":"127.06064523","items":[{"name":"궁노래연습장","tel":"031-378-3314","addr":"경기도 오산시 궐동 651-3번지 전제 2층","category":"레저업소 - 노 래 방"},{"name":"오산궐동점 새마을식당","tel":"031-372-9252","addr":"경기도 오산시 궐동 651-3번지 골드캐슬 1층","category":"일반휴게음식 - 일반한식"},{"name":"오산궐동점새마을식당","tel":"031-372-9252","addr":"경기도 오산시 궐동 651-3번지 1층","category":"일반휴게음식 - 일반한식"}]},{"lat":"37.156530627","long":"127.05469999","items":[{"name":"권순화족발보쌈","tel":"031-374-5225","addr":"경기도 오산시 궐동 689-6번지 플로렌스빌딩 1층","category":"일반휴게음식 - 일반한식"},{"name":"김밥나라 신궐동점","tel":"031-375-5666","addr":"경기도 오산시 궐동 689-6번지 플로렌스빌딩 1층","category":"일반휴게음식 - 스넥"},{"name":"생생쪽갈비","tel":"031-377-1270","addr":"경기도 오산시 궐동 689-6번지","category":"일반휴게음식 - 일반한식"},{"name":"센스PC방","tel":"031-111-1111","addr":"경기도 오산시 궐동 689-6번지 플로렌스빌딩 3층","category":"레저업소 - 기타레져업소"},{"name":"약손","tel":"031-374-9688","addr":"경기도 오산시 궐동 689-6번지","category":"보건위생 - 화장품"},{"name":"킹스타노래연습장","tel":"031-375-3605","addr":"경기도 오산시 궐동 689-6번지 2층","category":"레저업소 - 노 래 방"}]},{"lat":"37.163667352","long":"127.05366908","items":[{"name":"궐동 스크린골프존","tel":"031-376-8207","addr":"경기도 오산시 궐동 608-5번지 영문프라자 701,702호","category":"회원제형태 - 레져업소"},{"name":"수라간","tel":"031-377-2829","addr":"경기도 오산시 궐동 608-5번지 106호","category":"일반휴게음식 - 일반한식"},{"name":"잎새한정식백반","tel":"031-372-4288","addr":"경기도 오산시 궐동 608-5번지","category":"일반휴게음식 - 일반한식"},{"name":"주식회사 이지팜","tel":"031-376-2058","addr":"경기도 오산시 궐동 608-5번지 명문프라자 102동 104호","category":"약국 - 제약회사"},{"name":"투엔에스 테크놀러지","tel":"","addr":"경기도 오산시 궐동 608-5번지 명문프라자 303호","category":"기타 - 기계공구"}]},{"lat":"37.15611533","long":"127.05653466","items":[{"name":"궐동 중국식품","tel":"031-376-1098","addr":"경기도 오산시 궐동 698-5번지 우성프라자 102호","category":"음료식품 - 기타음료식품"},{"name":"맛있는밥상","tel":"031-376-5370","addr":"경기도 오산시 궐동 698-5번지 우성프라자 201호 퀄동","category":"일반휴게음식 - 일반한식"},{"name":"진달래반점양꼬치","tel":"031-374-9996","addr":"경기도 오산시 궐동 698-5번지 1층,2층,101호","category":"일반휴게음식 - 중국식"}]},{"lat":"37.159782282","long":"127.05720147","items":[{"name":"궐동국가대표용인대태권도","tel":"031-373-1516","addr":"경기도 오산시 궐동 670-7번지 4층","category":"학원 - 예·체능계학원"},{"name":"꾼들의꼬마김밥","tel":"031-372-5317","addr":"경기도 오산시 궐동 670-7번지 창용빌딩 1층","category":"일반휴게음식 - 일반한식"},{"name":"아따헤어","tel":"031-376-1432","addr":"경기도 오산시 궐동 670-7번지 창용빌딩 101호","category":"보건위생 - 미용원"},{"name":"청년피자 오산점","tel":"031-375-7226","addr":"경기도 오산시 궐동 670-7번지 창용빌딩 104호","category":"일반휴게음식 - 서양음식"}]},{"lat":"37.15808549","long":"127.06305425","items":[{"name":"궐동열쇠","tel":"031-373-9240","addr":"경기도 오산시 궐동 641-3번지 삼원빌딩 402호","category":"수리서비스 - 기타수리서비스"},{"name":"글로버 피씨랩 궐동점","tel":"070-5553-3484","addr":"경기도 오산시 궐동 641-3번지 삼원빌딩 2층 201호","category":"수리서비스 - 사무·통신기기수리"},{"name":"예감쪽갈비","tel":"031-375-4668","addr":"경기도 오산시 궐동 641-3번지","category":"일반휴게음식 - 일반한식"}]},{"lat":"37.157446359","long":"127.06183792","items":[{"name":"궐동열쇠장식","tel":"","addr":"경기도 오산시 궐동 648-9번지 신도빌2차 1층","category":"건축자재 - 목재·석재·철물"}]},{"lat":"37.158808207","long":"127.05922718","items":[{"name":"궐동점핑다이어트","tel":"031-223-5214","addr":"경기도 오산시 궐동 652-2번지 구꿈 2층 1호","category":"건강식품 - 기타건강식품"},{"name":"뚜레쥬르 오산법원점","tel":"031-372-8997","addr":"경기도 오산시 궐동 652-2번지 1층","category":"음료식품 - 제과점"},{"name":"못된송아지","tel":"031-375-7890","addr":"경기도 오산시 궐동 652-2번지 1층","category":"일반휴게음식 - 일반한식"}]},{"lat":"37.160084324","long":"127.06591536","items":[{"name":"궐동한우촌","tel":"031-375-9294","addr":"경기도 오산시 궐동 13-3번지","category":"음료식품 - 정육점"},{"name":"독궐당구장","tel":"","addr":"경기도 오산시 궐동 13-3번지 2층","category":"레저업소 - 당 구 장"},{"name":"세광라이뮤","tel":"031-378-1655","addr":"경기도 오산시 궐동 13-3번지 승진빌딩 102호","category":"가구 - 기타가구"},{"name":"주식회사천우산업","tel":"031-375-3258","addr":"경기도 오산시 궐동 13-3번지 10호","category":"건축자재 - 인테리어전문"},{"name":"한우촌마트","tel":"031-375-9294","addr":"경기도 오산시 궐동 13-3번지","category":"유통업 영리 - 슈퍼마켓"},{"name":"흠뢰공사","tel":"031-373-4933","addr":"경기도 오산시 궐동 13-3번지","category":"용역 서비스 - 기타용역서비스"}]},{"lat":"37.164172019","long":"127.05347802","items":[{"name":"궐동흑마늘해신탕","tel":"031-374-4773","addr":"경기도 오산시 궐동 489-5번지 1층","category":"일반휴게음식 - 일반한식"},{"name":"배짱이노래연습장","tel":"031-374-1188","addr":"경기도 오산시 궐동 489-5번지 2층","category":"레저업소 - 노 래 방"},{"name":"베짱이노래연습장","tel":"031-372-8911","addr":"경기도 오산시 궐동 489-5번지","category":"레저업소 - 노 래 방"},{"name":"황금반점","tel":"031-375-1132","addr":"경기도 오산시 궐동 489-5번지 1층","category":"일반휴게음식 - 중국식"}]},{"lat":"37.155367716","long":"127.05597127","items":[{"name":"그레이스헤어","tel":"031-376-6212","addr":"경기도 오산시 궐동 700-3번지 1층","category":"보건위생 - 미용원"},{"name":"김밥천국궐동점","tel":"031-376-9004","addr":"경기도 오산시 궐동 700-3번지 오페라미용실 102호","category":"일반휴게음식 - 일반한식"},{"name":"컴퓨터수리전문점","tel":"031-372-8221","addr":"경기도 오산시 궐동 700-3번지 오페라미용실 101호","category":"사무통신 - 컴퓨터"}]},{"lat":"37.158889382","long":"127.05905837","items":[{"name":"그린세무법인 오산지점","tel":"031-372-6333","addr":"경기도 오산시 궐동 652-1번지","category":"용역 서비스 - 법률회계서비스(법인)"},{"name":"법무사양동규사무소","tel":"031-375-7700","addr":"경기도 오산시 궐동 652-1번지","category":"용역 서비스 - 법률회계서비스(개인)"}]},{"lat":"37.163586436","long":"127.05325246","items":[{"name":"그린스포츠","tel":"031-378-0447","addr":"경기도 오산시 궐동 608-4번지 아이원빌딩 701호","category":"레져용품 - 스포츠·레져용품"},{"name":"빌라엠리빙텔","tel":"031-377-2002","addr":"경기도 오산시 궐동 608-4번지 아이원빌딩 301호","category":"학원 - 독서실"},{"name":"빌라엠리빙텔","tel":"031-377-2002","addr":"경기도 오산시 궐동 608-4번지 아이원빌딩 3층","category":"학원 - 독서실"},{"name":"엔엠디테크","tel":"031-377-0092","addr":"경기도 오산시 궐동 608-4번지 아이원빌딩 1층 106호","category":"전기제품 - 기타전기제품"},{"name":"클린홍인","tel":"031-373-6921","addr":"경기도 오산시 궐동 608-4번지 아이원빌딩 104호","category":"용역 서비스 - 종합용역"}]},{"lat":"37.162774592","long":"127.05533472","items":[{"name":"그림이야기미술교습소","tel":"031-372-7004","addr":"경기도 오산시 궐동 616-1번지 우남퍼스트빌제상가비동제3층302호","category":"학원 - 예·체능계학원"},{"name":"대박축산","tel":"031-373-8281","addr":"경기도 오산시 궐동 616-1번지 우남퍼스트빌 상가 104호","category":"음료식품 - 정육점"},{"name":"대호수학교습소","tel":"031-376-0366","addr":"경기도 오산시 궐동 616-1번지 우남퍼스트빌 상가B동 2층 204호","category":"학원 - 보습학원"},{"name":"매일만나반찬가게","tel":"031-372-2266","addr":"경기도 오산시 궐동 616-1번지 우남퍼스트빌 제상가 B동 1층 106호","category":"음료식품 - 기타음료식품"},{"name":"머리하기좋은날","tel":"031-374-3773","addr":"경기도 오산시 궐동 616-1번지 우남퍼스트빌 에이상가202호","category":"보건위생 - 미용원"},{"name":"소리엘피아노","tel":"031-377-0314","addr":"경기도 오산시 궐동 616-1번지 우남퍼스트빌제상가 A동 203호","category":"학원 - 예·체능계학원"},{"name":"우남꿈터어린이집[아이행복]","tel":"031-376-3007","addr":"경기도 오산시 궐동 616-1번지 우남퍼스트빌 관리소동","category":"학원 - 유아원"},{"name":"우남음악학원","tel":"031-376-2726","addr":"경기도 오산시 궐동 616-1 우남퍼스트빌 상가-303","category":"학원 - 예·체능계학원"},{"name":"크린토피아","tel":"031-373-5114","addr":"경기도 오산시 궐동 616-1번지 우남퍼스트빌 2층 202호","category":"수리서비스 - 세탁소"}]},{"lat":"37.158864458","long":"127.05442014","items":[{"name":"그자리","tel":"","addr":"경기도 오산시 궐동 679-7번지 1층","category":"일반휴게음식 - 일식·회집"}]},{"lat":"37.158803541","long":"127.0683122","items":[{"name":"금오공조","tel":"031-375-7896","addr":"경기도 오산시 궐동 36-9번지 103호","category":"전기제품 - 냉열기기"}]},{"lat":"37.157804234","long":"127.06674653","items":[{"name":"기쁨약국","tel":"031-378-3893","addr":"경기도 오산시 궐동 78-4번지 죽산빌딩 1층","category":"약국 - 약국"},{"name":"무진","tel":"031-373-8703","addr":"경기도 오산시 궐동 78-4번지","category":"일반휴게음식 - 중국식"},{"name":"백평노래연습장","tel":"031-373-1047","addr":"경기도 오산시 궐동 78-4번지 죽산빌딩","category":"레저업소 - 노 래 방"},{"name":"백평호프","tel":"031-376-1117","addr":"경기도 오산시 궐동 78-4번지 죽산빌딩 지하1층","category":"일반휴게음식 - 주점"},{"name":"우리의원","tel":"031-376-6511","addr":"경기도 오산시 궐동 78-4번지 죽산빌딩 2층","category":"의원 - 의원"},{"name":"원헤어","tel":"031-372-1430","addr":"경기도 오산시 궐동 78-4번지 죽산빌딩 1층","category":"보건위생 - 미용원"},{"name":"천리향","tel":"","addr":"경기도 오산시 궐동 78-4번지 죽산빌딩 3층","category":"보건위생 - 피부미용실"},{"name":"홍콩반점","tel":"031-373-8702","addr":"경기도 오산시 궐동 78-4번지 1층","category":"일반휴게음식 - 중국식"}]},{"lat":"37.158056014","long":"127.06769238","items":[{"name":"길촌식당","tel":"031-375-1322","addr":"경기도 오산시 궐동 48-22번지","category":"일반휴게음식 - 일반한식"}]},{"lat":"37.158756002","long":"127.05517434","items":[{"name":"김가네","tel":"031-377-7939","addr":"경기도 오산시 궐동 675-14번지 1층","category":"일반휴게음식 - 일반한식"},{"name":"미랜그린스토아 (샵인샵 궐동점)","tel":"031-372-8849","addr":"경기도 오산시 궐동 675-14번지 102호","category":"주방용구 - 주방용구"}]},{"lat":"37.158167502","long":"127.06121931","items":[{"name":"김밥매니아궐동점","tel":"031-378-4408","addr":"경기도 오산시 궐동 650-1번지 외1필지 혜민BD 102호","category":"일반휴게음식 - 스넥"},{"name":"수육국밥","tel":"031-375-7926","addr":"경기도 오산시 궐동 650-1번지 1층","category":"일반휴게음식 - 일반한식"},{"name":"아이센스PC(피씨)궐동2호점","tel":"070-3023-1556","addr":"경기도 오산시 궐동 650-1번지 혜민빌딩 201호","category":"레저업소 - 기타레져업소"},{"name":"윤씨네인생막창","tel":"031-372-5970","addr":"경기도 오산시 궐동 650-1번지 1층","category":"일반휴게음식 - 일반한식"},{"name":"카페인 (cafein)","tel":"031-374-3225","addr":"경기도 오산시 궐동 650-1번지","category":"일반휴게음식 - 서양음식"},{"name":"푸노래연습장","tel":"031-377-2933","addr":"경기도 오산시 궐동 650-1번지 4층","category":"레저업소 - 노 래 방"},{"name":"플스팩토리","tel":"","addr":"경기도 오산시 궐동 650-1번지 혜민빌딩 2층 202호","category":"레저업소 - 기타레져업소"},{"name":"한솥도시락 오산궐동점","tel":"031-373-8032","addr":"경기도 오산시 궐동 650-1번지 혜민빌딩 104호","category":"일반휴게음식 - 일반한식"},{"name":"후아로마","tel":"02-1234-1234","addr":"경기도 오산시 궐동 650-1번지 혜민BD 3층 302호","category":"보건위생 - 기타대인서비스"}]},{"lat":"37.159781887","long":"127.05805707","items":[{"name":"김밥분식천국","tel":"031-375-5983","addr":"경기도 오산시 궐동 626-2번지 일층","category":"일반휴게음식 - 스넥"},{"name":"보흠식품","tel":"070-4082-6395","addr":"경기도 오산시 궐동 626-2번지","category":"음료식품 - 기타음료식품"},{"name":"블랙헤어","tel":"070-0000-0000","addr":"경기도 오산시 궐동 626-2번지 대성N학원 103호","category":"보건위생 - 미용원"},{"name":"블루밍앤(Blooming Anne)","tel":"031-378-0447","addr":"경기도 오산시 궐동 626-2번지 대성N학원 101호","category":"문화.취미 - 화원"}]},{"lat":"37.156977187","long":"127.06308714","items":[{"name":"김밥속으로(오산대점)","tel":"031-372-4066","addr":"경기도 오산시 궐동 646-8번지","category":"일반휴게음식 - 스넥"}]},{"lat":"37.160918069","long":"127.05616654","items":[{"name":"김밥속으로궐동점","tel":"031-372-3869","addr":"경기도 오산시 궐동 618-3번지 정자빌딩 101호","category":"일반휴게음식 - 스넥"},{"name":"명품학원","tel":"031-375-2535","addr":"경기도 오산시 궐동 618-3번지 정자빌딩 4층","category":"학원 - 보습학원"},{"name":"바삭돌이","tel":"031-8050-9292","addr":"경기도 오산시 궐동 618-3번지 정자빌딩 102호","category":"일반휴게음식 - 일반한식"},{"name":"오산스시마루","tel":"031-373-4970","addr":"경기도 오산시 궐동 618-3번지 정자빌딩 102호","category":"일반휴게음식 - 일식·회집"}]},{"lat":"37.157945051","long":"127.0551963","items":[{"name":"김밥천국","tel":"031-378-3678","addr":"경기도 오산시 궐동 694-1번지","category":"일반휴게음식 - 스넥"},{"name":"오과장대패앤샐러드바 오산궐동점","tel":"031-375-0803","addr":"경기도 오산시 궐동 694-1번지 남영빌딩 1층","category":"일반휴게음식 - 일반한식"},{"name":"오늘같은밤","tel":"070-4408-4429","addr":"경기도 오산시 궐동 694-1번지 남영빌딩 2층","category":"일반휴게음식 - 일반한식"}]},{"lat":"37.15825095","long":"127.05622096","items":[{"name":"김양비어&포차궐동점","tel":"031-111-1111","addr":"경기도 오산시 궐동 676-5번지 1층","category":"일반휴게음식 - 주점"},{"name":"육회본가","tel":"031-0000-0000","addr":"경기도 오산시 궐동 676-5번지 1층 일부호","category":"일반휴게음식 - 일반한식"}]},{"lat":"37.160115596","long":"127.05735932","items":[{"name":"김정화뷰티헤어","tel":"031-298-1220","addr":"경기도 오산시 궐동 619-8번지 1층","category":"보건위생 - 미용원"},{"name":"김중만의만두래궐동점","tel":"031-8050-3090","addr":"경기도 오산시 궐동 619-8번지","category":"일반휴게음식 - 일반한식"},{"name":"크로바문구","tel":"031-375-3414","addr":"경기도 오산시 궐동 619-8번지 상가 103호","category":"서적문구 - 문구용품"}]},{"lat":"37.157835498","long":"127.0583371","items":[{"name":"김중사장칼국수","tel":"031-372-0064","addr":"경기도 오산시 궐동 653-7번지 은원빌 102호","category":"일반휴게음식 - 일반한식"},{"name":"미야","tel":"031-375-6588","addr":"경기도 오산시 궐동 653-7번지 103호","category":"보건위생 - 미용원"},{"name":"아우라제이","tel":"031-377-1982","addr":"경기도 오산시 궐동 653-7번지 1층","category":"보건위생 - 미용원"},{"name":"충칭마라탕","tel":"031-372-0064","addr":"경기도 오산시 궐동 653-7번지 102호","category":"일반휴게음식 - 일반한식"}]},{"lat":"37.156250436","long":"127.05664733","items":[{"name":"김치찌개 미화식당","tel":"031-375-0808","addr":"경기도 오산시 궐동 698-4번지 미성빌딩 1층","category":"일반휴게음식 - 일반한식"},{"name":"히트 당구 클럽","tel":"031-663-0447","addr":"경기도 오산시 궐동 698-4번지 미성빌딩 3층","category":"레저업소 - 당 구 장"}]},{"lat":"37.158083643","long":"127.06658915","items":[{"name":"까꼬뽀꼬","tel":"031-375-3470","addr":"경기도 오산시 궐동 43-12번지","category":"보건위생 - 미용원"},{"name":"미소한식","tel":"031-374-7375","addr":"경기도 오산시 궐동 43-12번지 1층","category":"일반휴게음식 - 일반한식"},{"name":"성모약국","tel":"031-374-6032","addr":"경기도 오산시 궐동 43-12번지","category":"약국 - 약국"},{"name":"신라베이커리","tel":"031-375-0782","addr":"경기도 오산시 궐동 43-12번지","category":"음료식품 - 제과점"},{"name":"아담식당","tel":"031-372-2079","addr":"경기도 오산시 궐동 43-12번지","category":"일반휴게음식 - 일반한식"}]},{"lat":"37.161255974","long":"127.06536468","items":[{"name":"깔끔세차장","tel":"","addr":"경기도 오산시 궐동 5-7번지","category":"자동차정비 유지 - 세차장"},{"name":"오산종합정비센터(대신커먼레일)","tel":"031-375-9736","addr":"경기도 오산시 궐동 5-7번지","category":"자동차정비 유지 - 자동차정비"}]},{"lat":"37.157835885","long":"127.05750404","items":[{"name":"깨만촨","tel":"031-375-5018","addr":"경기도 오산시 궐동 665-5번지 1층","category":"일반휴게음식 - 중국식"}]},{"lat":"37.158251747","long":"127.05441973","items":[{"name":"꼼보포차","tel":"","addr":"경기도 오산시 궐동 680-1번지 컴빌딩1 101호","category":"일반휴게음식 - 주점"},{"name":"보보노래연습장","tel":"070-7637-1414","addr":"경기도 오산시 궐동 680-1번지 2층","category":"레저업소 - 노 래 방"},{"name":"수타이","tel":"031-378-2336","addr":"경기도 오산시 궐동 680-1번지 3층","category":"보건위생 - 화장품"},{"name":"어부인","tel":"031-378-3950","addr":"경기도 오산시 궐동 680-1번지 1층","category":"일반휴게음식 - 일반한식"}]},{"lat":"37.157391416","long":"127.0635828","items":[{"name":"꽃보다예쁜눈","tel":"031-378-8274","addr":"경기도 오산시 궐동 644-6번지 성도 1층 104호","category":"보건위생 - 피부미용실"},{"name":"소성희프로헤어샵","tel":"031-373-1180","addr":"경기도 오산시 궐동 644-6번지","category":"보건위생 - 미용원"}]},{"lat":"37.156998217","long":"127.05683924","items":[{"name":"꽃신","tel":"031-377-8382","addr":"경기도 오산시 궐동 697-5번지 태광빌 106호 대광빌상가","category":"의류 - 정장"},{"name":"윤쓰","tel":"031-000-0000","addr":"경기도 오산시 궐동 697-5번지 태광빌 1층 좌측 상가","category":"의류 - 정장"},{"name":"종이인형","tel":"031-222-0357","addr":"경기도 오산시 궐동 697-5번지 대광빌 106호","category":"의류 - 정장"}]},{"lat":"37.158251297","long":"127.05544418","items":[{"name":"꽃인(in)포차","tel":"031-374-1809","addr":"경기도 오산시 궐동 676-2번지 힐스빌 1층 102호","category":"일반휴게음식 - 주점"},{"name":"윤씨네인생막창(1호점)","tel":"070-5541-7020","addr":"경기도 오산시 궐동 676-2번지 힐스빌 101호","category":"일반휴게음식 - 일반한식"}]},{"lat":"37.156088957","long":"127.05505993","items":[{"name":"꾸망","tel":"00-1899-7187","addr":"경기도 오산시 궐동 701-4번지 5층","category":"회원제형태 - 서적"},{"name":"라이또PC오산점","tel":"070-7900-9060","addr":"경기도 오산시 궐동 701-4번지 2층","category":"레저업소 - 기타레져업소"},{"name":"조은삼겹살","tel":"031-373-1021","addr":"경기도 오산시 궐동 701-4번지 1층","category":"일반휴게음식 - 일반한식"},{"name":"준호노래연습장","tel":"031-376-2116","addr":"경기도 오산시 궐동 701-4번지 3층","category":"레저업소 - 노 래 방"}]},{"lat":"37.157944791","long":"127.05578169","items":[{"name":"나나","tel":"031-373-9380","addr":"경기도 오산시 궐동 694-4번지 1층","category":"일반휴게음식 - 주점"},{"name":"운향원식당","tel":"031-8043-0400","addr":"경기도 오산시 궐동 694-4번지 베스트빌 1층 101호","category":"일반휴게음식 - 중국식"}]},{"lat":"37.157859207","long":"127.06503541","items":[{"name":"난향","tel":"031-377-0105","addr":"경기도 오산시 궐동 103번지 1층","category":"일반휴게음식 - 중국식"}]},{"lat":"37.162838333","long":"127.05380363","items":[{"name":"남도아구와낙지촌","tel":"031-377-1017","addr":"경기도 오산시 궐동 611-3번지 에스에스프라자 102호","category":"일반휴게음식 - 일반한식"},{"name":"너싱홈드림요양원","tel":"031-378-8080","addr":"경기도 오산시 궐동 611-3번지 에스에스(SS)프라자 5층 및601호","category":"기타의료기관 - 기타의료기관 및 기타"},{"name":"세븐일레븐오산궐동원룸점","tel":"031-1577-0711","addr":"경기도 오산시 궐동 611-3번지 에스에스프라자 1층 106호","category":"유통업 영리 - 편 의 점"},{"name":"세탁하기좋은날","tel":"031-375-8982","addr":"경기도 오산시 궐동 611-3번지 에스에스(SS)프라자 104호 103","category":"수리서비스 - 세탁소"},{"name":"시골보리밥","tel":"031-372-2528","addr":"경기도 오산시 궐동 611-3번지 SS프라자 102호","category":"일반휴게음식 - 일반한식"},{"name":"예랑고시텔","tel":"031-375-7741","addr":"경기도 오산시 궐동 611-3번지 에스에스프라자 701호","category":"학원 - 독서실"},{"name":"우리은혜약국","tel":"031-378-5206","addr":"경기도 오산시 궐동 611-3번지 에스에스프라자 1층 107호","category":"약국 - 약국"},{"name":"코아의원","tel":"031-372-7087","addr":"경기도 오산시 궐동 611-3번지 에스에스(SS)프라자 2층 201호","category":"의원 - 의원"},{"name":"푸른소방 주식회사","tel":"031-378-0221","addr":"경기도 오산시 궐동 611-3번지 에스에스프라자 603-2호","category":"기타 - 기계공구"},{"name":"할머니매점","tel":"031-377-3600","addr":"경기도 오산시 궐동 611-3 ss프라자201-2,3호","category":"음료식품 - 기타음료식품"}]},{"lat":"37.158001474","long":"127.06855918","items":[{"name":"남양유업 오산대리점","tel":"031-372-5557","addr":"경기도 오산시 궐동 49-4번지","category":"음료식품 - 기타음료식품"}]},{"lat":"37.155637939","long":"127.05617409","items":[{"name":"남태평양참치","tel":"031-378-5066","addr":"경기도 오산시 궐동 700-1번지 2층","category":"일반휴게음식 - 일식·회집"},{"name":"미인테라피","tel":"","addr":"경기도 오산시 궐동 700-1번지 보림로제빌딩 4층","category":"보건위생 - 피부미용실"},{"name":"에스(S)헤어","tel":"031-374-3010","addr":"경기도 오산시 궐동 700-1번지 보림로제빌딩 101호","category":"보건위생 - 미용원"},{"name":"태평양노래연습장","tel":"031-384-4563","addr":"경기도 오산시 궐동 700-1번지 로제빌딩제3층","category":"레저업소 - 노 래 방"}]},{"lat":"37.159691704","long":"127.05822588","items":[{"name":"내스터디학원","tel":"031-372-8801","addr":"경기도 오산시 궐동 626-3번지 월드빌딩 4층","category":"회원제형태 - 학원"},{"name":"미스터리하우스","tel":"031-377-2493","addr":"경기도 오산시 궐동 626-3번지 1층","category":"일반휴게음식 - 스넥"},{"name":"신전떡볶이 궐동점","tel":"031-377-6263","addr":"경기도 오산시 궐동 626-3번지 월드빌딩 1층","category":"일반휴게음식 - 스넥"},{"name":"이든치매예방협회오산본부","tel":"031-376-8383","addr":"경기도 오산시 궐동 626-3번지 월드빌딩 201호","category":"학원 - 기타 교육기관"}]},{"lat":"37.157528894","long":"127.05886598","items":[{"name":"넘버1","tel":"031-831-3656","addr":"경기도 오산시 궐동 654-8번지 정다운-빌 1층","category":"일반휴게음식 - 주점"}]},{"lat":"37.157248006","long":"127.06208543","items":[{"name":"네네치킨","tel":"031-378-4592","addr":"경기도 오산시 궐동 648-13번지","category":"일반휴게음식 - 주점"},{"name":"쥬스스타 오산궐동점","tel":"031-376-2351","addr":"경기도 오산시 궐동 648-13번지 1층","category":"일반휴게음식 - 서양음식"}]},{"lat":"37.157394553","long":"127.0571097","items":[{"name":"네일다움","tel":"031-376-1776","addr":"경기도 오산시 궐동 697-2번지","category":"보건위생 - 피부미용실"},{"name":"헤이걸","tel":"070-7552-3003","addr":"경기도 오산시 궐동 697-2번지 스위트빌 상가 1층","category":"보건위생 - 화장품"}]},{"lat":"37.155999679","long":"127.05314612","items":[{"name":"네일더이쁨","tel":"","addr":"경기도 오산시 궐동 703-2번지 금송주택 1층 우측 상가","category":"보건위생 - 피부미용실"}]},{"lat":"37.157915231","long":"127.06117409","items":[{"name":"네일을 부탁해","tel":"031-372-1221","addr":"경기도 오산시 궐동 649-5번지 1층 우측 상가","category":"보건위생 - 피부미용실"},{"name":"앙큼","tel":"070-4140-3006","addr":"경기도 오산시 궐동 649-5번지 101호","category":"의류 - 정장"},{"name":"태영식품","tel":"070-4140-3006","addr":"경기도 오산시 궐동 649-5번지 101호","category":"의류 - 정장"}]},{"lat":"37.159502082","long":"127.05908134","items":[{"name":"노다지","tel":"031-376-9168","addr":"경기도 오산시 궐동 627-4번지","category":"일반휴게음식 - 일반한식"},{"name":"대천부","tel":"031-372-9872","addr":"경기도 오산시 궐동 627-4번지 스위트빌","category":"일반휴게음식 - 일반한식"}]},{"lat":"37.159720465","long":"127.05438695","items":[{"name":"노마세야매운갈비찜궐동점","tel":"031-375-5354","addr":"경기도 오산시 궐동 679-1번지 1층","category":"일반휴게음식 - 일반한식"},{"name":"하남돼지집오산궐동점","tel":"031-374-3385","addr":"경기도 오산시 궐동 679-1번지 1층","category":"일반휴게음식 - 일반한식"}]},{"lat":"37.157915303","long":"127.06102774","items":[{"name":"노블레스헤어","tel":"031-378-0466","addr":"경기도 오산시 궐동 649-4번지","category":"보건위생 - 미용원"},{"name":"중국식품","tel":"031-374-1255","addr":"경기도 오산시 궐동 649-4번지 101호","category":"유통업 영리 - 슈퍼마켓"}]},{"lat":"37.163900496","long":"127.05623618","items":[{"name":"노크 에듀케이션","tel":"031-236-8799","addr":"경기도 오산시 궐동 616-1번지 우남퍼스트빌 106동 1301호","category":"학원 - 학습지 교육"}]},{"lat":"37.156977285","long":"127.06289576","items":[{"name":"놀러와","tel":"031-375-3023","addr":"경기도 오산시 궐동 646-6번지 1층","category":"일반휴게음식 - 주점"},{"name":"신흥부대찌개&찜닭오산점","tel":"031-378-9720","addr":"경기도 오산시 궐동 646-6번지 1층","category":"일반휴게음식 - 일반한식"}]},{"lat":"37.159053687","long":"127.05439775","items":[{"name":"놀부노래연습장","tel":"031-378-5500","addr":"경기도 오산시 궐동 679-5번지 청석빌딩","category":"레저업소 - 노 래 방"},{"name":"허브고시텔","tel":"031-378-6277","addr":"경기도 오산시 궐동 679-5번지 ,3,4층","category":"학원 - 독서실"}]},{"lat":"37.156755997","long":"127.05445248","items":[{"name":"놀자 노래연습장","tel":"031-000-0000","addr":"경기도 오산시 궐동 689-4번지","category":"레저업소 - 노 래 방"}]},{"lat":"37.158251961","long":"127.05392439","items":[{"name":"누나홀닭 오산점","tel":"031-378-9997","addr":"경기도 오산시 궐동 682-6번지","category":"일반휴게음식 - 스넥"},{"name":"배부장찌개가 궐동점","tel":"031-281-1690","addr":"경기도 오산시 궐동 682-6번지 104호","category":"일반휴게음식 - 일반한식"},{"name":"서서곱창","tel":"031-372-4222","addr":"경기도 오산시 궐동 682-6번지 102호","category":"일반휴게음식 - 일반한식"},{"name":"짝태엔노가리","tel":"031-372-3303","addr":"경기도 오산시 궐동 682-6번지 상가 103호","category":"일반휴게음식 - 일반한식"}]},{"lat":"37.158058062","long":"127.063831","items":[{"name":"뉴부원철물","tel":"031-378-0110","addr":"경기도 오산시 궐동 641-7번지","category":"회원제형태 - 기타4"}]},{"lat":"37.157832557","long":"127.06430364","items":[{"name":"뉴삼성중고가전할인매장","tel":"031-378-5550","addr":"경기도 오산시 궐동 642-1번지 2호","category":"전기제품 - 가전제품"},{"name":"미인헤어","tel":"031-376-3160","addr":"경기도 오산시 궐동 642-1번지","category":"보건위생 - 미용원"},{"name":"삼성중고마트","tel":"031-378-5550","addr":"경기도 오산시 궐동 642-1번지 2호","category":"전기제품 - 가전제품"},{"name":"씨유오산궐동점","tel":"031-378-3525","addr":"경기도 오산시 궐동 642-1번지","category":"유통업 영리 - 편 의 점"},{"name":"온달각시노래연습장","tel":"031-377-7228","addr":"경기도 오산시 궐동 642-1번지","category":"레저업소 - 노 래 방"}]},{"lat":"37.155692532","long":"127.05498085","items":[{"name":"뉴아트크리닝","tel":"031-375-8882","addr":"경기도 오산시 궐동 704-11번지 첼로빌 1층","category":"수리서비스 - 세탁소"},{"name":"엠닷컴","tel":"031-8050-8330","addr":"경기도 오산시 궐동 704-11번지 첼로빌 상가 101호","category":"사무통신 - 컴퓨터"}]},{"lat":"37.157698432","long":"127.06227717","items":[{"name":"뉴원마트","tel":"031-378-8925","addr":"경기도 오산시 궐동 649-12번지","category":"유통업 영리 - 슈퍼마켓"}]},{"lat":"37.158499828","long":"127.06333602","items":[{"name":"뉴월드마트","tel":"031-378-9561","addr":"경기도 오산시 궐동 640-4번지","category":"유통업 영리 - 슈퍼마켓"},{"name":"도도닭강정","tel":"070-8682-6911","addr":"경기도 오산시 궐동 640-4번지 1층","category":"일반휴게음식 - 스넥"},{"name":"버거에스","tel":"070-8682-6911","addr":"경기도 오산시 궐동 640-4번지 뉴월드마트","category":"일반휴게음식 - 스넥"}]},{"lat":"37.160332298","long":"127.05636877","items":[{"name":"뉴하나마트","tel":"031-377-2304","addr":"경기도 오산시 궐동 619-2번지","category":"유통업 영리 - 슈퍼마켓"}]},{"lat":"37.160998883","long":"127.05678579","items":[{"name":"늘해랑어린이집[아이행복]","tel":"031-376-1535","addr":"경기도 오산시 궐동 621-9번지 늘해랑어린이집","category":"학원 - 유아원"}]},{"lat":"37.159419609","long":"127.06191826","items":[{"name":"능이오리마을","tel":"031-375-5249","addr":"경기도 오산시 궐동 636-3번지 1층","category":"일반휴게음식 - 일반한식"}]},{"lat":"37.159561357","long":"127.06659039","items":[{"name":"닛시이엔씨","tel":"031-372-9009","addr":"경기도 오산시 궐동 39-10번지","category":"건축자재 - 기타건축자재"},{"name":"대영티씨에스","tel":"031-376-6092","addr":"경기도 오산시 궐동 39-10번지 1층","category":"용역 서비스 - 종합용역"},{"name":"동일전기조명","tel":"031-375-5655","addr":"경기도 오산시 궐동 39-10번지","category":"건축자재 - 조명기구"}]},{"lat":"37.157970602","long":"127.05844978","items":[{"name":"다노헤어","tel":"031-377-5888","addr":"경기도 오산시 궐동 653-6번지 하나로 101호","category":"보건위생 - 미용원"},{"name":"중국식품","tel":"031-375-5188","addr":"경기도 오산시 궐동 653-6번지 하나로 102호","category":"음료식품 - 기타음료식품"},{"name":"한국광고기업","tel":"031-377-6898","addr":"경기도 오산시 궐동 653-6번지","category":"용역 서비스 - 종합용역"},{"name":"호우만두집","tel":"","addr":"경기도 오산시 궐동 653-6번지 하나로 103호","category":"일반휴게음식 - 일반한식"}]},{"lat":"37.158972377","long":"127.05489304","items":[{"name":"다대포식당","tel":"031-372-3271","addr":"경기도 오산시 궐동 677-7번지","category":"일반휴게음식 - 일반한식"},{"name":"청해식당","tel":"031-376-6660","addr":"경기도 오산시 궐동 677-7번지 정우빌딩 1층","category":"일반휴게음식 - 일반한식"}]},{"lat":"37.157084631","long":"127.06441561","items":[{"name":"다원 아이티(IT)","tel":"031-375-6054","addr":"경기도 오산시 궐동 642-6번지 동명빌딩 1층","category":"사무통신 - 사무용 OA기기"},{"name":"디에스ENG","tel":"031-378-8566","addr":"경기도 오산시 궐동 642-6번지 동명빌딩 102호","category":"건축자재 - 보일러·펌프·샷시"},{"name":"모아알뜰매장","tel":"031-378-0022","addr":"경기도 오산시 궐동 642-6번지 동명빌딩 1층 101호","category":"전기제품 - 가전제품"},{"name":"씽씽컴퓨터","tel":"031-376-1325","addr":"경기도 오산시 궐동 642-6번지 동명빌딩 상가 1층","category":"사무통신 - 컴퓨터"},{"name":"한빛시스템","tel":"031-373-3210","addr":"경기도 오산시 궐동 642-6번지 동명빌딩 1층","category":"사무통신 - 사무용 OA기기"}]},{"lat":"37.158445326","long":"127.06419156","items":[{"name":"다원헤어","tel":"","addr":"경기도 오산시 궐동 640-10번지 1층","category":"보건위생 - 미용원"},{"name":"오산스포츠","tel":"031-221-6404","addr":"경기도 오산시 궐동 640-10번지 사랑채공인중개사 108호","category":"레져용품 - 스포츠·레져용품"},{"name":"오산전자담배아메리퀴드","tel":"031-372-4456","addr":"경기도 오산시 궐동 640-10번지 사랑채공인중개사 102호","category":"기타 - 기타 전문점"},{"name":"위즈통신","tel":"031-374-1243","addr":"경기도 오산시 궐동 640-10번지 사랑채공인중개사 105호","category":"사무통신 - 통신기기"},{"name":"이레보일러","tel":"02-1688-6553","addr":"경기도 오산시 궐동 640-10번지 사랑채공인중개사 1층 107호","category":"건축자재 - 보일러·펌프·샷시"},{"name":"이엔 (EN)화장품멀티샵","tel":"","addr":"경기도 오산시 궐동 640-10번지","category":"보건위생 - 화장품"},{"name":"자연건강마을","tel":"031-377-7949","addr":"경기도 오산시 궐동 640-10번지","category":"건강식품 - 기타건강식품"},{"name":"해피바이러스","tel":"070-8943-7875","addr":"경기도 오산시 궐동 640-10번지","category":"신변잡화 - 기타잡화"},{"name":"흙오리목","tel":"031-372-2004","addr":"경기도 오산시 궐동 640-10번지 사랑채공인중개사 101호","category":"일반휴게음식 - 중국식"}]},{"lat":"37.158528593","long":"127.05983489","items":[{"name":"다이소 궐동점","tel":"031-376-7128","addr":"경기도 오산시 궐동 652-5번지 구산빌딩 2차 102호","category":"신변잡화 - 기타잡화"},{"name":"담소사골순대 궐동점","tel":"031-375-5821","addr":"경기도 오산시 궐동 652-5번지","category":"일반휴게음식 - 일반한식"},{"name":"담소사골순대궐동점","tel":"031-375-5821","addr":"경기도 오산시 궐동 652-5번지 1층 101호","category":"일반휴게음식 - 일반한식"}]},{"lat":"37.158477008","long":"127.05441988","items":[{"name":"다이아","tel":"","addr":"경기도 오산시 궐동 679-10번지 2층","category":"일반휴게음식 - 칵테일바"},{"name":"신스쭈꾸미","tel":"031-377-5835","addr":"경기도 오산시 궐동 679-10번지 1층","category":"일반휴게음식 - 일반한식"},{"name":"카츠식당","tel":"031-373-2665","addr":"경기도 오산시 궐동 679-10번지 2층","category":"일반휴게음식 - 일반한식"},{"name":"호우양꼬치","tel":"031-378-5835","addr":"경기도 오산시 궐동 679-10번지 1층","category":"일반휴게음식 - 중국식"},{"name":"호우양꼬치","tel":"031-378-5835","addr":"경기도 오산시 궐동 679-10번지 1층","category":"일반휴게음식 - 일반한식"}]},{"lat":"37.15725619","long":"127.06371779","items":[{"name":"달려라우사인삼겹살","tel":"031-374-5586","addr":"경기도 오산시 궐동 644-10번지 오산대빌 나동 1층","category":"일반휴게음식 - 일반한식"}]},{"lat":"37.157418956","long":"127.0625809","items":[{"name":"달콤커피궐동점","tel":"031-372-7679","addr":"경기도 오산시 궐동 644-1번지 신도빌 1층","category":"일반휴게음식 - 서양음식"}]},{"lat":"37.158834286","long":"127.06119731","items":[{"name":"닭갈비와칼국수","tel":"031-378-9092","addr":"경기도 오산시 궐동 634-8번지 1층 일부","category":"일반휴게음식 - 일반한식"},{"name":"하이펫","tel":"031-378-0907","addr":"경기도 오산시 궐동 634-8번지","category":"문화.취미 - 애완동물"}]},{"lat":"37.158251207","long":"127.05564681","items":[{"name":"닭치고","tel":"031-374-2004","addr":"경기도 오산시 궐동 676-8번지 장원빌 1층","category":"일반휴게음식 - 일반한식"},{"name":"더(The)맛쪽갈비","tel":"031-375-8992","addr":"경기도 오산시 궐동 676-8번지 장원빌 1층","category":"일반휴게음식 - 일반한식"},{"name":"우리집팔당닭발 오산궐동점","tel":"031-375-0314","addr":"경기도 오산시 궐동 676-8번지 장원빌 1층 일부","category":"일반휴게음식 - 일반한식"}]},{"lat":"37.158860916","long":"127.06200789","items":[{"name":"담소","tel":"070-8680-1706","addr":"경기도 오산시 궐동 636-8번지","category":"일반휴게음식 - 일반한식"}]},{"lat":"37.157141167","long":"127.05945109","items":[{"name":"담초밥스시이자카야","tel":"031-373-3783","addr":"경기도 오산시 궐동 658-1번지 강남빌 1층","category":"일반휴게음식 - 일식·회집"},{"name":"커피블루메","tel":"031-377-7100","addr":"경기도 오산시 궐동 658-1번지 강남빌 1층","category":"일반휴게음식 - 서양음식"}]},{"lat":"37.159366576","long":"127.059813","items":[{"name":"대명C&H","tel":"031-8003-1120","addr":"경기도 오산시 궐동 630-11번지 402호","category":"전기제품 - 냉열기기"},{"name":"딜리버리킹 오산점","tel":"031-372-9299","addr":"경기도 오산시 궐동 630-11번지 1층 101호","category":"일반휴게음식 - 일반한식"},{"name":"서울에프에스","tel":"031-212-9080","addr":"경기도 오산시 궐동 630-11번지 1층 101호","category":"음료식품 - 기타음료식품"},{"name":"원푸드종합유통","tel":"031-376-3455","addr":"경기도 오산시 궐동 630-11번지","category":"음료식품 - 농·축·수산품"}]},{"lat":"37.160278021","long":"127.05684157","items":[{"name":"대명오리","tel":"031-373-5292","addr":"경기도 오산시 궐동 619-5번지","category":"일반휴게음식 - 일반한식"},{"name":"사랑미용실","tel":"031-376-0767","addr":"경기도 오산시 궐동 619-5번지","category":"보건위생 - 미용원"},{"name":"퀸(Queen)네일","tel":"031-373-1333","addr":"경기도 오산시 궐동 619-5번지 102호","category":"보건위생 - 피부미용실"}]},{"lat":"37.158503414","long":"127.05583837","items":[{"name":"대박","tel":"","addr":"경기도 오산시 궐동 674-8번지","category":"일반휴게음식 - 일반한식"},{"name":"시크릿 뷰티","tel":"","addr":"경기도 오산시 궐동 674-8번지 파라곤 1층 102호","category":"신변잡화 - 액세서리"}]},{"lat":"37.15969246","long":"127.05658222","items":[{"name":"대박냉면","tel":"031-376-1152","addr":"경기도 오산시 궐동 669-1번지","category":"일반휴게음식 - 일반한식"},{"name":"돼지네분식","tel":"031-376-8674","addr":"경기도 오산시 궐동 669-1번지 동보아트빌 상가 101호","category":"일반휴게음식 - 스넥"},{"name":"못말리는파닭 호세야","tel":"031-373-5320","addr":"경기도 오산시 궐동 669-1번지 동보아트빌","category":"일반휴게음식 - 일반한식"},{"name":"호박미용실","tel":"","addr":"경기도 오산시 궐동 669-1번지 동보아트빌 102호","category":"보건위생 - 미용원"}]},{"lat":"37.162611819","long":"127.05664058","items":[{"name":"대성유통","tel":"031-375-8404","addr":"경기도 오산시 궐동 268","category":"음료식품 - 기타음료식품"}]},{"lat":"37.155864499","long":"127.05320231","items":[{"name":"대성출장부페","tel":"031-373-7071","addr":"경기도 오산시 궐동 703-3번지","category":"일반휴게음식 - 일반한식"},{"name":"수도119용인수지구점","tel":"070-8200-5953","addr":"경기도 오산시 궐동 703-3번지 용궁빌 302호","category":"용역 서비스 - 종합용역"}]},{"lat":"37.159311829","long":"127.06122019","items":[{"name":"대신OA상사","tel":"031-235-7472","addr":"경기도 오산시 궐동 635-7번지","category":"사무통신 - 사무용 OA기기"}]},{"lat":"37.157418745","long":"127.06299743","items":[{"name":"대영유리샷시","tel":"031-377-6543","addr":"경기도 오산시 궐동 644-3번지 수수빌 102호","category":"건축자재 - 유리"},{"name":"하우스 골드","tel":"031-378-8881","addr":"경기도 오산시 궐동 644-3번지 수수빌 101호","category":"일반휴게음식 - 칵테일바"}]},{"lat":"37.159474771","long":"127.05966673","items":[{"name":"대우떡방앗간","tel":"031-374-5041","addr":"경기도 오산시 궐동 630-10번지 101호","category":"음료식품 - 제과점"}]},{"lat":"37.161338456","long":"127.06267405","items":[{"name":"대우축산물판매장","tel":"031-375-0656","addr":"경기도 오산시 궐동 583-1번지 단지상가","category":"음료식품 - 정육점"}]},{"lat":"37.158697355","long":"127.06469837","items":[{"name":"대윤종합상사","tel":"031-375-4448","addr":"경기도 오산시 궐동 588-6번지","category":"기타 - 기계공구"},{"name":"종로금거래소","tel":"070-8241-3244","addr":"경기도 오산시 궐동 588-6번지","category":"신변잡화 - 귀금속"},{"name":"친절열쇠","tel":"031-377-1345","addr":"경기도 오산시 궐동 588-6번지 영화빌딩 102호","category":"건축자재 - 목재·석재·철물"}]},{"lat":"37.15711182","long":"127.06411168","items":[{"name":"대인각","tel":"031-373-8817","addr":"경기도 오산시 궐동 644-22번지 1층","category":"일반휴게음식 - 일반한식"}]},{"lat":"37.157255841","long":"127.06439324","items":[{"name":"대지상사","tel":"","addr":"경기도 오산시 궐동 642-5번지 광진빌딩 4층 401호","category":"보건위생 - 화장품"},{"name":"오산프라임복싱클럽","tel":"031-372-2456","addr":"경기도 오산시 궐동 642-5번지 4층","category":"레저업소 - 헬스클럽"},{"name":"짱노래연습장","tel":"031-376-1977","addr":"경기도 오산시 궐동 642-5번지 2층 광진빌딩 북측노래방","category":"레저업소 - 노 래 방"},{"name":"짱노래연습장","tel":"031-376-1977","addr":"경기도 오산시 궐동 642-5번지 202호","category":"레저업소 - 노 래 방"}]},{"lat":"37.157170053","long":"127.05542091","items":[{"name":"대진테크","tel":"031-111-1111","addr":"경기도 오산시 궐동 691-3번지 202호","category":"신변잡화 - 기타잡화"},{"name":"바디원 휘트니스","tel":"031-377-6110","addr":"경기도 오산시 궐동 691-3번지","category":"회원제형태 - 레져업소"},{"name":"오산우리볼링장,당구장","tel":"031-376-7901","addr":"경기도 오산시 궐동 691-3번지","category":"레저업소 - 당 구 장"},{"name":"오산우리볼링장,당구장","tel":"031-376-7901","addr":"경기도 오산시 궐동 691-3번지","category":"레저업소 - 볼 링 장"},{"name":"우리식당","tel":"031-376-7901","addr":"경기도 오산시 궐동 691-3번지 지하1층","category":"일반휴게음식 - 일반한식"},{"name":"진안프린팅","tel":"031-373-9013","addr":"경기도 오산시 궐동 691-3번지 2동 4호","category":"사무통신 - 사무용 OA기기"},{"name":"한국오에이서비스 주식회사","tel":"031-378-4293","addr":"경기도 오산시 궐동 691-3번지 104호","category":"사무통신 - 컴퓨터"}]},{"lat":"37.158477602","long":"127.05303518","items":[{"name":"대찬참뽕","tel":"031-376-1755","addr":"경기도 오산시 궐동 684-8번지 1층","category":"일반휴게음식 - 중국식"}]},{"lat":"37.15839146","long":"127.06380876","items":[{"name":"대천노래연습장","tel":"031-297-3401","addr":"경기도 오산시 궐동 640-7번지 3층","category":"레저업소 - 노 래 방"},{"name":"일품향","tel":"031-376-9830","addr":"경기도 오산시 궐동 640-7번지 1층","category":"일반휴게음식 - 일반한식"},{"name":"콩자야노래연습장","tel":"","addr":"경기도 오산시 궐동 640-7번지 3층","category":"레저업소 - 노 래 방"}]},{"lat":"37.157915153","long":"127.06133169","items":[{"name":"대학가서울불고기","tel":"031-375-2915","addr":"경기도 오산시 궐동 649-6번지 로뎀빌 1층","category":"일반휴게음식 - 일반한식"},{"name":"예움","tel":"031-8058-3800","addr":"경기도 오산시 궐동 649-6번지 로뎀빌 1층 상가 2호","category":"일반휴게음식 - 주점"}]},{"lat":"37.160864512","long":"127.05502944","items":[{"name":"대한상사","tel":"","addr":"경기도 오산시 궐동 616-2번지 제일하이빌아파트","category":"의류 - 단체복"}]},{"lat":"37.161863799","long":"127.0569778","items":[{"name":"대호중학교","tel":"031-378-8375","addr":"경기도 오산시 궐동 617번지 대호중학교","category":"학원 - 초중고교육기관"}]},{"lat":"37.158998145","long":"127.05769625","items":[{"name":"대호초등학교","tel":"031-378-3183","addr":"경기도 오산시 궐동 661번지 대호초등학교","category":"학원 - 초중고교육기관"},{"name":"대호초등학교병설유치원[아이행복]","tel":"031-378-3183","addr":"경기도 오산시 궐동 661번지","category":"학원 - 유치원"}]},{"lat":"37.159949778","long":"127.06475567","items":[{"name":"더 엘엑스 앤 카디언(The LX &Cardian)","tel":"031-375-8468","addr":"경기도 오산시 궐동 592-2번지 1층","category":"자동차정비 유지 - 카인테리어"},{"name":"힐링스크린골프","tel":"031-374-5926","addr":"경기도 오산시 궐동 592-2번지 2,3층","category":"레저업소 - 스크린골프"}]},{"lat":"37.157944967","long":"127.05538768","items":[{"name":"더후라이팬","tel":"031-376-5245","addr":"경기도 오산시 궐동 694-2번지 아이파크 1층","category":"일반휴게음식 - 주점"}]},{"lat":"37.160331171","long":"127.05881176","items":[{"name":"더힐(오산점)","tel":"031-373-5138","addr":"경기도 오산시 궐동 623-4번지 아성빌딩 101호","category":"일반휴게음식 - 서양음식"}]},{"lat":"37.15819471","long":"127.06085908","items":[{"name":"도그스타 오산점","tel":"070-7010-9301","addr":"경기도 오산시 궐동 651-4번지 1층","category":"문화.취미 - 애완동물"},{"name":"시가모아","tel":"031-377-5143","addr":"경기도 오산시 궐동 651-4번지 1층","category":"기타 - 기타 전문점"},{"name":"인샵노래연습장","tel":"031-378-7887","addr":"경기도 오산시 궐동 651-4번지 은성빌딩 3층","category":"레저업소 - 노 래 방"},{"name":"헤어 상그레나","tel":"031-377-5513","addr":"경기도 오산시 궐동 651-4번지 은성빌딩 202호","category":"보건위생 - 미용원"}]},{"lat":"37.157638123","long":"127.05647945","items":[{"name":"도깨비야식","tel":"031-000-0000","addr":"경기도 오산시 궐동 693-9번지 가우디빌 1층 104호","category":"일반휴게음식 - 일반한식"}]},{"lat":"37.158418607","long":"127.06358362","items":[{"name":"도도(DODO)헤어","tel":"031-378-0447","addr":"경기도 오산시 궐동 640-6번지 가나공인중개사 상가동 1층 102호","category":"보건위생 - 미용원"},{"name":"재림패키지","tel":"02-0000-0000","addr":"경기도 오산시 궐동 640-6번지 가나공인중개사 201호","category":"유통업 영리 - 기타유통업"},{"name":"투다리궐동점","tel":"031-378-3002","addr":"경기도 오산시 궐동 640-6번지","category":"일반휴게음식 - 칵테일바"},{"name":"화성칼국수","tel":"031-8043-5052","addr":"경기도 오산시 궐동 640-6번지 가나공인중개사 1층 101호","category":"일반휴게음식 - 일반한식"}]},{"lat":"37.159449722","long":"127.0553662","items":[{"name":"돈다있소","tel":"031-377-8841","addr":"경기도 오산시 궐동 675-4번지 서오빌 1층 일부호","category":"일반휴게음식 - 일반한식"},{"name":"세화축산","tel":"031-377-8841","addr":"경기도 오산시 궐동 675-4번지 서오빌 1층","category":"음료식품 - 정육점"}]},{"lat":"37.157251791","long":"127.05394623","items":[{"name":"돈오락쪽갈비오산점","tel":"031-374-5333","addr":"경기도 오산시 궐동 687-4번지 1층","category":"일반휴게음식 - 일반한식"},{"name":"수지호프","tel":"031-406-6082","addr":"경기도 오산시 궐동 687-4번지 104호","category":"일반휴게음식 - 주점"},{"name":"진순자계란말이김밥","tel":"031-372-3320","addr":"경기도 오산시 궐동 687-4번지 101호","category":"일반휴게음식 - 스넥"}]},{"lat":"37.158969784","long":"127.06049943","items":[{"name":"돌판삼겹살","tel":"031-374-3883","addr":"경기도 오산시 궐동 633-9번지","category":"일반휴게음식 - 일반한식"}]},{"lat":"37.158085387","long":"127.06325689","items":[{"name":"동경","tel":"031-253-1997","addr":"경기도 오산시 궐동 641-4번지","category":"일반휴게음식 - 일반한식"},{"name":"뚱이모포차","tel":"031-378-0447","addr":"경기도 오산시 궐동 641-4번지 1호","category":"일반휴게음식 - 주점"},{"name":"오투비어","tel":"031-375-9188","addr":"경기도 오산시 궐동 641-4번지 2층","category":"일반휴게음식 - 주점"}]},{"lat":"37.159584669","long":"127.05583913","items":[{"name":"동경야시장 오산궐동점","tel":"031-372-4458","addr":"경기도 오산시 궐동 673-3번지 그린빌 1층 102호","category":"일반휴게음식 - 주점"},{"name":"삼포생삼겹살","tel":"031-373-3358","addr":"경기도 오산시 궐동 673-3번지 그린빌 1층","category":"일반휴게음식 - 일반한식"},{"name":"왕손화로구이","tel":"031-373-3358","addr":"경기도 오산시 궐동 673-3번지 그린빌 1층","category":"일반휴게음식 - 일반한식"}]},{"lat":"37.15803057","long":"127.06472034","items":[{"name":"동래치킨퓨전식","tel":"031-372-1119","addr":"경기도 오산시 궐동 112-4번지 모세빌딩 1층","category":"일반휴게음식 - 스넥"},{"name":"동명카츠","tel":"031-377-5569","addr":"경기도 오산시 궐동 112-4번지 모세빌딩 104호","category":"일반휴게음식 - 서양음식"},{"name":"수원로케트(스피드배터리)","tel":"031-377-2212","addr":"경기도 오산시 궐동 112-4번지 모세빌딩 105호","category":"자동차정비 유지 - 자동차부품"},{"name":"조이시스템","tel":"031-375-9788","addr":"경기도 오산시 궐동 112-4번지 모세빌딩 102호","category":"사무통신 - 컴퓨터"}]},{"lat":"37.15747508","long":"127.05833684","items":[{"name":"동방뀀성","tel":"031-374-5766","addr":"경기도 오산시 궐동 657-2번지 1층","category":"일반휴게음식 - 일반한식"}]},{"lat":"37.160416124","long":"127.06883146","items":[{"name":"동양P.V.C상사","tel":"031-374-5003","addr":"경기도 오산시 궐동 25-1","category":"건축자재 - 기타건축자재"}]},{"lat":"37.156278614","long":"127.05405815","items":[{"name":"동해수산","tel":"031-232-3663","addr":"경기도 오산시 궐동 702-1번지","category":"음료식품 - 농·축·수산품"}]},{"lat":"37.158560457","long":"127.06795174","items":[{"name":"동해수산","tel":"070-1111-1111","addr":"경기도 오산시 궐동 45-61번지","category":"음료식품 - 농·축·수산품"}]},{"lat":"37.158698884","long":"127.06169254","items":[{"name":"돼지마을","tel":"031-378-4487","addr":"경기도 오산시 궐동 637-1번지","category":"일반휴게음식 - 일반한식"}]},{"lat":"37.157004751","long":"127.06202896","items":[{"name":"돼지사냥","tel":"031-372-0558","addr":"경기도 오산시 궐동 646-2번지 백상빌딩 1층","category":"일반휴게음식 - 일반한식"}]},{"lat":"37.159971834","long":"127.05646984","items":[{"name":"두가지떡볶이 오산궐동점","tel":"031-378-4588","addr":"경기도 오산시 궐동 670-3번지 반석빌딩 1층 101호","category":"일반휴게음식 - 스넥"},{"name":"모델미용실","tel":"031-374-8764","addr":"경기도 오산시 궐동 670-3번지","category":"보건위생 - 미용원"},{"name":"밀키웨이","tel":"031-372-4728","addr":"경기도 오산시 궐동 670-3번지 반석빌딩 103호","category":"의류 - 정장"}]},{"lat":"37.158057975","long":"127.06399987","items":[{"name":"두꺼비감자탕","tel":"031-374-1710","addr":"경기도 오산시 궐동 641-8번지","category":"일반휴게음식 - 일반한식"},{"name":"생고기전문점","tel":"031-374-1710","addr":"경기도 오산시 궐동 641-8번지","category":"일반휴게음식 - 일반한식"}]},{"lat":"37.15683731","long":"127.05394595","items":[{"name":"두껍삼","tel":"031-372-9262","addr":"경기도 오산시 궐동 687-6번지 1층","category":"일반휴게음식 - 일반한식"},{"name":"씨유오산궐동마크점","tel":"031-372-5038","addr":"경기도 오산시 궐동 687-6번지","category":"유통업 영리 - 편 의 점"}]},{"lat":"37.161143203","long":"127.05644815","items":[{"name":"둥근해어린이집[아이행복]","tel":"031-378-3424","addr":"경기도 오산시 궐동 621-1번지 1층","category":"학원 - 유아원"}]},{"lat":"37.162415006","long":"127.05342056","items":[{"name":"디더블유","tel":"031-378-1421","addr":"경기도 오산시 궐동 610-8번지","category":"숙박업 - 여관/기타숙박업"}]},{"lat":"37.161521743","long":"127.05622325","items":[{"name":"디자인그림","tel":"031-373-3804","addr":"경기도 오산시 궐동 616-1번지 우남퍼스트빌 상가 B동 103호","category":"건축자재 - 인테리어전문"},{"name":"바니뷰티팜","tel":"031-376-9262","addr":"경기도 오산시 궐동 616-1번지 우남퍼스트빌 B동 101호","category":"보건위생 - 미용원"}]},{"lat":"37.158476593","long":"127.05536553","items":[{"name":"디자인장이","tel":"031-682-4010","addr":"경기도 오산시 궐동 675-11번지 8호","category":"용역 서비스 - 종합용역"}]},{"lat":"37.157671009","long":"127.06305392","items":[{"name":"딩웨이양꼬치","tel":"031-373-1688","addr":"경기도 오산시 궐동 643-16번지","category":"일반휴게음식 - 주점"},{"name":"부르릉족발보쌈궐동점","tel":"031-111-1111","addr":"경기도 오산시 궐동 643-16번지 1층","category":"일반휴게음식 - 일반한식"},{"name":"웰빙닭갈비","tel":"031-372-6116","addr":"경기도 오산시 궐동 643-16번지","category":"일반휴게음식 - 일반한식"},{"name":"청솔유통","tel":"031-365-0718","addr":"경기도 오산시 궐동 643-16번지 궁전빌리지 1층 상가 좌측","category":"음료식품 - 농·축·수산품"}]},{"lat":"37.157220458","long":"127.06310985","items":[{"name":"떳다막창집","tel":"031-378-8048","addr":"경기도 오산시 궐동 644-13번지 이안파크 2호","category":"일반휴게음식 - 주점"},{"name":"아리랑양꼬치","tel":"031-377-7205","addr":"경기도 오산시 궐동 644-13번지 이안파크 101호","category":"일반휴게음식 - 중국식"},{"name":"장가네숯불닭갈비","tel":"031-377-7377","addr":"경기도 오산시 궐동 644-13번지 1층","category":"일반휴게음식 - 일반한식"},{"name":"치킨플러스궐동점","tel":"031-377-7377","addr":"경기도 오산시 궐동 644-13번지 1층 우측 상가","category":"일반휴게음식 - 스넥"}]},{"lat":"37.160584545","long":"127.05647027","items":[{"name":"또래오래(궐동점)","tel":"031-378-9279","addr":"경기도 오산시 궐동 620-7번지 오성빌 1층","category":"일반휴게음식 - 스넥"}]},{"lat":"37.157446247","long":"127.06206307","items":[{"name":"똥꼬제이엠(JM)","tel":"031-8050-5074","addr":"경기도 오산시 궐동 648-10번지 1층","category":"일반휴게음식 - 일반한식"},{"name":"알딸딸","tel":"031-372-7625","addr":"경기도 오산시 궐동 648-10번지","category":"일반휴게음식 - 주점"}]},{"lat":"37.156641188","long":"127.0680289","items":[{"name":"뚝방수산","tel":"031-376-5088","addr":"경기도 오산시 궐동 67-1번지 1층","category":"일반휴게음식 - 일반한식"},{"name":"사단법인오산시광고협회","tel":"031-373-2117","addr":"경기도 오산시 궐동 67-1번지","category":"기타 - 비영리/비대상"}]},{"lat":"37.162135892","long":"127.05292501","items":[{"name":"뚱보포차","tel":"031-376-5020","addr":"경기도 오산시 궐동 609-6번지 1층","category":"일반휴게음식 - 일반한식"},{"name":"최뚱보식당","tel":"031-374-9252","addr":"경기도 오산시 궐동 609-6번지","category":"일반휴게음식 - 일반한식"}]},{"lat":"37.159863479","long":"127.05697637","items":[{"name":"라라미용실","tel":"031-373-6885","addr":"경기도 오산시 궐동 670-6번지 2층","category":"보건위생 - 미용원"},{"name":"제일카클리닉","tel":"031-378-4427","addr":"경기도 오산시 궐동 670-6번지","category":"자동차정비 유지 - 자동차정비"}]},{"lat":"37.159945177","long":"127.05563673","items":[{"name":"라봄헤어","tel":"031-377-3133","addr":"경기도 오산시 궐동 672-3번지 예림빌딩","category":"보건위생 - 미용원"},{"name":"우리치과의원","tel":"031-372-2788","addr":"경기도 오산시 궐동 672-3번지 예림빌딩 2층","category":"의원 - 치과의원"},{"name":"쾌유","tel":"031-377-9961","addr":"경기도 오산시 궐동 672-3번지 예림빌딩 3층","category":"보건위생 - 피부미용실"},{"name":"하이밀베이커리","tel":"031-374-6630","addr":"경기도 오산시 궐동 672-3번지 예림빌딩 1층","category":"음료식품 - 제과점"}]},{"lat":"37.159945396","long":"127.05514138","items":[{"name":"라브리지","tel":"031-372-2553","addr":"경기도 오산시 궐동 672-1번지 신도빌딩 1층 1호","category":"보건위생 - 미용원"},{"name":"미니스톱오산궐동점","tel":"031-378-2947","addr":"경기도 오산시 궐동 672-1번지","category":"유통업 영리 - 편 의 점"},{"name":"세븐당구장","tel":"031-375-6056","addr":"경기도 오산시 궐동 672-1번지 신도빌딩 3층","category":"레저업소 - 당 구 장"},{"name":"잭아저씨족발궐동점","tel":"031-378-5382","addr":"경기도 오산시 궐동 672-1번지 신도빌딩 1층","category":"일반휴게음식 - 일반한식"}]},{"lat":"37.15791836","long":"127.0544195","items":[{"name":"라임테라피","tel":"031-374-7942","addr":"경기도 오산시 궐동 688-3번지 4층","category":"보건위생 - 피부미용실"},{"name":"사랑방","tel":"031-377-6622","addr":"경기도 오산시 궐동 688-3번지","category":"회원제형태 - 기타1"}]},{"lat":"37.162559383","long":"127.05292529","items":[{"name":"라트리 호텔","tel":"031-372-1337","addr":"경기도 오산시 궐동 609-4번지","category":"숙박업 - 여관/기타숙박업"},{"name":"렉시","tel":"031-372-1337","addr":"경기도 오산시 궐동 609-4번지","category":"숙박업 - 여관/기타숙박업"}]},{"lat":"37.158140052","long":"127.06206361","items":[{"name":"램브로양꼬치전문점","tel":"031-377-0999","addr":"경기도 오산시 궐동 650-5번지","category":"일반휴게음식 - 일반한식"},{"name":"램브로양꼬치전문점","tel":"031-377-0999","addr":"경기도 오산시 궐동 650-5번지","category":"일반휴게음식 - 일반한식"},{"name":"봉구싸롱 오산대점","tel":"031-374-2278","addr":"경기도 오산시 궐동 650-5번지","category":"일반휴게음식 - 일반한식"}]},{"lat":"37.158589083","long":"127.06497972","items":[{"name":"러블리캣","tel":"031-378-8197","addr":"경기도 오산시 궐동 588-2번지","category":"문화.취미 - 애완동물"}]},{"lat":"37.162361153","long":"127.05292516","items":[{"name":"러스트","tel":"031-376-0811","addr":"경기도 오산시 궐동 609-5번지","category":"숙박업 - 여관/기타숙박업"},{"name":"레인보우호텔","tel":"031-372-0811","addr":"경기도 오산시 궐동 609-5번지","category":"숙박업 - 여관/기타숙박업"}]},{"lat":"37.157944877","long":"127.05559031","items":[{"name":"런던호프","tel":"031-378-5688","addr":"경기도 오산시 궐동 694-3번지 1층","category":"일반휴게음식 - 일반한식"}]},{"lat":"37.159693227","long":"127.05485976","items":[{"name":"레알생호프","tel":"02-378-1523","addr":"경기도 오산시 궐동 677-2번지 1층 좌측 성운빌딩","category":"일반휴게음식 - 주점"},{"name":"씨유궐동성운점","tel":"0-0-0","addr":"경기도 오산시 궐동 677-2번지 성운빌딩 1호","category":"유통업 영리 - 편 의 점"}]},{"lat":"37.157917523","long":"127.05631078","items":[{"name":"로뎀나무떡볶이","tel":"031-8058-7366","addr":"경기도 오산시 궐동 694-7번지","category":"일반휴게음식 - 스넥"},{"name":"보물창고","tel":"031-378-0037","addr":"경기도 오산시 궐동 694-7번지","category":"의류 - 정장"},{"name":"씨유궐동스카이점","tel":"031-375-8285","addr":"경기도 오산시 궐동 694-7번지","category":"유통업 영리 - 편 의 점"}]},{"lat":"37.157613793","long":"127.06897537","items":[{"name":"로뎀어린이집[아이행복]","tel":"031-378-9449","addr":"경기도 오산시 궐동 55-21번지","category":"학원 - 유아원"}]},{"lat":"37.159526736","long":"127.06388847","items":[{"name":"로뎀카페협동조합","tel":"031-375-3339","addr":"경기도 오산시 궐동 586-2번지","category":"일반휴게음식 - 서양음식"}]},{"lat":"37.156502642","long":"127.05683889","items":[{"name":"로북경양꼬치","tel":"000-000-0000","addr":"경기도 오산시 궐동 698-2번지 삼성빌딩 1층 101호","category":"일반휴게음식 - 일반한식"},{"name":"백마강양꼬치","tel":"070-8183-8505","addr":"경기도 오산시 궐동 698-2번지 삼성빌딩 1층","category":"일반휴게음식 - 중국식"},{"name":"안도식당","tel":"070-0000-0000","addr":"경기도 오산시 궐동 698-2번지 삼성빌딩 1층","category":"일반휴게음식 - 일반한식"}]},{"lat":"37.155917539","long":"127.05555513","items":[{"name":"로제네일","tel":"","addr":"경기도 오산시 궐동 701-11번지 1층","category":"보건위생 - 피부미용실"}]},{"lat":"37.156637926","long":"127.05655755","items":[{"name":"루키","tel":"070-4806-4312","addr":"경기도 오산시 궐동 697-8번지 한양빌딩 우측","category":"의류 - 정장"},{"name":"유구푸드카페","tel":"031-373-0882","addr":"경기도 오산시 궐동 697-8번지 한양빌 1층","category":"일반휴게음식 - 일반한식"},{"name":"홀릭네일엔속눈썹","tel":"070-7310-4984","addr":"경기도 오산시 궐동 697-8번지 한양빌 101호","category":"보건위생 - 피부미용실"}]},{"lat":"37.158529932","long":"127.05697542","items":[{"name":"리더스디자인건축","tel":"031-376-8758","addr":"경기도 오산시 궐동 666-1번지 정도9차 102호","category":"건축자재 - 인테리어전문"}]},{"lat":"37.157086649","long":"127.06039668","items":[{"name":"마곱","tel":"070-7582-9193","addr":"경기도 오산시 궐동 647-1번지 용호빌3차 103호","category":"일반휴게음식 - 일반한식"},{"name":"주식회사 피앤아이월드","tel":"031-377-0807","addr":"경기도 오산시 궐동 647-1번지 용호빌3차 1층","category":"사무통신 - 컴퓨터"},{"name":"쭌당구클럽","tel":"070-4220-5694","addr":"경기도 오산시 궐동 647-1번지 용호빌3차","category":"레저업소 - 당 구 장"}]},{"lat":"37.158861844","long":"127.06011658","items":[{"name":"마라유혹","tel":"031-377-8988","addr":"경기도 오산시 궐동 632-2번지 구마빌딩","category":"일반휴게음식 - 일반한식"},{"name":"튼튼동물병원","tel":"031-372-8333","addr":"경기도 오산시 궐동 632-2번지 101호","category":"기타의료기관 - 동물병원"}]},{"lat":"37.159083718","long":"127.0667476","items":[{"name":"마스터카센터","tel":"031-374-3687","addr":"경기도 오산시 궐동 39-4번지 1층","category":"자동차정비 유지 - 자동차정비"},{"name":"신안오토모티브","tel":"031-375-6885","addr":"경기도 오산시 궐동 39-4번지","category":"자동차정비 유지 - 자동차부품"}]},{"lat":"37.159171042","long":"127.05389123","items":[{"name":"마이홈고시텔","tel":"031-372-2088","addr":"경기도 오산시 궐동 682-2번지 신도프라자 9층","category":"학원 - 독서실"},{"name":"씨유궐동신도프라자점","tel":"031-377-7387","addr":"경기도 오산시 궐동 682-2번지 신도프라자 1층 105호","category":"유통업 영리 - 편 의 점"},{"name":"아지트PC방","tel":"","addr":"경기도 오산시 궐동 682-2번지 신도프라자 2층","category":"레저업소 - 기타레져업소"},{"name":"엘리팝 오산궐동점","tel":"031-374-5289","addr":"경기도 오산시 궐동 682-2번지 신도프라자 104호","category":"일반휴게음식 - 주점"},{"name":"차이향","tel":"031-375-8258","addr":"경기도 오산시 궐동 682-2번지 신도프라자 105호.106호","category":"일반휴게음식 - 중국식"},{"name":"착한회집","tel":"031-376-3736","addr":"경기도 오산시 궐동 682-2번지 신도프라자 1층101,102,103호","category":"일반휴게음식 - 일반한식"},{"name":"채플린노래연습장(궐동점)","tel":"031-374-6639","addr":"경기도 오산시 궐동 682-2번지 신도프라자 301호","category":"레저업소 - 노 래 방"},{"name":"칠갑산누렁암소","tel":"031-377-5677","addr":"경기도 오산시 궐동 682-2번지 신도프라자 105동 106호","category":"일반휴게음식 - 일반한식"}]},{"lat":"37.158443154","long":"127.0682556","items":[{"name":"마주모아","tel":"031-374-3805","addr":"경기도 오산시 궐동 45-40번지","category":"일반휴게음식 - 일반한식"}]},{"lat":"37.159700242","long":"127.05922784","items":[{"name":"만개식당","tel":"031-377-3339","addr":"경기도 오산시 궐동 627-2번지 성우리치빌 1층","category":"일반휴게음식 - 일반한식"}]},{"lat":"37.15822775","long":"127.06670185","items":[{"name":"만냥회포차","tel":"031-375-8348","addr":"경기도 오산시 궐동 43-4번지 1층","category":"일반휴게음식 - 주점"},{"name":"씨스페이스오산궐동점","tel":"","addr":"경기도 오산시 궐동 43-4번지","category":"유통업 영리 - 편 의 점"},{"name":"엄마손치킨","tel":"031-373-8295","addr":"경기도 오산시 궐동 43-4번지","category":"일반휴게음식 - 일반한식"},{"name":"운수대통","tel":"031-377-9232","addr":"경기도 오산시 궐동 43-4번지","category":"일반휴게음식 - 칵테일바"},{"name":"푸른반찬","tel":"031-377-6654","addr":"경기도 오산시 궐동 43-4번지","category":"음료식품 - 기타음료식품"}]},{"lat":"37.160719461","long":"127.0569995","items":[{"name":"맛사랑푸드","tel":"031-376-8155","addr":"경기도 오산시 궐동 620-9번지 오크빌 1층","category":"일반휴게음식 - 일반한식"},{"name":"연주상사","tel":"031-377-1022","addr":"경기도 오산시 궐동 620-9번지 오크빌 1층","category":"보건위생 - 화장품"}]},{"lat":"37.163306658","long":"127.05431057","items":[{"name":"맛짱손칼국수","tel":"031-375-8146","addr":"경기도 오산시 궐동 616-1번지 우남퍼스트빌 A동 2층 204호","category":"일반휴게음식 - 스넥"},{"name":"엣지","tel":"031-376-6366","addr":"경기도 오산시 궐동 616-1 우남상가 A-101","category":"회원제형태 - 기타4"},{"name":"우남세탁소","tel":"031-376-3993","addr":"경기도 오산시 궐동 616-1우남퍼스트빌상가A동205호","category":"수리서비스 - 세탁소"},{"name":"킴스헤어","tel":"031-378-0230","addr":"경기도 오산시 궐동 616-1번지 우남퍼스트빌 A동 1층 101호","category":"보건위생 - 미용원"}]},{"lat":"37.15739388","long":"127.05856193","items":[{"name":"매직터치궐동점","tel":"031-378-8932","addr":"경기도 오산시 궐동 657-3번지 모던하우스 상가 1호","category":"자동차정비 유지 - 카인테리어"}]},{"lat":"37.15794463","long":"127.05614194","items":[{"name":"맥주박사","tel":"031-376-3189","addr":"경기도 오산시 궐동 694-6번지 1층 101호","category":"일반휴게음식 - 주점"}]},{"lat":"37.158780685","long":"127.06025161","items":[{"name":"맵학원","tel":"031-376-7326","addr":"경기도 오산시 궐동 632-3번지 명석빌딩 2층","category":"학원 - 보습학원"},{"name":"치청춘","tel":"","addr":"경기도 오산시 궐동 632-3번지 명석빌딩 1층","category":"일반휴게음식 - 중국식"}]},{"lat":"37.162450513","long":"127.054659","items":[{"name":"멍게나라","tel":"031-888-0064","addr":"경기도 오산시 궐동 616-1번지 우남퍼스트빌 102동 1101호","category":"음료식품 - 농·축·수산품"}]},{"lat":"37.158583117","long":"127.05886676","items":[{"name":"메니큐어","tel":"031-375-7203","addr":"경기도 오산시 궐동 653-2번지 법무빌딩창 102호","category":"보건위생 - 미용원"},{"name":"법무사한영구사무소","tel":"031-373-7634","addr":"경기도 오산시 궐동 653-2,653,-3,653-4,1층","category":"용역 서비스 - 법률회계서비스(개인)"},{"name":"뷰티마스터","tel":"031-375-7203","addr":"경기도 오산시 궐동 653-2번지 법무빌딩창 1층 102호","category":"보건위생 - 미용원"},{"name":"카페릿(Cafe Rit)","tel":"070-8183-4423","addr":"경기도 오산시 궐동 653-2번지 106,107,108호","category":"일반휴게음식 - 서양음식"},{"name":"커피엔","tel":"070-8183-4423","addr":"경기도 오산시 궐동 653-2번지 107,108호","category":"일반휴게음식 - 일반한식"},{"name":"피앤피 모바일","tel":"","addr":"경기도 오산시 궐동 653-2번지 법무빌딩창 102호","category":"사무통신 - 통신기기"}]},{"lat":"37.155386661","long":"127.05386618","items":[{"name":"메리트마트","tel":"031-376-4592","addr":"경기도 오산시 궐동 707-11번지","category":"유통업 영리 - 슈퍼마켓"},{"name":"뿌띠헤어","tel":"031-375-0577","addr":"경기도 오산시 궐동 707-11번지 (1층우측상가)","category":"보건위생 - 미용원"},{"name":"뿌띠헤어","tel":"031-378-3309","addr":"경기도 오산시 궐동 707-11번지 1층","category":"보건위생 - 미용원"},{"name":"편안머리방","tel":"031-375-0577","addr":"경기도 오산시 궐동 707-11번지","category":"보건위생 - 미용원"}]},{"lat":"37.157059497","long":"127.06064433","items":[{"name":"명동닭꼬치","tel":"031-378-1145","addr":"경기도 오산시 궐동 647-2번지 1층","category":"일반휴게음식 - 주점"}]},{"lat":"37.160305145","long":"127.05663895","items":[{"name":"명문약국","tel":"031-378-1646","addr":"경기도 오산시 궐동 619-4번지","category":"약국 - 약국"},{"name":"블링블링","tel":"031-375-7203","addr":"경기도 오산시 궐동 619-4번지 거동빌딩 102-2호","category":"보건위생 - 피부미용실"},{"name":"서울연합의원.한의원","tel":"031-373-6558","addr":"경기도 오산시 궐동 619-4번지 거동빌딩 2층","category":"의원 - 의원"},{"name":"연세삼성치과","tel":"031-372-2858","addr":"경기도 오산시 궐동 619-4번지 거동빌딩 3층","category":"의원 - 치과의원"},{"name":"윤선생영어교실영어숲궐동학원","tel":"031-376-0589","addr":"경기도 오산시 궐동 619-4번지 거동빌딩 4층","category":"회원제형태 - 학원"},{"name":"윤선생영어숲궐동학원","tel":"031-376-0589","addr":"경기도 오산시 궐동 619-4번지 거동빌딩 4층","category":"학원 - 외국어학원"}]},{"lat":"37.15836723","long":"127.05808982","items":[{"name":"명성회무회계","tel":"031-366-0870","addr":"경기도 오산시 궐동 663 번지","category":"용역 서비스 - 법률회계서비스(개인)"}]},{"lat":"37.159915974","long":"127.06030876","items":[{"name":"명일쇼퍼서비스","tel":"031-339-7666","addr":"경기도 오산시 궐동 629-3번지 산호빌3차 202호","category":"보건위생 - 기타대인서비스"}]},{"lat":"37.157220538","long":"127.06295224","items":[{"name":"명품한식뷔페","tel":"031-372-5443","addr":"경기도 오산시 궐동 644-14번지 해리빌","category":"일반휴게음식 - 일반한식"},{"name":"산이네옛날통닭궐동점","tel":"031-375-7378","addr":"경기도 오산시 궐동 644-14번지 해리빌 1층","category":"일반휴게음식 - 일반한식"}]},{"lat":"37.159638295","long":"127.05680734","items":[{"name":"모니터월드","tel":"031-377-1326","addr":"경기도 오산시 궐동 669-2번지 롯데빌 1동 1층 102호","category":"수리서비스 - 가정용품수리"},{"name":"민지장식","tel":"","addr":"경기도 오산시 궐동 669-2번지 롯데빌 103호","category":"건축자재 - 인테리어전문"}]},{"lat":"37.156196703","long":"127.05591556","items":[{"name":"모모네일샵(MOMO NAIL#)","tel":"","addr":"경기도 오산시 궐동 699-7번지 2층","category":"보건위생 - 피부미용실"}]},{"lat":"37.159387293","long":"127.05389138","items":[{"name":"무봉리토종순대국궐동을미점","tel":"031-373-5598","addr":"경기도 오산시 궐동 682-1번지 1층","category":"일반휴게음식 - 일반한식"},{"name":"쪼아감자탕","tel":"031-373-5598","addr":"경기도 오산시 궐동 682-1번지 1층","category":"일반휴게음식 - 일반한식"}]},{"lat":"37.157612005","long":"127.05441929","items":[{"name":"무한도전노래연습장","tel":"031-375-6138","addr":"경기도 오산시 궐동 688-5번지","category":"레저업소 - 노 래 방"}]},{"lat":"37.158724702","long":"127.06409047","items":[{"name":"묵밥앤돈까스","tel":"031-373-3502","addr":"경기도 오산시 궐동 639-3번지 1층","category":"일반휴게음식 - 일반한식"}]},{"lat":"37.160025117","long":"127.05816983","items":[{"name":"미광식당","tel":"031-377-7404","addr":"경기도 오산시 궐동 625-12번지 1층","category":"일반휴게음식 - 일반한식"}]},{"lat":"37.157473708","long":"127.06119626","items":[{"name":"미니바","tel":"","addr":"경기도 오산시 궐동 648-6번지 비버빌 1층 102호","category":"일반휴게음식 - 칵테일바"},{"name":"왁싱미카오산점","tel":"031-223-9159","addr":"경기도 오산시 궐동 648-6번지 비버빌 상가 101호","category":"보건위생 - 미용재료"},{"name":"코코베리왁싱&스킨","tel":"070-4194-7929","addr":"경기도 오산시 궐동 648-6번지 비버빌 101호","category":"보건위생 - 피부미용실"}]},{"lat":"37.158005731","long":"127.0603636","items":[{"name":"미니스톱 궐동드림빌점","tel":"031-1577-9621","addr":"경기도 오산시 궐동 649-24번지","category":"유통업 영리 - 편 의 점"}]},{"lat":"37.159278313","long":"127.05583891","items":[{"name":"미니스톱 오산본점","tel":"031-1577-9621","addr":"경기도 오산시 궐동 674-2번지","category":"유통업 영리 - 편 의 점"},{"name":"출추래","tel":"031-372-9290","addr":"경기도 오산시 궐동 674-2번지 송대빌딩","category":"일반휴게음식 - 주점"}]},{"lat":"37.159835173","long":"127.05970077","items":[{"name":"미니스톱궐동타운점","tel":"031-1577-9621","addr":"경기도 오산시 궐동 630-1번지","category":"유통업 영리 - 편 의 점"},{"name":"컬트패밀리","tel":"070-7012-1355","addr":"경기도 오산시 궐동 630-1번지 1층","category":"유통업 영리 - 편 의 점"}]},{"lat":"37.157337092","long":"127.06408935","items":[{"name":"미니스톱오산우리점","tel":"031-372-2809","addr":"경기도 오산시 궐동 644-8번지 그레이스빌 102호","category":"유통업 영리 - 편 의 점"},{"name":"장용돼지국밥","tel":"031-378-2989","addr":"경기도 오산시 궐동 644-8번지 1층 장용돼지국","category":"일반휴게음식 - 일반한식"}]},{"lat":"37.158747322","long":"127.05442006","items":[{"name":"미니스톱오산타운점","tel":"031-1577-9621","addr":"경기도 오산시 궐동 679-8번지","category":"유통업 영리 - 편 의 점"}]},{"lat":"37.15494436","long":"127.05566703","items":[{"name":"미니스톱오산플러스점","tel":"031-374-5288","addr":"경기도 오산시 궐동 700-6,1층코너102호~104호","category":"유통업 영리 - 편 의 점"},{"name":"이스케오산궐동점","tel":"031-377-4747","addr":"경기도 오산시 궐동 700-6번지 스카이빌 101호","category":"일반휴게음식 - 서양음식"}]},{"lat":"37.157416284","long":"127.06766932","items":[{"name":"미래목공목재가구","tel":"031-378-3095","addr":"경기도 오산시 궐동 69-2번지","category":"가구 - 일반가구"},{"name":"태영카센타","tel":"031-375-3131","addr":"경기도 오산시 궐동 69-2번지","category":"자동차정비 유지 - 자동차부품"}]},{"lat":"37.159886863","long":"127.06445166","items":[{"name":"미르약국","tel":"031-377-5506","addr":"경기도 오산시 궐동 592번지 1층","category":"약국 - 약국"},{"name":"황재영정형외과","tel":"031-378-8873","addr":"경기도 오산시 궐동 592번지","category":"의원 - 의원"}]},{"lat":"37.156893892","long":"127.06727486","items":[{"name":"미미돈카츠","tel":"031-377-2642","addr":"경기도 오산시 궐동 71-4번지","category":"일반휴게음식 - 스넥"},{"name":"비비","tel":"031-373-8254","addr":"경기도 오산시 궐동 71-4번지 4필지","category":"일반휴게음식 - 주점"},{"name":"주식회사 나눔이장기요양센터","tel":"031-372-4567","addr":"경기도 오산시 궐동 71-4번지 진산빌딩 3층 301호","category":"기타의료기관 - 기타의료기관 및 기타"},{"name":"체리","tel":"031-378-0817","addr":"경기도 오산시 궐동 71-4번지 1층","category":"일반휴게음식 - 주점"},{"name":"현 헤어테라피","tel":"031-352-1673","addr":"경기도 오산시 궐동 71-4번지 202호","category":"보건위생 - 미용재료"},{"name":"황실","tel":"031-373-5018","addr":"경기도 오산시 궐동 71-4번지 2층 202호","category":"보건위생 - 화장품"},{"name":"황실","tel":"031-373-0518","addr":"경기도 오산시 궐동 71-4번지 202호","category":"보건위생 - 화장품"},{"name":"황제비빔밥","tel":"031-376-7031","addr":"경기도 오산시 궐동 71-4번지","category":"일반휴게음식 - 일반한식"}]},{"lat":"37.158169027","long":"127.05803339","items":[{"name":"미스터마트오산궐동점","tel":"031-377-9443","addr":"경기도 오산시 궐동 664-1번지 103호","category":"유통업 영리 - 편 의 점"},{"name":"코지포그","tel":"031-378-9733","addr":"경기도 오산시 궐동 664-1번지 천솔파크뷰중간 102호 상가","category":"문화.취미 - 화원"}]},{"lat":"37.15983454","long":"127.06100669","items":[{"name":"미식의 최강자","tel":"031-373-9262","addr":"경기도 오산시 궐동 628-7번지 1층","category":"일반휴게음식 - 일반한식"}]},{"lat":"37.157303686","long":"127.05875324","items":[{"name":"미쳐버린파닭 오산대점","tel":"031-377-9279","addr":"경기도 오산시 궐동 657-4번지 모닝빌 1층 101호","category":"일반휴게음식 - 스넥"},{"name":"성신천지양꼬치","tel":"","addr":"경기도 오산시 궐동 657-4번지 모닝빌 1층","category":"일반휴게음식 - 일반한식"}]},{"lat":"37.157671231","long":"127.06261487","items":[{"name":"미친도야지","tel":"070-7868-0186","addr":"경기도 오산시 궐동 643-18번지","category":"일반휴게음식 - 일반한식"},{"name":"불스떡볶이궐동점","tel":"031-378-4448","addr":"경기도 오산시 궐동 643-18번지 효원빌1차 102호","category":"일반휴게음식 - 스넥"},{"name":"티나는 네일","tel":"","addr":"경기도 오산시 궐동 643-18번지 효원빌1차 1층","category":"보건위생 - 피부미용실"}]},{"lat":"37.159470083","long":"127.06872931","items":[{"name":"민간조사관자격검정관리국","tel":"080-494-9007","addr":"경기도 오산시 궐동 32-14번지 104호","category":"용역 서비스 - 사무서비스"}]},{"lat":"37.15661201","long":"127.05403586","items":[{"name":"민스 (MIN'S)헤어","tel":"031-374-0038","addr":"경기도 오산시 궐동 687-8번지 현대빌딩 101호","category":"보건위생 - 미용원"},{"name":"엔젤S 노래연습장","tel":"031-376-5322","addr":"경기도 오산시 궐동 687-8번지 현대빌딩 2층","category":"레저업소 - 노 래 방"},{"name":"캣츠","tel":"","addr":"경기도 오산시 궐동 687-8번지 현대빌딩 3층 301,302호","category":"일반휴게음식 - 칵테일바"}]},{"lat":"37.159060274","long":"127.05970019","items":[{"name":"바라보다 오산점","tel":"031-376-2040","addr":"경기도 오산시 궐동 631-3번지 101호","category":"보건위생 - 안경"},{"name":"오산궐동점 한신포차","tel":"031-374-8999","addr":"경기도 오산시 궐동 631-3번지 1층","category":"일반휴게음식 - 일반한식"},{"name":"오산궐동점한신포차","tel":"031-374-8999","addr":"경기도 오산시 궐동 631-3번지 1층","category":"일반휴게음식 - 일반한식"},{"name":"잇츠안경","tel":"031-376-2040","addr":"경기도 오산시 궐동 631-3번지 1층","category":"보건위생 - 안경"}]},{"lat":"37.157944706","long":"127.05597307","items":[{"name":"바밤바호프","tel":"","addr":"경기도 오산시 궐동 694-5번지 보떼 102호","category":"일반휴게음식 - 일반한식"},{"name":"오점엔에이","tel":"070-8848-7091","addr":"경기도 오산시 궐동 694-5번지","category":"일반휴게음식 - 일반한식"}]},{"lat":"37.157476848","long":"127.0544192","items":[{"name":"바비노래연습장","tel":"031-378-9983","addr":"경기도 오산시 궐동 688-6번지 2층 201호","category":"레저업소 - 노 래 방"},{"name":"바비노래연습장","tel":"031-378-9983","addr":"경기도 오산시 궐동 688-6번지 201호","category":"레저업소 - 노 래 방"},{"name":"수","tel":"031-375-0179","addr":"경기도 오산시 궐동 688-6번지 3층","category":"일반휴게음식 - 일반한식"},{"name":"옥탑방 오봉자 싸롱","tel":"070-8829-8747","addr":"경기도 오산시 궐동 688-6번지 1층","category":"일반휴게음식 - 주점"},{"name":"일(ILL)","tel":"","addr":"경기도 오산시 궐동 688-6번지 3층","category":"일반휴게음식 - 주점"},{"name":"훌랄라참숯바베큐궐동서진점","tel":"031-376-1133","addr":"경기도 오산시 궐동 688-6번지 1층 102호","category":"일반휴게음식 - 스넥"}]},{"lat":"37.158251036","long":"127.05602958","items":[{"name":"박군치킨궐동점","tel":"031-378-1250","addr":"경기도 오산시 궐동 676-4번지 샤인빌 1층","category":"일반휴게음식 - 스넥"},{"name":"애플마트","tel":"031-372-3694","addr":"경기도 오산시 궐동 676-4번지 샤인빌","category":"유통업 영리 - 슈퍼마켓"}]},{"lat":"37.154782367","long":"127.05522789","items":[{"name":"박씨네마라해산물","tel":"070-4686-9412","addr":"경기도 오산시 궐동 705-7번지 아이빌 1층","category":"일반휴게음식 - 중국식"},{"name":"브레인(Brain)","tel":"070-7723-4240","addr":"경기도 오산시 궐동 705-7번지 아이빌","category":"용역 서비스 - 종합용역"},{"name":"신오산음료유통","tel":"031-377-9982","addr":"경기도 오산시 궐동 705-7번지 아이빌 상가 2호","category":"음료식품 - 기타음료식품"}]},{"lat":"37.159555946","long":"127.05949792","items":[{"name":"박혜자낙지마당","tel":"031-378-0988","addr":"경기도 오산시 궐동 630-9번지 1층","category":"일반휴게음식 - 일반한식"}]},{"lat":"37.163532195","long":"127.05366899","items":[{"name":"박희주헤어클리닉","tel":"031-372-6005","addr":"경기도 오산시 궐동 608-1번지 원프라자 202호","category":"보건위생 - 미용원"},{"name":"쁘띠헤어","tel":"031-000-0000","addr":"경기도 오산시 궐동 608-1번지 원프라자 103호","category":"보건위생 - 미용원"},{"name":"주식회사씨에스하이테크","tel":"031-378-6546","addr":"경기도 오산시 궐동 608-1번지 원프라자 303호","category":"전기제품 - 기타전기제품"},{"name":"플러스마트","tel":"031-372-8007","addr":"경기도 오산시 궐동 608-1 원프라자1층101호102호","category":"유통업 영리 - 슈퍼마켓"}]},{"lat":"37.156395154","long":"127.05542038","items":[{"name":"반찬카페데이앤데이 (Day&Day)","tel":"031-374-0042","addr":"경기도 오산시 궐동 699-1번지 태종빌딩 1층 102호","category":"일반휴게음식 - 스넥"},{"name":"폰샵","tel":"031-8050-1700","addr":"경기도 오산시 궐동 699-1번지 태종빌딩 101호","category":"사무통신 - 통신기기"}]},{"lat":"37.157224359","long":"127.05486933","items":[{"name":"발칙한돼지","tel":"031-377-3306","addr":"경기도 오산시 궐동 691-1번지 명성빌 101호","category":"일반휴게음식 - 일반한식"},{"name":"번개통신","tel":"031-284-7040","addr":"경기도 오산시 궐동 691-1번지 명성빌딩 308호","category":"사무통신 - 통신기기"},{"name":"한국야쿠르트서오산점","tel":"031-375-8521","addr":"경기도 오산시 궐동 691-1번지","category":"음료식품 - 기타음료식품"}]},{"lat":"37.15880409","long":"127.06731026","items":[{"name":"방자전","tel":"031-376-8962","addr":"경기도 오산시 궐동 45-73번지 1층 오른쪽","category":"일반휴게음식 - 일반한식"},{"name":"우림야식","tel":"031-376-8962","addr":"경기도 오산시 궐동 45-73번지 1층","category":"일반휴게음식 - 일반한식"}]},{"lat":"37.157499141","long":"127.06435966","items":[{"name":"배달의쌀국수앤수카페오산점","tel":"031-376-0319","addr":"경기도 오산시 궐동 642-3번지 대아빌딩 1층 101호","category":"일반휴게음식 - 일반한식"},{"name":"씨티노래연습장","tel":"031-374-8003","addr":"경기도 오산시 궐동 642-3번지 대아빌딩 3층","category":"레저업소 - 노 래 방"}]},{"lat":"37.158639196","long":"127.05441999","items":[{"name":"배스킨라빈스 궐동점","tel":"031-378-3312","addr":"경기도 오산시 궐동 679-9번지 1층","category":"음료식품 - 제과점"}]},{"lat":"37.16058822","long":"127.06719919","items":[{"name":"백년전기","tel":"031-375-4486","addr":"경기도 오산시 궐동 17-7번지 평화빌라 1층 105호","category":"전기제품 - 기타전기제품"},{"name":"현대(HD)기획&컴인테크(컴박사119)","tel":"031-266-8238","addr":"경기도 오산시 궐동 17-7번지 평화빌라","category":"용역 서비스 - 종합용역"}]},{"lat":"37.159557728","long":"127.05563646","items":[{"name":"백두산양꼬치","tel":"031-377-0336","addr":"경기도 오산시 궐동 673-4번지 엘림빌딩 1층","category":"일반휴게음식 - 일반한식"},{"name":"이차호프","tel":"","addr":"경기도 오산시 궐동 673-4번지 엘림빌딩","category":"일반휴게음식 - 일반한식"}]},{"lat":"37.154782853","long":"127.05411343","items":[{"name":"밸런스 카페(CAFE BALANCE)","tel":"031-377-8798","addr":"경기도 오산시 궐동 708-4번지 다모아빌딩 1층 106호","category":"일반휴게음식 - 서양음식"}]},{"lat":"37.157059376","long":"127.06089199","items":[{"name":"버거킹오산궐동점","tel":"031-377-8595","addr":"경기도 오산시 궐동 647-3번지 용호빌 1층","category":"일반휴게음식 - 서양음식"},{"name":"이야 (e-ya) pc존","tel":"","addr":"경기도 오산시 궐동 647-3번지 2층","category":"레저업소 - 기타레져업소"}]},{"lat":"37.158476458","long":"127.05566949","items":[{"name":"버르장머리","tel":"031-8058-9359","addr":"경기도 오산시 궐동 674-9,1층","category":"보건위생 - 미용원"},{"name":"참 세탁소","tel":"031-377-8789","addr":"경기도 오산시 궐동 674-9번지 퍼스트빌 1층","category":"수리서비스 - 세탁소"}]},{"lat":"37.158700215","long":"127.05894565","items":[{"name":"법무법인율가","tel":"02-533-0555","addr":"경기도 오산시 궐동 653-1번지 진성빌딩 3층 301호","category":"용역 서비스 - 법률회계서비스(법인)"},{"name":"법무법인율가","tel":"031-374-7474","addr":"경기도 오산시 궐동 653-1번지 진성빌딩 3층 301호","category":"용역 서비스 - 법률회계서비스(법인)"},{"name":"중앙인쇄기획","tel":"031-372-8676","addr":"경기도 오산시 궐동 653-1번지 진성빌딩 상가 103호","category":"용역 서비스 - 종합용역"}]},{"lat":"37.158112913","long":"127.06227749","items":[{"name":"베스킨라빈스(궐동점)","tel":"031-374-3310","addr":"경기도 오산시 궐동 650-6번지 광산빌딩 102호","category":"음료식품 - 제과점"},{"name":"사랑방","tel":"070-7590-9800","addr":"경기도 오산시 궐동 650-6번지 4층","category":"보건위생 - 화장품"},{"name":"옛날가마솥통닭","tel":"031-372-1188","addr":"경기도 오산시 궐동 650-6번지","category":"일반휴게음식 - 일반한식"},{"name":"왕 당구클럽","tel":"031-000-0000","addr":"경기도 오산시 궐동 650-6번지 광산빌딩 5층","category":"레저업소 - 당 구 장"},{"name":"자유시간 노래연습장","tel":"031-373-8500","addr":"경기도 오산시 궐동 650-6번지 광산빌딩 2층","category":"레저업소 - 노 래 방"},{"name":"지짐이","tel":"031-374-9633","addr":"경기도 오산시 궐동 650-6번지 광산빌딩 1층","category":"일반휴게음식 - 주점"}]},{"lat":"37.156143104","long":"127.05486859","items":[{"name":"베스트카정비 (BEST CAR)정비","tel":"031-8043-8419","addr":"경기도 오산시 궐동 701-3번지","category":"자동차정비 유지 - 자동차정비"}]},{"lat":"37.156749541","long":"127.06761247","items":[{"name":"베스트크린","tel":"031-373-8661","addr":"경기도 오산시 궐동 72-3번지","category":"용역 서비스 - 종합용역"}]},{"lat":"37.15897538","long":"127.06714154","items":[{"name":"베이징","tel":"031-377-8834","addr":"경기도 오산시 궐동 37-6번지","category":"일반휴게음식 - 중국식"}]},{"lat":"37.159390146","long":"127.06661277","items":[{"name":"베이프룸전자담배","tel":"","addr":"경기도 오산시 궐동 39-5번지 1층 101호","category":"기타 - 기타 전문점"},{"name":"원할머니보쌈족발오산배달점","tel":"031-373-5379","addr":"경기도 오산시 궐동 39-5번지 1층 4호","category":"일반휴게음식 - 일반한식"}]},{"lat":"37.155223594","long":"127.05586986","items":[{"name":"베트남쌀국수","tel":"031-8058-4084","addr":"경기도 오산시 궐동 700-4번지 하나빌딩 102호","category":"일반휴게음식 - 일반한식"}]},{"lat":"37.159692116","long":"127.0573365","items":[{"name":"벨칸토음악학원","tel":"031-378-3479","addr":"경기도 오산시 궐동 670-8번지 대호빌딩 2층","category":"학원 - 예·체능계학원"},{"name":"아리엘헤어샵","tel":"031-376-1723","addr":"경기도 오산시 궐동 670-8번지 1층 전체","category":"보건위생 - 미용원"},{"name":"아이필안경원","tel":"031-377-5002","addr":"경기도 오산시 궐동 670-8번지 대호빌딩","category":"보건위생 - 안경"},{"name":"오산지앤비영어학원","tel":"031-374-5305","addr":"경기도 오산시 궐동 670-8번지 대호빌딩 4층","category":"회원제형태 - 학원"},{"name":"헬로우 빅","tel":"","addr":"경기도 오산시 궐동 670-8번지 대호빌딩 104호","category":"의류 - 정장"}]},{"lat":"37.157945185","long":"127.05489234","items":[{"name":"별천지","tel":"031-372-7677","addr":"경기도 오산시 궐동 688-1번지 1층","category":"일반휴게음식 - 주점"},{"name":"주식회사 설화빙","tel":"031-373-3362","addr":"경기도 오산시 궐동 688-1번지 1층","category":"일반휴게음식 - 일반한식"},{"name":"포차어게인 궐동점","tel":"031-375-7603","addr":"경기도 오산시 궐동 688-1번지 덕진빌딩 2층","category":"일반휴게음식 - 주점"},{"name":"허브노래연습장","tel":"031-375-0330","addr":"경기도 오산시 궐동 688-1번지","category":"레저업소 - 노 래 방"}]},{"lat":"37.158858663","long":"127.06636465","items":[{"name":"보리수바베큐","tel":"031-375-6149","addr":"경기도 오산시 궐동 40-3번지","category":"일반휴게음식 - 일반한식"},{"name":"아름다운광고","tel":"031-374-9730","addr":"경기도 오산시 궐동 40-3번지","category":"용역 서비스 - 종합용역"},{"name":"찬우물행복김밥","tel":"031-378-2153","addr":"경기도 오산시 궐동 40-3번지","category":"일반휴게음식 - 스넥"},{"name":"향기","tel":"","addr":"경기도 오산시 궐동 40-3번지 1층","category":"일반휴게음식 - 주점"}]},{"lat":"37.157172218","long":"127.06908756","items":[{"name":"보물창고","tel":"070-4898-0416","addr":"경기도 오산시 궐동 575-17번지","category":"의류 - 기타의류"}]},{"lat":"37.159393072","long":"127.06091629","items":[{"name":"보보스포차","tel":"031-373-8817","addr":"경기도 오산시 궐동 629-10번지 타워빌 1층","category":"일반휴게음식 - 일반한식"}]},{"lat":"37.15972012","long":"127.055175","items":[{"name":"보탬라이팅","tel":"070-7516-7055","addr":"경기도 오산시 궐동 675-1번지 드림빌 501호","category":"전기제품 - 기타전기제품"},{"name":"토담구들장생오리주물럭","tel":"031-373-5111","addr":"경기도 오산시 궐동 675-1번지","category":"일반휴게음식 - 일반한식"}]},{"lat":"37.158028841","long":"127.06795129","items":[{"name":"복촌","tel":"031-373-9549","addr":"경기도 오산시 궐동 48-19번지","category":"일반휴게음식 - 일반한식"},{"name":"아우성옻닭영양탕","tel":"031-373-9549","addr":"경기도 오산시 궐동 48-19번지","category":"일반휴게음식 - 일반한식"}]},{"lat":"37.158554879","long":"127.06136596","items":[{"name":"본가전주콩나물해장국","tel":"031-376-9808","addr":"경기도 오산시 궐동 634-5번지","category":"일반휴게음식 - 일반한식"},{"name":"에이스돈","tel":"031-377-7514","addr":"경기도 오산시 궐동 634-5번지","category":"일반휴게음식 - 일반한식"},{"name":"제포(JEPO)PC방","tel":"070-4232-7651","addr":"경기도 오산시 궐동 634-5번지 1층 101호","category":"레저업소 - 기타레져업소"}]},{"lat":"37.157032101","long":"127.0613873","items":[{"name":"본래순대오산대점","tel":"031-374-7108","addr":"경기도 오산시 궐동 647-5번지 1층","category":"일반휴게음식 - 일반한식"}]},{"lat":"37.155475791","long":"127.05608392","items":[{"name":"본심","tel":"031-377-5195","addr":"경기도 오산시 궐동 700-2번지 성산빌딩 1층","category":"일반휴게음식 - 일반한식"},{"name":"스튜디오(STUDIO)700-2","tel":"031-372-7002","addr":"경기도 오산시 궐동 700-2번지 성산빌딩 1층 우측 상가","category":"보건위생 - 미용원"},{"name":"아쿠아실내낚시터","tel":"031-373-3529","addr":"경기도 오산시 궐동 700-2번지 성산빌딩 2층","category":"레저업소 - 기타레져업소"},{"name":"코뚜레","tel":"031-378-9995","addr":"경기도 오산시 궐동 700-2번지 성산빌 1층","category":"일반휴게음식 - 일반한식"}]},{"lat":"37.159637578","long":"127.05836093","items":[{"name":"본죽궐동점","tel":"031-376-6232","addr":"경기도 오산시 궐동 626-4번지","category":"일반휴게음식 - 일반한식"},{"name":"비비큐치킨궐동점","tel":"031-378-8855","addr":"경기도 오산시 궐동 626-4번지 1층","category":"일반휴게음식 - 일반한식"}]},{"lat":"37.157918252","long":"127.05466717","items":[{"name":"봉구싸롱","tel":"031-377-9280","addr":"경기도 오산시 궐동 688-2번지 1층 101호","category":"일반휴게음식 - 칵테일바"},{"name":"아바이감자탕","tel":"031-378-1253","addr":"경기도 오산시 궐동 688-2번지 102호","category":"일반휴게음식 - 일반한식"}]},{"lat":"37.155088477","long":"127.0557797","items":[{"name":"부자","tel":"031-377-0980","addr":"경기도 오산시 궐동 700-5번지 1층 전체","category":"일반휴게음식 - 일반한식"},{"name":"부자","tel":"031-377-0980","addr":"경기도 오산시 궐동 700-5번지 1층","category":"일반휴게음식 - 일반한식"}]},{"lat":"37.159053471","long":"127.0548931","items":[{"name":"불도야지","tel":"031-372-2366","addr":"경기도 오산시 궐동 677-6번지","category":"일반휴게음식 - 일반한식"}]},{"lat":"37.159256091","long":"127.06452995","items":[{"name":"블루다방","tel":"031-373-8181","addr":"경기도 오산시 궐동 590-3번지","category":"일반휴게음식 - 서양음식"}]},{"lat":"37.154476342","long":"127.05447345","items":[{"name":"비다벨로오산점","tel":"031-376-6754","addr":"경기도 오산시 궐동 708-14번지 가람빌 1층","category":"일반휴게음식 - 서양음식"}]},{"lat":"37.158497918","long":"127.06697227","items":[{"name":"비비당구장","tel":"070-8733-5111","addr":"경기도 오산시 궐동 43-18번지 2층","category":"레저업소 - 당 구 장"},{"name":"오산회관","tel":"031-111-1111","addr":"경기도 오산시 궐동 43-18번지 2층","category":"일반휴게음식 - 일반한식"},{"name":"인테리어하우스","tel":"031-377-1599","addr":"경기도 오산시 궐동 43-18번지 1층","category":"건축자재 - 인테리어전문"},{"name":"컴119","tel":"031-376-4119","addr":"경기도 오산시 궐동 43-18번지","category":"사무통신 - 컴퓨터"},{"name":"컴119","tel":"031-376-4119","addr":"경기도 오산시 궐동 43-18번지","category":"수리서비스 - 사무·통신기기수리"}]},{"lat":"37.158699509","long":"127.06042042","items":[{"name":"비비드 헤어","tel":"031-374-2633","addr":"경기도 오산시 궐동 632-4번지 1층","category":"보건위생 - 미용원"},{"name":"소관점","tel":"070-7623-9777","addr":"경기도 오산시 궐동 632-4번지","category":"일반휴게음식 - 중국식"},{"name":"쑈촬덴","tel":"031-374-6092","addr":"경기도 오산시 궐동 632-4번지 1층","category":"일반휴게음식 - 중국식"},{"name":"중국식품(        )","tel":"","addr":"경기도 오산시 궐동 632-4번지 1층","category":"음료식품 - 기타음료식품"}]},{"lat":"37.162252784","long":"127.05349926","items":[{"name":"비에이치모터스 (BH MOTORS)","tel":"031-111-1111","addr":"경기도 오산시 궐동 610-19번지","category":"자동차정비 유지 - 자동차정비"}]},{"lat":"37.154728438","long":"127.05492391","items":[{"name":"비에이치씨치킨 궐동점","tel":"031-377-4999","addr":"경기도 오산시 궐동 705-11번지 최고빌 1층","category":"일반휴게음식 - 스넥"}]},{"lat":"37.157803337","long":"127.06839014","items":[{"name":"비케이에프(B.K.F)","tel":"031-372-5862","addr":"경기도 오산시 궐동 49-25번지 찬양교회 1층 102호","category":"전기제품 - 기타전기제품"},{"name":"앤.에스.피 (N. S. P)","tel":"","addr":"경기도 오산시 궐동 49-25번지 찬양교회 상가 1층 102호","category":"용역 서비스 - 기타용역서비스"},{"name":"여우단장","tel":"031-376-2927","addr":"경기도 오산시 궐동 49-25번지 찬양교회 102호","category":"보건위생 - 미용원"}]},{"lat":"37.157725823","long":"127.0615567","items":[{"name":"비타민","tel":"031-373-7282","addr":"경기도 오산시 궐동 649-16번지 상가 1층 2호","category":"용역 서비스 - 종합용역"},{"name":"윤기획","tel":"031-372-7208","addr":"경기도 오산시 궐동 649-16번지 2호 상가","category":"용역 서비스 - 종합용역"}]},{"lat":"37.157446151","long":"127.06225445","items":[{"name":"비타민하우스케이알","tel":"031-372-1274","addr":"경기도 오산시 궐동 648-11번지 효원빌2차 501호","category":"건강식품 - 기타건강식품"},{"name":"빼어날수헤어클럽","tel":"031-111-1111","addr":"경기도 오산시 궐동 648-11번지","category":"보건위생 - 미용원"},{"name":"워시테리아 오산궐동점","tel":"","addr":"경기도 오산시 궐동 648-11번지 효원빌2차 101호","category":"수리서비스 - 세탁소"},{"name":"컬러링","tel":"031-374-6024","addr":"경기도 오산시 궐동 648-11번지 효원빌2차 102호","category":"일반휴게음식 - 스넥"}]},{"lat":"37.157750275","long":"127.0665551","items":[{"name":"빅스마켓","tel":"","addr":"경기도 오산시 궐동 78-8번지 삼화빌라 가동 4층 402호","category":"신변잡화 - 기타잡화"}]},{"lat":"37.154331844","long":"127.05522758","items":[{"name":"사구팔구 알뜰중고매장","tel":"031-378-4989","addr":"경기도 오산시 궐동 709-4번지 성운빌딩 101호","category":"전기제품 - 가전제품"},{"name":"헬로통큰삼겹오산점","tel":"031-375-3984","addr":"경기도 오산시 궐동 709-4번지 성운빌딩 101호","category":"일반휴게음식 - 일반한식"}]},{"lat":"37.160220121","long":"127.06469961","items":[{"name":"사리원면옥","tel":"031-376-6816","addr":"경기도 오산시 궐동 593-4번지 1층","category":"일반휴게음식 - 일반한식"}]},{"lat":"37.158140153","long":"127.06186098","items":[{"name":"사쿠사쿠","tel":"031-373-4969","addr":"경기도 오산시 궐동 650-4번지","category":"일반휴게음식 - 주점"}]},{"lat":"37.159557516","long":"127.0561093","items":[{"name":"살로메에스테틱","tel":"031-377-6229","addr":"경기도 오산시 궐동 671-5번지 2층 일부","category":"보건위생 - 피부미용실"},{"name":"엄가네본가시골집","tel":"031-374-6334","addr":"경기도 오산시 궐동 671-5번지 광희빌딩","category":"일반휴게음식 - 일반한식"},{"name":"우렁쌈장생삼겹살","tel":"031-377-8116","addr":"경기도 오산시 궐동 671-5번지 광희빌딩 1층","category":"일반휴게음식 - 일반한식"}]},{"lat":"37.159475927","long":"127.05720125","items":[{"name":"살롱드맥퀸","tel":"031-252-9565","addr":"경기도 오산시 궐동 669-4번지 낙천빌 1층","category":"보건위생 - 미용원"},{"name":"시골청국장","tel":"031-378-9127","addr":"경기도 오산시 궐동 669-4번지","category":"일반휴게음식 - 일반한식"},{"name":"시골청국장","tel":"03-1378-9127","addr":"경기도 오산시 궐동 669-4번지","category":"일반휴게음식 - 일반한식"},{"name":"시골청국장","tel":"031-378-9127","addr":"경기도 오산시 궐동 669-4번지","category":"일반휴게음식 - 일반한식"}]},{"lat":"37.155305711","long":"127.0535284","items":[{"name":"살맛나는순살두마리파닭","tel":"031-374-5255","addr":"경기도 오산시 궐동 703-7번지","category":"일반휴게음식 - 주점"},{"name":"살맛나는순살두마리파닭","tel":"031-8059-3925","addr":"경기도 오산시 궐동 703-7번지 한가람빌 1층","category":"일반휴게음식 - 주점"},{"name":"특별한밥상","tel":"031-377-7821","addr":"경기도 오산시 궐동 703-7번지 한가람빌 101호","category":"일반휴게음식 - 일반한식"}]},{"lat":"37.158254544","long":"127.06714093","items":[{"name":"삼성이불","tel":"031-375-5359","addr":"경기도 오산시 궐동 44-1","category":"직물 - 침구·수예점"},{"name":"장미","tel":"031-372-1034","addr":"경기도 오산시 궐동 44-1번지","category":"일반휴게음식 - 일반한식"},{"name":"칠보영상사진","tel":"031-375-0070","addr":"경기도 오산시 궐동 44-1번지 칠보영상사진","category":"광학제품 - 사진관"}]},{"lat":"37.162306668","long":"127.05391585","items":[{"name":"상록당구장","tel":"","addr":"경기도 오산시 궐동 611-8번지 에스아이프라자 501호","category":"레저업소 - 당 구 장"}]},{"lat":"37.156278817","long":"127.05358534","items":[{"name":"상아네풍천민물장어","tel":"031-376-3711","addr":"경기도 오산시 궐동 702-3번지","category":"일반휴게음식 - 일반한식"}]},{"lat":"37.154728169","long":"127.05553179","items":[{"name":"새마을","tel":"02-1111-1111","addr":"경기도 오산시 궐동 709-1번지 평화빌딩 102호","category":"음료식품 - 기타음료식품"},{"name":"아이비","tel":"031-372-2662","addr":"경기도 오산시 궐동 709-1번지 평화빌딩 402호","category":"보건위생 - 화장품"},{"name":"쟁반노래연습장","tel":"031-374-1771","addr":"경기도 오산시 궐동 709-1번지 3층","category":"레저업소 - 노 래 방"},{"name":"쟁반노래연습장","tel":"031-374-1718","addr":"경기도 오산시 궐동 709-1번지 평화빌딩 3층","category":"레저업소 - 노 래 방"},{"name":"주식회사 더원코퍼레이션","tel":"031-372-3035","addr":"경기도 오산시 궐동 709-1번지 평화빌딩 202호","category":"문화.취미 - 애완동물"},{"name":"하늘미용실","tel":"031-376-2216","addr":"경기도 오산시 궐동 709-1번지 평화빌딩 102호","category":"보건위생 - 미용원"}]},{"lat":"37.157254427","long":"127.06706128","items":[{"name":"새빛인테리어","tel":"031-375-8654","addr":"경기도 오산시 궐동 76-6번지 101호","category":"건축자재 - 인테리어전문"},{"name":"웰빙축산 1호점","tel":"031-374-1661","addr":"경기도 오산시 궐동 76-6번지","category":"음료식품 - 정육점"},{"name":"중국슈퍼","tel":"031-373-5177","addr":"경기도 오산시 궐동 76-6번지 102호","category":"유통업 영리 - 슈퍼마켓"}]},{"lat":"37.158614141","long":"127.06863851","items":[{"name":"새장터방아간","tel":"031-374-3536","addr":"경기도 오산시 궐동 45-31번지","category":"음료식품 - 제과점"}]},{"lat":"37.158223843","long":"127.0563898","items":[{"name":"생선구이전문점9292","tel":"031-372-5396","addr":"경기도 오산시 궐동 676-6번지 청암빌딩","category":"일반휴게음식 - 일반한식"},{"name":"십억수산","tel":"031-377-6879","addr":"경기도 오산시 궐동 676-6번지 1층","category":"일반휴게음식 - 일식·회집"},{"name":"써니싸롱","tel":"031-376-2607","addr":"경기도 오산시 궐동 676-6번지 청암빌딩","category":"일반휴게음식 - 주점"}]},{"lat":"37.158636354","long":"127.06058924","items":[{"name":"샤브샤브","tel":"031-376-5118","addr":"경기도 오산시 궐동 632-5번지 명빌딩 201호","category":"일반휴게음식 - 중국식"},{"name":"쑈쑤린","tel":"031-376-5503","addr":"경기도 오산시 궐동 632-5번지 명빌딩","category":"일반휴게음식 - 중국식"},{"name":"짚동가리쌩주","tel":"031-374-2662","addr":"경기도 오산시 궐동 632-5번지","category":"일반휴게음식 - 주점"},{"name":"참치세상","tel":"031-375-6066","addr":"경기도 오산시 궐동 632-5번지 명빌딩 102호","category":"일반휴게음식 - 일반한식"}]},{"lat":"37.159366989","long":"127.05894614","items":[{"name":"샤인헤어","tel":"031-376-6321","addr":"경기도 오산시 궐동 626-7번지 벧엘빌딩 1층","category":"보건위생 - 미용원"},{"name":"우리동네 기술자들","tel":"031-1600-4914","addr":"경기도 오산시 궐동 626-7번지 벧엘빌딩 302호","category":"용역 서비스 - 정보서비스"}]},{"lat":"37.158477222","long":"127.05392454","items":[{"name":"서민통닭","tel":"031-372-8987","addr":"경기도 오산시 궐동 682-5번지 골드파크 101호","category":"일반휴게음식 - 일반한식"},{"name":"투썸플레이스오산궐동점","tel":"031-378-8581","addr":"경기도 오산시 궐동 682-5번지 1층 102,103,104호","category":"일반휴게음식 - 서양음식"}]},{"lat":"37.157725934","long":"127.06133155","items":[{"name":"서박사네집밥상","tel":"031-372-2393","addr":"경기도 오산시 궐동 649-17번지 샬롬빌 102호","category":"일반휴게음식 - 일반한식"}]},{"lat":"37.159057614","long":"127.06500262","items":[{"name":"서울건업","tel":"031-372-3269","addr":"경기도 오산시 궐동 589-4번지","category":"건축자재 - 기타건축자재"}]},{"lat":"37.157226805","long":"127.06814198","items":[{"name":"서울카크리닉","tel":"031-374-5388","addr":"경기도 오산시 궐동 69-5번지","category":"자동차정비 유지 - 자동차정비"}]},{"lat":"37.160192563","long":"127.06570154","items":[{"name":"서창산업","tel":"031-377-7060","addr":"경기도 오산시 궐동 10번지","category":"건축자재 - 보일러·펌프·샷시"},{"name":"청지엔지니어링","tel":"031-375-6511","addr":"경기도 오산시 궐동 10번지 1층","category":"기타 - 기계공구"}]},{"lat":"37.158393791","long":"127.05909178","items":[{"name":"서현의류","tel":"","addr":"경기도 오산시 궐동 654-14번지 광영빌딩 406호","category":"의류 - 정장"}]},{"lat":"37.157251572","long":"127.05445282","items":[{"name":"설빙(궐동점)","tel":"031-373-6602","addr":"경기도 오산시 궐동 689-1번지 1층","category":"일반휴게음식 - 서양음식"},{"name":"아씨닭발","tel":"031-378-9285","addr":"경기도 오산시 궐동 689-1번지","category":"일반휴게음식 - 일반한식"}]},{"lat":"37.155971652","long":"127.0554426","items":[{"name":"성광 중국식품","tel":"031-684-1330","addr":"경기도 오산시 궐동 701-6번지 101호","category":"유통업 영리 - 슈퍼마켓"}]},{"lat":"37.158478487","long":"127.06952775","items":[{"name":"성창 양말","tel":"031-374-8250","addr":"경기도 오산시 궐동 51-1번지","category":"의류 - 기타의류"}]},{"lat":"37.154665659","long":"127.05424843","items":[{"name":"세광산업전기조명","tel":"031-372-2573","addr":"경기도 오산시 궐동 708-5번지","category":"건축자재 - 조명기구"}]},{"lat":"37.157891722","long":"127.05350761","items":[{"name":"세븐노래연습장","tel":"031-373-7440","addr":"경기도 오산시 궐동 686-1번지","category":"레저업소 - 노 래 방"},{"name":"술","tel":"","addr":"경기도 오산시 궐동 686-1번지 1층","category":"일반휴게음식 - 일반한식"}]},{"lat":"37.160529649","long":"127.05828278","items":[{"name":"세븐일레븐오산궐동공원점","tel":"031-1577-0711","addr":"경기도 오산시 궐동 623-1번지 1층","category":"유통업 영리 - 편 의 점"}]},{"lat":"37.159557303","long":"127.05658213","items":[{"name":"세븐일레븐오산궐동점","tel":"","addr":"경기도 오산시 궐동 669-8번지 한진빌","category":"유통업 영리 - 편 의 점"}]},{"lat":"37.15955526","long":"127.06091641","items":[{"name":"세븐일레븐오산궐동제일점","tel":"","addr":"경기도 오산시 궐동 629-8번지 1층","category":"유통업 영리 - 편 의 점"}]},{"lat":"37.158058172","long":"127.06361711","items":[{"name":"세븐일레븐오산궐리사로점","tel":"031-1577-0711","addr":"경기도 오산시 궐동 641-6번지 하나빌딩 1층 101호","category":"유통업 영리 - 편 의 점"},{"name":"세븐일레븐오산궐리사로점","tel":"031-1577-0711","addr":"경기도 오산시 궐동 641-6번지 하나빌딩 101호","category":"유통업 영리 - 편 의 점"},{"name":"연길냉면","tel":"031-376-4666","addr":"경기도 오산시 궐동 641-6번지 하나빌딩 1층","category":"일반휴게음식 - 일반한식"}]},{"lat":"37.15794251","long":"127.06066751","items":[{"name":"소문난아구찜해물탕","tel":"031-374-7396","addr":"경기도 오산시 궐동 649-2번지","category":"일반휴게음식 - 일반한식"}]},{"lat":"37.161000552","long":"127.05298055","items":[{"name":"소와고기","tel":"031-377-2266","addr":"경기도 오산시 궐동 614-5번지 1층","category":"일반휴게음식 - 일반한식"}]},{"lat":"37.15778176","long":"127.05763909","items":[{"name":"소울메이트","tel":"031-377-2468","addr":"경기도 오산시 궐동 665-6번지 영재빌 1층 101호","category":"일반휴게음식 - 서양음식"},{"name":"월풀빨래방","tel":"031-375-6303","addr":"경기도 오산시 궐동 665-6번지 영재빌 102호","category":"수리서비스 - 세탁소"}]},{"lat":"37.160755667","long":"127.05663926","items":[{"name":"솔이네식당","tel":"031-373-3339","addr":"경기도 오산시 궐동 620-3번지 피렌체 102호","category":"일반휴게음식 - 일반한식"}]},{"lat":"37.159168497","long":"127.05949763","items":[{"name":"송강커피","tel":"02-1111-1111","addr":"경기도 오산시 궐동 631-2번지 201호","category":"일반휴게음식 - 서양음식"},{"name":"홈마트","tel":"031-373-3735","addr":"경기도 오산시 궐동 631-2 1층","category":"유통업 영리 - 슈퍼마켓"}]},{"lat":"37.15764332","long":"127.06433726","items":[{"name":"송송노래연습장","tel":"031-374-8807","addr":"경기도 오산시 궐동 642-2번지 경성빌딩 2층","category":"레저업소 - 노 래 방"},{"name":"제이당구클럽","tel":"031-8043-3594","addr":"경기도 오산시 궐동 642-2번지 경성빌딩 4층","category":"레저업소 - 당 구 장"},{"name":"짬뽕아울렛","tel":"031-378-8399","addr":"경기도 오산시 궐동 642-2번지 경성빌딩 1층","category":"일반휴게음식 - 중국식"},{"name":"호박노래연습장","tel":"031-374-8807","addr":"경기도 오산시 궐동 642-2번지","category":"레저업소 - 노 래 방"}]},{"lat":"37.156417581","long":"127.06494417","items":[{"name":"송탄부대찌개","tel":"031-377-2683","addr":"경기도 오산시 궐동 90-7번지","category":"일반휴게음식 - 일반한식"},{"name":"오토멘토(AUTOMENTOR)","tel":"031-000-0000","addr":"경기도 오산시 궐동 90-7번지","category":"자동차정비 유지 - 카인테리어"}]},{"lat":"37.157974261","long":"127.06888562","items":[{"name":"수란이네","tel":"031-373-5405","addr":"경기도 오산시 궐동 50-5번지","category":"일반휴게음식 - 일반한식"}]},{"lat":"37.157220303","long":"127.0634138","items":[{"name":"수뷰티","tel":"","addr":"경기도 오산시 궐동 644-16번지 101호","category":"보건위생 - 화장품"},{"name":"커피89","tel":"070-8726-2132","addr":"경기도 오산시 궐동 644-16번지 1층","category":"일반휴게음식 - 서양음식"}]},{"lat":"37.158251122","long":"127.0558382","items":[{"name":"수숯불직화꼬치구이","tel":"031-297-6055","addr":"경기도 오산시 궐동 676-3번지 1층","category":"일반휴게음식 - 일반한식"},{"name":"수숯불직화꼬치구이","tel":"031-377-5707","addr":"경기도 오산시 궐동 676-3번지 1층","category":"일반휴게음식 - 주점"},{"name":"참불로훈제막창","tel":"031-377-3532","addr":"경기도 오산시 궐동 676-3번지 참불로훈제막창","category":"일반휴게음식 - 일반한식"}]},{"lat":"37.158527658","long":"127.0617487","items":[{"name":"스카이노래연습장","tel":"031-375-0865","addr":"경기도 오산시 궐동 637-3번지 2층","category":"레저업소 - 노 래 방"},{"name":"주문진회수산","tel":"031-378-1805","addr":"경기도 오산시 궐동 637-3번지 1층","category":"일반휴게음식 - 일식·회집"}]},{"lat":"37.160865055","long":"127.05377979","items":[{"name":"스카이용품점","tel":"031-225-0987","addr":"경기도 오산시 궐동 612-14번지 505호","category":"용역 서비스 - 기타용역서비스"}]},{"lat":"37.160087638","long":"127.0593407","items":[{"name":"스타일짱헤어","tel":"031-377-9409","addr":"경기도 오산시 궐동 623-6번지","category":"보건위생 - 미용원"},{"name":"장충동왕족발보쌈오산점","tel":"031-378-3300","addr":"경기도 오산시 궐동 623-6번지","category":"일반휴게음식 - 일반한식"}]},{"lat":"37.159700413","long":"127.05886758","items":[{"name":"시카고휘트니스","tel":"031-374-7080","addr":"경기도 오산시 궐동 625-8번지","category":"회원제형태 - 레져업소"}]},{"lat":"37.159499844","long":"127.06361826","items":[{"name":"시크릿헤어샵","tel":"031-373-1175","addr":"경기도 오산시 궐동 586번지 102호","category":"보건위생 - 미용원"},{"name":"우리집양념통닭","tel":"031-373-2009","addr":"경기도 오산시 궐동 586번지","category":"일반휴게음식 - 주점"},{"name":"주영푸드","tel":"070-9942-2842","addr":"경기도 오산시 궐동 586번지 1층","category":"일반휴게음식 - 일반한식"}]},{"lat":"37.158582225","long":"127.06072429","items":[{"name":"신나는포차","tel":"031-378-7071","addr":"경기도 오산시 궐동 632-6번지","category":"일반휴게음식 - 주점"},{"name":"이가네마라탕","tel":"031-372-2348","addr":"경기도 오산시 궐동 632-6번지 1층","category":"일반휴게음식 - 일반한식"},{"name":"피자스쿨오산궐동점","tel":"031-372-5053","addr":"경기도 오산시 궐동 632-6번지 1층","category":"일반휴게음식 - 서양음식"}]},{"lat":"37.156026418","long":"127.05383283","items":[{"name":"신찌헤어","tel":"031-000-0000","addr":"경기도 오산시 궐동 704-3번지 삼익캐슬5차 1층","category":"보건위생 - 미용원"}]},{"lat":"37.164081521","long":"127.05438991","items":[{"name":"신통치킨","tel":"031-372-6645","addr":"경기도 오산시 궐동 489-3번지 에스엠프라자 가동 102호","category":"일반휴게음식 - 스넥"},{"name":"정미정갈치조림한상","tel":"031-374-3338","addr":"경기도 오산시 궐동 489-3번지 에스엠프라자 1층","category":"일반휴게음식 - 일반한식"},{"name":"해무","tel":"031-376-7633","addr":"경기도 오산시 궐동 489-3번지 에스엠프라자 1층","category":"일반휴게음식 - 일반한식"}]},{"lat":"37.160360681","long":"127.0532841","items":[{"name":"신화닭발","tel":"031-378-3737","addr":"경기도 오산시 궐동 615-2번지 1층","category":"일반휴게음식 - 일반한식"},{"name":"항아리보쌈오산궐동세교점","tel":"031-376-1697","addr":"경기도 오산시 궐동 615-2번지 1층","category":"일반휴게음식 - 일반한식"}]},{"lat":"37.159414703","long":"127.05300202","items":[{"name":"신화장어","tel":"031-373-3992","addr":"경기도 오산시 궐동 684-1번지","category":"일반휴게음식 - 일반한식"}]},{"lat":"37.157421821","long":"127.05659187","items":[{"name":"실버피아","tel":"031-611-6468","addr":"경기도 오산시 궐동 693-11번지 파크빌 401호","category":"회원제형태 - 기타4"},{"name":"이마트24 궐동타운점","tel":"02-6916-1500","addr":"경기도 오산시 궐동 693-11번지 파크빌","category":"유통업 영리 - 편 의 점"},{"name":"조개나라","tel":"031-373-5992","addr":"경기도 오산시 궐동 693-11번지 파크빌 501호","category":"음료식품 - 농·축·수산품"}]},{"lat":"37.158171261","long":"127.0530012","items":[{"name":"쌈","tel":"","addr":"경기도 오산시 궐동 684-5번지 1층","category":"일반휴게음식 - 일반한식"}]},{"lat":"37.15702653","long":"127.05394608","items":[{"name":"썸씽","tel":"","addr":"경기도 오산시 궐동 687-5번지 2층","category":"일반휴게음식 - 일반한식"},{"name":"아리랑","tel":"031-372-7025","addr":"경기도 오산시 궐동 687-5번지","category":"음료식품 - 정육점"},{"name":"아리랑","tel":"031-372-7025","addr":"경기도 오산시 궐동 687-5번지","category":"일반휴게음식 - 일반한식"}]},{"lat":"37.15719622","long":"127.05733471","items":[{"name":"쑈워이오리목점궐동점","tel":"031-373-8555","addr":"경기도 오산시 궐동 696-3번지 한탑빌딩","category":"일반휴게음식 - 일반한식"},{"name":"테트리스찜닭오산점","tel":"031-373-2106","addr":"경기도 오산시 궐동 696-3번지 한탑빌딩 1층","category":"일반휴게음식 - 일반한식"}]},{"lat":"37.157031878","long":"127.0618376","items":[{"name":"씨유궐동공원점","tel":"031-377-5808","addr":"경기도 오산시 궐동 646-1번지","category":"유통업 영리 - 편 의 점"}]},{"lat":"37.15986307","long":"127.05786575","items":[{"name":"씨유궐동대호점","tel":"031-376-3847","addr":"경기도 오산시 궐동 626-1번지 103호 , 104호","category":"유통업 영리 - 편 의 점"}]},{"lat":"37.159249064","long":"127.0605897","items":[{"name":"씨유궐동본점","tel":"031-898-6568","addr":"경기도 오산시 궐동 633-3번지 상록빌딩 1층","category":"유통업 영리 - 편 의 점"}]},{"lat":"37.160665776","long":"127.05616636","items":[{"name":"씨유궐동우남점","tel":"031-378-5604","addr":"경기도 오산시 궐동 618-4번지","category":"유통업 영리 - 편 의 점"},{"name":"웰빙축산물 도매센타","tel":"031-378-9233","addr":"경기도 오산시 궐동 618-4번지 외1필지 2호~3호","category":"음료식품 - 정육점"},{"name":"코바코궐동점","tel":"031-378-6662","addr":"경기도 오산시 궐동 618-4 외1필지(618-5)1층 6187","category":"일반휴게음식 - 스넥"},{"name":"한우마을","tel":"031-378-9233","addr":"경기도 오산시 궐동 618-4번지 1층 2호 ,3,4호","category":"일반휴게음식 - 일반한식"}]},{"lat":"37.156476397","long":"127.05508271","items":[{"name":"씨유궐동장고개점","tel":"031-372-6606","addr":"경기도 오산시 궐동 689-8번지 한솔타워 상가 1층 2호","category":"유통업 영리 - 편 의 점"}]},{"lat":"37.156610731","long":"127.05691777","items":[{"name":"씨유궐동중앙점","tel":"031-374-3316","addr":"경기도 오산시 궐동 698-1번지 동연빌 1층","category":"유통업 영리 - 편 의 점"}]},{"lat":"37.154890739","long":"127.0546651","items":[{"name":"씨유궐동청학점","tel":"031-375-9020","addr":"경기도 오산시 궐동 707-6번지","category":"유통업 영리 - 편 의 점"}]},{"lat":"37.163000895","long":"127.05292558","items":[{"name":"씨유오산랜드마크점","tel":"031-375-2238","addr":"경기도 오산시 궐동 609-2번지 랜드마크1 102, 103호","category":"유통업 영리 - 편 의 점"},{"name":"주식회사 다솜","tel":"02-6902-0000","addr":"경기도 오산시 궐동 609-2번지 랜드마크1","category":"건축자재 - 부동산 분양"},{"name":"후니월드","tel":"","addr":"경기도 오산시 궐동 609-2번지 랜드마크원 1106호","category":"전기제품 - 가전제품"}]},{"lat":"37.157975251","long":"127.0670844","items":[{"name":"씨유오산우리점","tel":"031-375-2609","addr":"경기도 오산시 궐동 44-5","category":"유통업 영리 - 편 의 점"}]},{"lat":"37.163486107","long":"127.05603324","items":[{"name":"아기별어린이집[아이행복]","tel":"070-7556-9982","addr":"경기도 오산시 궐동 616-1 107-104","category":"학원 - 유아원"}]},{"lat":"37.15824928","long":"127.05981216","items":[{"name":"아도르","tel":"031-372-7308","addr":"경기도 오산시 궐동 655-2번지","category":"보건위생 - 미용원"},{"name":"하라네일(HARANail)","tel":"031-378-9366","addr":"경기도 오산시 궐동 655-2번지 하워드빌 101호","category":"보건위생 - 피부미용실"}]},{"lat":"37.15455747","long":"127.0543947","items":[{"name":"아름다운세탁소","tel":"031-377-3110","addr":"경기도 오산시 궐동 708-6번지","category":"수리서비스 - 세탁소"}]},{"lat":"37.160223871","long":"127.05703292","items":[{"name":"아름방","tel":"031-378-6750","addr":"경기도 오산시 궐동 619-6번지 102호","category":"직물 - 카페트,커튼,천막,지물"}]},{"lat":"37.161778928","long":"127.06470087","items":[{"name":"아모레오산중앙 서소연","tel":"031-377-8808","addr":"경기도 오산시 궐동 123-2번지 정석빌딩 2층","category":"보건위생 - 화장품"}]},{"lat":"37.157776381","long":"127.06825503","items":[{"name":"아이노스음악학원","tel":"031-375-3646","addr":"경기도 오산시 궐동 49-22번지 3층","category":"학원 - 예·체능계학원"}]},{"lat":"37.16085991","long":"127.06461006","items":[{"name":"아이디어 광고","tel":"031-373-3824","addr":"경기도 오산시 궐동 594-2번지","category":"건축자재 - 인테리어전문"}]},{"lat":"37.156859683","long":"127.06380753","items":[{"name":"아쿠아류","tel":"070-8825-3568","addr":"경기도 오산시 궐동 645-3번지 1층","category":"문화.취미 - 수족관"},{"name":"오앤오커피협동조합 카페행가로","tel":"031-374-1289","addr":"경기도 오산시 궐동 645-3번지 103호 104호","category":"일반휴게음식 - 서양음식"},{"name":"정우네순대","tel":"031-378-7071","addr":"경기도 오산시 궐동 645-3번지 동아빌 1층 102호","category":"일반휴게음식 - 일반한식"},{"name":"푸드하우스","tel":"070-8238-9266","addr":"경기도 오산시 궐동 645-3번지","category":"일반휴게음식 - 일반한식"}]},{"lat":"37.158609795","long":"127.05960979","items":[{"name":"알파문구(오산궐동점)","tel":"031-378-8518","addr":"경기도 오산시 궐동 652-4번지 구산빌딩 102호","category":"서적문구 - 문구용품"}]},{"lat":"37.158391","long":"127.06469812","items":[{"name":"앗싸다아이스크림","tel":"031-377-0443","addr":"경기도 오산시 궐동 111번지 1층","category":"음료식품 - 기타음료식품"},{"name":"착한안경","tel":"031-376-8818","addr":"경기도 오산시 궐동 111번지 1층","category":"보건위생 - 안경"},{"name":"초이스렌트카(주)오산영업소","tel":"031-378-6818","addr":"경기도 오산시 궐동 111번지 티에이치모터스오산 2층","category":"여행 - 렌터카"},{"name":"티에이치모터스","tel":"031-378-4973","addr":"경기도 오산시 궐동 111번지","category":"자동차정비 유지 - 자동차정비"},{"name":"티에이치모터스 오산","tel":"031-378-4973","addr":"경기도 오산시 궐동 111번지","category":"자동차정비 유지 - 자동차부품"},{"name":"티에이치모터스오산","tel":"031-378-4973","addr":"경기도 오산시 궐동 111번지","category":"자동차정비 유지 - 자동차정비"}]},{"lat":"37.160110199","long":"127.06805439","items":[{"name":"앙상블음악학원","tel":"031-372-8933","addr":"경기도 오산시 궐동 24-1번지 2층","category":"학원 - 예·체능계학원"},{"name":"파워크리닝","tel":"031-376-2395","addr":"경기도 오산시 궐동 24-1번지","category":"수리서비스 - 세탁소"}]},{"lat":"37.158672109","long":"127.06117467","items":[{"name":"애니오토","tel":"031-373-8203","addr":"경기도 오산시 궐동 634-7번지","category":"자동차정비 유지 - 자동차정비"}]},{"lat":"37.156612083","long":"127.053867","items":[{"name":"애플노래방","tel":"031-377-7123","addr":"경기도 오산시 궐동 687-7번지 한빛프라자","category":"레저업소 - 노 래 방"},{"name":"예박사신궐동점","tel":"031-375-1092","addr":"경기도 오산시 궐동 687-7번지","category":"일반휴게음식 - 일반한식"}]},{"lat":"37.161142885","long":"127.05714615","items":[{"name":"앤드웰","tel":"031-375-2788","addr":"경기도 오산시 궐동 621-5번지 수석빌 201호","category":"신변잡화 - 기타잡화"}]},{"lat":"37.159085294","long":"127.06375302","items":[{"name":"야무진","tel":"031-373-8015","addr":"경기도 오산시 궐동 587-5번지 1층 일부","category":"일반휴게음식 - 일반한식"},{"name":"오산김부대","tel":"031-376-9444","addr":"경기도 오산시 궐동 587-5번지 1층","category":"일반휴게음식 - 서양음식"}]},{"lat":"37.156584788","long":"127.05447488","items":[{"name":"야장 편의점 포차","tel":"031-1899-3272","addr":"경기도 오산시 궐동 689-5번지 4층","category":"일반휴게음식 - 일반한식"},{"name":"탑노래연습장","tel":"031-377-0979","addr":"경기도 오산시 궐동 689-5번지 2층","category":"레저업소 - 노 래 방"}]},{"lat":"37.159944727","long":"127.05663869","items":[{"name":"야크헤어클럽","tel":"031-377-4529","addr":"경기도 오산시 궐동 670-4번지 하나 3호","category":"보건위생 - 미용원"},{"name":"이수정피부관리","tel":"031-375-2377","addr":"경기도 오산시 궐동 670-4번지 2층","category":"보건위생 - 화장품"},{"name":"제일점핑다이어트","tel":"031-373-2383","addr":"경기도 오산시 궐동 670-4번지 하나빌딩 401호","category":"레저업소 - 헬스클럽"},{"name":"진주국수","tel":"031-111-1111","addr":"경기도 오산시 궐동 670-4번지 하나 1층 101호","category":"일반휴게음식 - 일반한식"},{"name":"초대박할인마트","tel":"031-373-3550","addr":"경기도 오산시 궐동 670-4번지 하나 1층 102호","category":"유통업 영리 - 슈퍼마켓"},{"name":"한국동신공업 주식회사","tel":"070-8283-2529","addr":"경기도 오산시 궐동 670-4번지 하나빌딩 301호","category":"전기제품 - 기타전기제품"},{"name":"한우리독서토론궐동논술교습소","tel":"070-4095-1949","addr":"경기도 오산시 궐동 670-4번지 하나 2층 201호","category":"회원제형태 - 학원"}]},{"lat":"37.156278672","long":"127.05392306","items":[{"name":"양평해장국","tel":"031-372-3270","addr":"경기도 오산시 궐동 702-2번지 1층","category":"일반휴게음식 - 일반한식"}]},{"lat":"37.157916812","long":"127.05786434","items":[{"name":"양평해장국(궐동점)","tel":"031-378-9900","addr":"경기도 오산시 궐동 664-3번지","category":"일반휴게음식 - 일반한식"},{"name":"창해수산","tel":"031-377-8588","addr":"경기도 오산시 궐동 664-3번지","category":"일반휴게음식 - 일식·회집"},{"name":"탕화쿵푸","tel":"031-000-0000","addr":"경기도 오산시 궐동 664-3번지 1층","category":"일반휴게음식 - 일반한식"}]},{"lat":"37.158389998","long":"127.06658941","items":[{"name":"억수루영양탕","tel":"031-373-2253","addr":"경기도 오산시 궐동 43-6번지 1층","category":"일반휴게음식 - 일반한식"},{"name":"축복헤어샵","tel":"031-372-0672","addr":"경기도 오산시 궐동 43-6번지 1층","category":"보건위생 - 미용원"}]},{"lat":"37.158922646","long":"127.06464226","items":[{"name":"엄마밥줘","tel":"031-378-0776","addr":"경기도 오산시 궐동 590-7번지 1층","category":"일반휴게음식 - 일반한식"}]},{"lat":"37.15783623","long":"127.05674977","items":[{"name":"엄지척마라향솥","tel":"031-375-5082","addr":"경기도 오산시 궐동 695-1번지 코즈빌 1층","category":"일반휴게음식 - 일반한식"},{"name":"코즈맥주695","tel":"031-111-1111","addr":"경기도 오산시 궐동 695-1번지 코즈빌 1층 104호","category":"일반휴게음식 - 주점"}]},{"lat":"37.156724213","long":"127.06441532","items":[{"name":"에덴바이크","tel":"031-377-8761","addr":"경기도 오산시 궐동 645-6번지 105,106호","category":"레져용품 - 스포츠·레져용품"},{"name":"이지인테리어","tel":"031-373-1061","addr":"경기도 오산시 궐동 645-6번지 궐동프라자 107호 110호","category":"건축자재 - 인테리어전문"},{"name":"혜윰보습학원","tel":"031-373-4005","addr":"경기도 오산시 궐동 645-6번지 4층","category":"학원 - 보습학원"}]},{"lat":"37.15747572","long":"127.05695216","items":[{"name":"에듀바비 영천지점","tel":"","addr":"경기도 오산시 궐동 697-1번지 그린빌 104호","category":"용역 서비스 - 사무서비스"},{"name":"족발슈퍼","tel":"070-7681-7681","addr":"경기도 오산시 궐동 697-1번지 그린빌","category":"일반휴게음식 - 일반한식"}]},{"lat":"37.158443321","long":"127.06795164","items":[{"name":"에바니아힐링케어오산궐동지사","tel":"031-372-2011","addr":"경기도 오산시 궐동 45-45번지 1층","category":"건강식품 - 기타건강식품"}]},{"lat":"37.158643509","long":"127.06428178","items":[{"name":"에이스세차장","tel":"","addr":"경기도 오산시 궐동 640-11번지","category":"자동차정비 유지 - 세차장"},{"name":"청솔모터스","tel":"031-376-8555","addr":"경기도 오산시 궐동 640-11번지","category":"자동차정비 유지 - 카인테리어"},{"name":"청솔세차장","tel":"031-376-8555","addr":"경기도 오산시 궐동 640-11번지","category":"자동차정비 유지 - 세차장"}]},{"lat":"37.160778302","long":"127.06558945","items":[{"name":"에이앤씨","tel":"031-376-4431","addr":"경기도 오산시 궐동 6-11","category":"회원제형태 - 기타4"}]},{"lat":"37.157249517","long":"127.05897835","items":[{"name":"에이플러스마트","tel":"031-375-2274","addr":"경기도 오산시 궐동 657-5번지 극동빌 101호","category":"유통업 영리 - 슈퍼마켓"},{"name":"이(e)조은세탁","tel":"031-377-2288","addr":"경기도 오산시 궐동 657-5번지","category":"수리서비스 - 세탁소"}]},{"lat":"37.159254947","long":"127.06669146","items":[{"name":"에프엠(Fm)7","tel":"031-376-7733","addr":"경기도 오산시 궐동 39-15","category":"자동차정비 유지 - 자동차부품"}]},{"lat":"37.159971997","long":"127.05610959","items":[{"name":"엔제리너스24시오산궐동점","tel":"031-0000-0000","addr":"경기도 오산시 궐동 670-1번지 백충빌딩 1층","category":"일반휴게음식 - 서양음식"},{"name":"장씨삼대한의원","tel":"031-372-8575","addr":"경기도 오산시 궐동 670-1번지 3층","category":"의원 - 한의원"},{"name":"폰부스직영점","tel":"031-378-0908","addr":"경기도 오산시 궐동 670-1번지 백충빌딩 1층 4호","category":"사무통신 - 통신기기"}]},{"lat":"37.159555622","long":"127.06017339","items":[{"name":"엘르헤어샵","tel":"031-376-2511","addr":"경기도 오산시 궐동 630-5번지","category":"보건위생 - 미용원"}]},{"lat":"37.15442224","long":"127.05456347","items":[{"name":"엠피엠","tel":"031-372-1157","addr":"경기도 오산시 궐동 708-7번지 101호","category":"자동차정비 유지 - 자동차부품"}]},{"lat":"37.156922843","long":"127.06363872","items":[{"name":"여정식당","tel":"031-378-2364","addr":"경기도 오산시 궐동 645-2번지 1층","category":"일반휴게음식 - 일반한식"}]},{"lat":"37.159221967","long":"127.06072477","items":[{"name":"연탄불족삼겹","tel":"","addr":"경기도 오산시 궐동 633-4번지 스카이빌 1층","category":"일반휴게음식 - 일반한식"}]},{"lat":"37.156615853","long":"127.06486553","items":[{"name":"영광전기조명","tel":"031-378-2570","addr":"경기도 오산시 궐동 90-2번지","category":"건축자재 - 조명기구"}]},{"lat":"37.157388782","long":"127.06852487","items":[{"name":"영락어린이집[아이행복]","tel":"031-375-2438","addr":"경기도 오산시 궐동 55-7번지","category":"학원 - 유아원"}]},{"lat":"37.159945726","long":"127.0543871","items":[{"name":"영자 PC방","tel":"","addr":"경기도 오산시 궐동 678-3번지 2층","category":"레저업소 - 기타레져업소"}]},{"lat":"37.16041848","long":"127.06445209","items":[{"name":"영재교육사","tel":"031-374-2684","addr":"경기도 오산시 궐동 593-9번지 1층 일부","category":"회원제형태 - 서적"}]},{"lat":"37.160832364","long":"127.06558949","items":[{"name":"예박사오산주식회사","tel":"031-375-1092","addr":"경기도 오산시 궐동 6-19번지","category":"일반휴게음식 - 일반한식"}]},{"lat":"37.159256295","long":"127.06413593","items":[{"name":"예은","tel":"031-374-7888","addr":"경기도 오산시 궐동 586-9번지 1층","category":"용역 서비스 - 기타용역서비스"}]},{"lat":"37.158755917","long":"127.05536572","items":[{"name":"오늘도디저트가까","tel":"","addr":"경기도 오산시 궐동 675-9번지 1층","category":"음료식품 - 제과점"}]},{"lat":"37.158061337","long":"127.05708766","items":[{"name":"오똥광","tel":"031-375-0630","addr":"경기도 오산시 궐동 665-2번지","category":"일반휴게음식 - 스넥"},{"name":"왕십리선술집","tel":"031-372-8841","addr":"경기도 오산시 궐동 665-2번지 비젼빌딩 1층","category":"일반휴게음식 - 주점"}]},{"lat":"37.155755165","long":"127.05597154","items":[{"name":"오렌지마트","tel":"031-377-2444","addr":"경기도 오산시 궐동 701-9번지","category":"유통업 영리 - 슈퍼마켓"}]},{"lat":"37.15553","long":"127.0557575","items":[{"name":"오버마인드(OVERMIND)","tel":"","addr":"경기도 오산시 궐동 705-2번지 남평빌라 상가 1층 1호","category":"보건위생 - 미용재료"},{"name":"제이케이푸드","tel":"","addr":"경기도 오산시 궐동 705-2번지 남평빌라 1층","category":"일반휴게음식 - 일반한식"}]},{"lat":"37.157004656","long":"127.06222034","items":[{"name":"오복이네곱창","tel":"031-378-9588","addr":"경기도 오산시 궐동 646-3번지 1층 102호 메르디앙 상가","category":"일반휴게음식 - 일반한식"},{"name":"우래","tel":"031-373-4446","addr":"경기도 오산시 궐동 646-3번지 메르디앙1차 101호","category":"일반휴게음식 - 일반한식"}]},{"lat":"37.157860468","long":"127.06258125","items":[{"name":"오사카부르스 궐동점","tel":"","addr":"경기도 오산시 궐동 643-1번지 2층","category":"일반휴게음식 - 일반한식"}]},{"lat":"37.159448173","long":"127.05875482","items":[{"name":"오산고려내과의원","tel":"031-372-5868","addr":"경기도 오산시 궐동 626-6번지","category":"의원 - 의원"},{"name":"오산고려내과의원","tel":"031-372-5868","addr":"경기도 오산시 궐동 626-6번지 서윤빌딩 3층","category":"의원 - 의원"},{"name":"푸른약국","tel":"031-377-9907","addr":"경기도 오산시 궐동 626-6번지 서윤빌딩 101호,102호","category":"약국 - 약국"},{"name":"화이트치과의원","tel":"031-378-2202","addr":"경기도 오산시 궐동 626-6번지","category":"의원 - 치과의원"}]},{"lat":"37.157282437","long":"127.06522632","items":[{"name":"오산시시설관리공단","tel":"031-378-8341","addr":"경기도 오산시 궐동 94","category":"용역 서비스 - 사무서비스"}]},{"lat":"37.156533217","long":"127.06774737","items":[{"name":"오산적재함","tel":"031-373-7282","addr":"경기도 오산시 궐동 73-1번지","category":"자동차정비 유지 - 자동차부품"},{"name":"장터순대국","tel":"031-378-9050","addr":"경기도 오산시 궐동 73-1번지","category":"일반휴게음식 - 일반한식"},{"name":"천지정밀","tel":"031-375-1194","addr":"경기도 오산시 궐동 73-1번지","category":"건축자재 - 기타건축자재"},{"name":"푸른열매","tel":"02-000-0000","addr":"경기도 오산시 궐동 73-1번지","category":"일반휴게음식 - 일반한식"}]},{"lat":"37.159332164","long":"127.05631178","items":[{"name":"오산지역자활센터","tel":"031-375-3322","addr":"경기도 오산시 궐동 668-2번지 다움빌","category":"자동차정비 유지 - 세차장"},{"name":"홍도아구찜","tel":"031-375-1477","addr":"경기도 오산시 궐동 668-2번지","category":"일반휴게음식 - 일반한식"}]},{"lat":"37.157890415","long":"127.05647963","items":[{"name":"오줌장군","tel":"031-378-9252","addr":"경기도 오산시 궐동 694-8번지 글루아빌 1층","category":"일반휴게음식 - 일반한식"},{"name":"하나 (HANA)","tel":"","addr":"경기도 오산시 궐동 694-8번지 글루아빌 2층","category":"일반휴게음식 - 일반한식"}]},{"lat":"37.160115105","long":"127.05841757","items":[{"name":"오즈","tel":"031-873-3327","addr":"경기도 오산시 궐동 625-3번지 광진빌 1층","category":"보건위생 - 화장품"}]},{"lat":"37.156394568","long":"127.05672624","items":[{"name":"오타쿠헤어","tel":"031-375-1066","addr":"경기도 오산시 궐동 698-3번지 서울빌딩 1층","category":"보건위생 - 미용원"}]},{"lat":"37.15586373","long":"127.05498097","items":[{"name":"오휘화장품","tel":"031-376-6432","addr":"경기도 오산시 궐동 704-8번지 가나빌 403호","category":"보건위생 - 화장품"}]},{"lat":"37.159503869","long":"127.05517485","items":[{"name":"옥이네 아구찜","tel":"031-374-4798","addr":"경기도 오산시 궐동 675-20번지","category":"일반휴게음식 - 일반한식"}]},{"lat":"37.160998656","long":"127.05728115","items":[{"name":"올리비아퀄트","tel":"031-377-4785","addr":"경기도 오산시 궐동 621-6번지 1층","category":"직물 - 침구·수예점"}]},{"lat":"37.158112761","long":"127.06258145","items":[{"name":"올챙이노래연습장","tel":"031-372-1979","addr":"경기도 오산시 궐동 641-1번지 2층","category":"레저업소 - 노 래 방"},{"name":"파리바게뜨궐동점","tel":"031-374-7000","addr":"경기도 오산시 궐동 641-1번지","category":"음료식품 - 제과점"}]},{"lat":"37.157473597","long":"127.06142141","items":[{"name":"와이코바베큐치킨","tel":"031-377-9295","addr":"경기도 오산시 궐동 648-7번지","category":"일반휴게음식 - 주점"}]},{"lat":"37.156782043","long":"127.05667022","items":[{"name":"와이푸드","tel":"031-1899-3272","addr":"경기도 오산시 궐동 697-7번지 래미안 106호","category":"일반휴게음식 - 일반한식"},{"name":"현민시스템","tel":"031-373-7999","addr":"경기도 오산시 궐동 697-7번지 1층","category":"사무통신 - 컴퓨터"}]},{"lat":"37.157971156","long":"127.05725646","items":[{"name":"왕돌판삼겹살오리","tel":"031-377-5599","addr":"경기도 오산시 궐동 665-3번지 1층","category":"일반휴게음식 - 일반한식"},{"name":"홍스쭈꾸미","tel":"031-373-6555","addr":"경기도 오산시 궐동 665-3번지 1층","category":"일반휴게음식 - 일반한식"}]},{"lat":"37.157247672","long":"127.06274963","items":[{"name":"왕십리곱창","tel":"031-377-0120","addr":"경기도 오산시 궐동 644-20번지 향기빌 102호","category":"일반휴게음식 - 일반한식"},{"name":"해적","tel":"031-377-9234","addr":"경기도 오산시 궐동 644-20번지 향기빌 101호","category":"일반휴게음식 - 주점"}]},{"lat":"37.157860621","long":"127.06227729","items":[{"name":"요거프레소 오산대점","tel":"031-378-6264","addr":"경기도 오산시 궐동 649-11번지 1층","category":"일반휴게음식 - 서양음식"}]},{"lat":"37.158641309","long":"127.06839086","items":[{"name":"요기가마식당","tel":"","addr":"경기도 오산시 궐동 45-37번지","category":"일반휴게음식 - 일반한식"}]},{"lat":"37.157692559","long":"127.05564643","items":[{"name":"용궁","tel":"031-377-3666","addr":"경기도 오산시 궐동 693-5번지 비발디 103호","category":"일반휴게음식 - 중국식"},{"name":"한씨중국식품","tel":"","addr":"경기도 오산시 궐동 693-5번지 비발디상가좌측 1호","category":"유통업 영리 - 슈퍼마켓"}]},{"lat":"37.160999163","long":"127.0561666","items":[{"name":"용마특공무술","tel":"031-377-1362","addr":"경기도 오산시 궐동 618-2번지","category":"회원제형태 - 레져업소"},{"name":"으뜸통닭2호점","tel":"031-373-4123","addr":"경기도 오산시 궐동 618-2번지 한국빌딩 1층","category":"일반휴게음식 - 스넥"}]},{"lat":"37.157664867","long":"127.0571099","items":[{"name":"용범이네인계동껍데기오산점","tel":"031-000-0000","addr":"경기도 오산시 궐동 695-3번지 목연빌딩 101호","category":"일반휴게음식 - 일반한식"}]},{"lat":"37.156778404","long":"127.0641677","items":[{"name":"용봉만두집","tel":"070-7198-8777","addr":"경기도 오산시 궐동 645-5번지 황금빌딩 1층","category":"일반휴게음식 - 중국식"},{"name":"웅이네오돌뼈","tel":"031-8058-0388","addr":"경기도 오산시 궐동 645-5번지 황금빌딩 1층","category":"일반휴게음식 - 일반한식"}]},{"lat":"37.158999284","long":"127.05517451","items":[{"name":"우곱창","tel":"031-378-5559","addr":"경기도 오산시 궐동 675-16번지 도형빌 102호","category":"일반휴게음식 - 일반한식"},{"name":"현숙이네","tel":"031-372-6180","addr":"경기도 오산시 궐동 675-16번지 도형빌 1층","category":"일반휴게음식 - 일반한식"}]},{"lat":"37.162459142","long":"127.0555259","items":[{"name":"우남어린이집[아이행복]","tel":"031-373-8040","addr":"경기도 오산시 궐동 616-1번지 우남퍼스트빌 109동 102호","category":"학원 - 유아원"}]},{"lat":"37.158226872","long":"127.0683117","items":[{"name":"우리동네밥집","tel":"031-377-4193","addr":"경기도 오산시 궐동 48-11번지 1층","category":"일반휴게음식 - 일반한식"}]},{"lat":"37.160168839","long":"127.05911561","items":[{"name":"우리세탁","tel":"031-377-7151","addr":"경기도 오산시 궐동 623-5번지 1층","category":"수리서비스 - 세탁소"}]},{"lat":"37.155170492","long":"127.05367466","items":[{"name":"우리주택관리","tel":"031-375-7971","addr":"경기도 오산시 궐동 708-1번지 1층","category":"용역 서비스 - 종합용역"}]},{"lat":"37.158888031","long":"127.06183904","items":[{"name":"우시장할매집","tel":"031-374-3028","addr":"경기도 오산시 궐동 636-7번지","category":"일반휴게음식 - 일반한식"}]},{"lat":"37.154611083","long":"127.05541914","items":[{"name":"원빈중화요리","tel":"031-8998-8122","addr":"경기도 오산시 궐동 709-2번지 해피타임 1층 103호","category":"일반휴게음식 - 중국식"},{"name":"줘마양다리구이","tel":"031-374-1611","addr":"경기도 오산시 궐동 709-2번지 해피타임 103호","category":"일반휴게음식 - 일반한식"}]},{"lat":"37.160809806","long":"127.05647043","items":[{"name":"유로코피자오산점","tel":"031-375-3133","addr":"경기도 오산시 궐동 620-1번지 아늑한빌 101호","category":"일반휴게음식 - 서양음식"}]},{"lat":"37.159360047","long":"127.0543867","items":[{"name":"유앤미헤어","tel":"031-373-9874","addr":"경기도 오산시 궐동 679-3번지","category":"보건위생 - 미용원"},{"name":"참조은항공여행사","tel":"031-378-2676","addr":"경기도 오산시 궐동 679-3번지 파스카빌딩 2층","category":"여행 - 관광여행"},{"name":"포유25 대호점","tel":"031-376-5060","addr":"경기도 오산시 궐동 679-3번지","category":"유통업 영리 - 슈퍼마켓"}]},{"lat":"37.159916589","long":"127.05902535","items":[{"name":"유엔에프에듀","tel":"070-7623-4730","addr":"경기도 오산시 궐동 625-6번지 에이스빌 102호","category":"회원제형태 - 서적"},{"name":"킨더에듀","tel":"031-8003-3595","addr":"경기도 오산시 궐동 625-6번지 에이스빌 102호","category":"회원제형태 - 서적"},{"name":"호식이두마리치킨궐동점","tel":"031-372-9248","addr":"경기도 오산시 궐동 625-6번지 에이스빌 1층","category":"일반휴게음식 - 주점"}]},{"lat":"37.158783157","long":"127.05489291","items":[{"name":"윤","tel":"031-378-7003","addr":"경기도 오산시 궐동 677-9번지 연승빌","category":"보건위생 - 화장품"}]},{"lat":"37.159943944","long":"127.05833864","items":[{"name":"윤셰프","tel":"031-375-0031","addr":"경기도 오산시 궐동 625-11번지","category":"일반휴게음식 - 서양음식"},{"name":"착한광고","tel":"070-7783-9919","addr":"경기도 오산시 궐동 625-11번지 해오름 101호","category":"용역 서비스 - 종합용역"}]},{"lat":"37.157138938","long":"127.06394284","items":[{"name":"은하식당","tel":"031-375-0965","addr":"경기도 오산시 궐동 644-9번지 1층","category":"일반휴게음식 - 주점"}]},{"lat":"37.157915358","long":"127.06091516","items":[{"name":"은혜텔레콤","tel":"031-000-0000","addr":"경기도 오산시 궐동 649-23번지 1층","category":"사무통신 - 통신기기"}]},{"lat":"37.159945628","long":"127.05461226","items":[{"name":"이디야커피오산궐동점","tel":"031-375-6776","addr":"경기도 오산시 궐동 678-2번지 ,1,2층","category":"일반휴게음식 - 서양음식"}]},{"lat":"37.159970753","long":"127.05881149","items":[{"name":"이마트24 오산궐동원룸점","tel":"","addr":"경기도 오산시 궐동 625-5번지 주생빌","category":"유통업 영리 - 편 의 점"},{"name":"이마트24 오산궐동원룸점","tel":"","addr":"경기도 오산시 궐동 625-5번지 주생빌","category":"유통업 영리 - 편 의 점"}]},{"lat":"37.159143451","long":"127.05517461","items":[{"name":"이씨부엌바지락손칼국수","tel":"031-374-9311","addr":"경기도 오산시 궐동 675-17번지 백석빌딩 1층","category":"일반휴게음식 - 일반한식"}]},{"lat":"37.157113952","long":"127.05983382","items":[{"name":"이야분식","tel":"031-378-2560","addr":"경기도 오산시 궐동 658-3번지 명지빌 1층","category":"일반휴게음식 - 스넥"}]},{"lat":"37.160838321","long":"127.05308177","items":[{"name":"이주산업조명","tel":"070-4146-4242","addr":"경기도 오산시 궐동 614-8번지 704호","category":"건축자재 - 조명기구"}]},{"lat":"37.159948011","long":"127.06805425","items":[{"name":"이지숙헤어","tel":"031-376-2476","addr":"경기도 오산시 궐동 24-4번지","category":"보건위생 - 미용원"}]},{"lat":"37.157227474","long":"127.06691491","items":[{"name":"인철이가고쳐주는집","tel":"070-6266-2574","addr":"경기도 오산시 궐동 75-4번지 301호","category":"용역 서비스 - 기타용역서비스"}]},{"lat":"37.159473878","long":"127.06150176","items":[{"name":"자람터어린이집[아이행복]","tel":"031-378-7179","addr":"경기도 오산시 궐동 635-3번지","category":"학원 - 유아원"}]},{"lat":"37.157756172","long":"127.05441939","items":[{"name":"자히르노래연습장","tel":"031-378-6300","addr":"경기도 오산시 궐동 688-4번지","category":"레저업소 - 노 래 방"}]},{"lat":"37.158085307","long":"127.06341449","items":[{"name":"전통춘천닭갈비궐동점","tel":"031-377-2836","addr":"경기도 오산시 궐동 641-5번지 금강빌딩 101호","category":"일반휴게음식 - 일반한식"},{"name":"헌터PC방 오산대점","tel":"031-378-0674","addr":"경기도 오산시 궐동 641-5번지 금강빌딩 2층","category":"레저업소 - 기타레져업소"}]},{"lat":"37.156944005","long":"127.05716567","items":[{"name":"정담은김밥","tel":"031-374-2030","addr":"경기도 오산시 궐동 696-5번지","category":"일반휴게음식 - 스넥"}]},{"lat":"37.160033484","long":"127.05953205","items":[{"name":"정수가","tel":"031-372-6381","addr":"경기도 오산시 궐동 623-7번지","category":"일반휴게음식 - 주점"}]},{"lat":"37.154891037","long":"127.05397841","items":[{"name":"제이스비","tel":"031-375-0396","addr":"경기도 오산시 궐동 708-3번지 일산빌","category":"음료식품 - 기타음료식품"}]},{"lat":"37.157030275","long":"127.06497845","items":[{"name":"제이제이","tel":"031-373-5222","addr":"경기도 오산시 궐동 93-2번지 모터프라자 102호","category":"자동차정비 유지 - 카인테리어"},{"name":"파스쿠찌오산대점","tel":"031-373-8497","addr":"경기도 오산시 궐동 93-2번지 모터프라자","category":"일반휴게음식 - 서양음식"},{"name":"현대카메이크업","tel":"031-375-7271","addr":"경기도 오산시 궐동 93-2번지 모터프라자 103호","category":"자동차정비 유지 - 카인테리어"}]},{"lat":"37.156503512","long":"127.05489135","items":[{"name":"제주도니왕철판","tel":"00-0000-0000","addr":"경기도 오산시 궐동 689-7번지 1층","category":"일반휴게음식 - 일반한식"}]},{"lat":"37.157418842","long":"127.06280605","items":[{"name":"조선닭볶음탕 궐동점","tel":"031-374-5561","addr":"경기도 오산시 궐동 644-2번지 은하빌 1층","category":"일반휴게음식 - 일반한식"}]},{"lat":"37.160277446","long":"127.05809121","items":[{"name":"조은디자인","tel":"031-372-1010","addr":"경기도 오산시 궐동 625-1번지 조은빌 1층","category":"용역 서비스 - 사무서비스"}]},{"lat":"37.157727645","long":"127.05775163","items":[{"name":"조이플","tel":"031-374-2988","addr":"경기도 오산시 궐동 665-7번지 2층","category":"일반휴게음식 - 일반한식"},{"name":"칠갑산 삼겹살","tel":"031-377-9956","addr":"경기도 오산시 궐동 665-7번지 1층","category":"일반휴게음식 - 일반한식"}]},{"lat":"37.158776422","long":"127.06846978","items":[{"name":"종국이두마리치킨","tel":"031-372-5295","addr":"경기도 오산시 궐동 35-9번지","category":"일반휴게음식 - 스넥"}]},{"lat":"37.16114305","long":"127.05678589","items":[{"name":"종로김밥궐동점","tel":"031-378-2878","addr":"경기도 오산시 궐동 621-3번지","category":"일반휴게음식 - 일반한식"}]},{"lat":"37.156803843","long":"127.06717347","items":[{"name":"종합신문지국","tel":"031-373-7665","addr":"경기도 오산시 궐동 72-1","category":"서적문구 - 정기간행물"}]},{"lat":"37.160360801","long":"127.05300265","items":[{"name":"주식회사 농수산물센터","tel":"031-374-4440","addr":"경기도 오산시 궐동 615-1번지","category":"유통업 영리 - 슈퍼마켓"}]},{"lat":"37.158282054","long":"127.06625159","items":[{"name":"주식회사 마루한","tel":"031-378-7805","addr":"경기도 오산시 궐동 42-5번지","category":"건축자재 - 기타건축자재"}]},{"lat":"37.159059954","long":"127.0603644","items":[{"name":"주식회사 삼토","tel":"","addr":"경기도 오산시 궐동 633-10번지 아트빌 1층","category":"연료판매점 - LPG 취급점"}]},{"lat":"37.157088131","long":"127.05725583","items":[{"name":"주식회사 태건산업개발","tel":"031-464-2008","addr":"경기도 오산시 궐동 696-4번지 2층","category":"건축자재 - 건축용 요업제품"},{"name":"주식회사 태건종합건설","tel":"031-464-2008","addr":"경기도 오산시 궐동 696-4번지 2층","category":"건축자재 - 부동산 분양"}]},{"lat":"37.157250535","long":"127.05678313","items":[{"name":"주식회사아주오에이랜드","tel":"031-373-3533","addr":"경기도 오산시 궐동 697-20번지","category":"사무통신 - 사무용 OA기기"}]},{"lat":"37.154061614","long":"127.05503602","items":[{"name":"주식회사진방","tel":"031-1577-7970","addr":"경기도 오산시 궐동 709-6번지 1층","category":"용역 서비스 - 부동산 중개·임대"},{"name":"행복건강기능성식품","tel":"031-377-8985","addr":"경기도 오산시 궐동 709-6번지 트인빌1 101호","category":"건강식품 - 기타건강식품"}]},{"lat":"37.157888022","long":"127.06153431","items":[{"name":"주식회사푸드메디","tel":"031-373-8567","addr":"경기도 오산시 궐동 649-7번지 정도6차 301호","category":"음료식품 - 기타음료식품"}]},{"lat":"37.159975252","long":"127.06767151","items":[{"name":"주식회사화성통신네트워크","tel":"031-366-3388","addr":"경기도 오산시 궐동 24-3번지","category":"용역 서비스 - 기타용역서비스"}]},{"lat":"37.156470371","long":"127.06733079","items":[{"name":"중앙카센타","tel":"031-263-4434","addr":"경기도 오산시 궐동 73-10번지","category":"자동차정비 유지 - 자동차정비"}]},{"lat":"37.157860383","long":"127.06275011","items":[{"name":"중평떡볶이오산점","tel":"031-377-9772","addr":"경기도 오산시 궐동 643-2번지 우성빌 1층","category":"일반휴게음식 - 스넥"},{"name":"퓨전한마당","tel":"031-373-1381","addr":"경기도 오산시 궐동 643-2번지 1층","category":"일반휴게음식 - 일반한식"}]},{"lat":"37.15885976","long":"127.06428196","items":[{"name":"쥬만지동물병원","tel":"031-374-0275","addr":"경기도 오산시 궐동 586-13번지 1층","category":"기타의료기관 - 동물병원"}]},{"lat":"37.157247921","long":"127.0622543","items":[{"name":"지어미양푼동태탕쭈꾸미","tel":"031-377-9002","addr":"경기도 오산시 궐동 648-12번지 온가족빌 1층","category":"일반휴게음식 - 일반한식"}]},{"lat":"37.15758368","long":"127.05731248","items":[{"name":"지지마(zizima)","tel":"031-374-2050","addr":"경기도 오산시 궐동 695-4번지 인아빌딩 1층","category":"회원제형태 - 기타1"},{"name":"프리스타일","tel":"031-203-0580","addr":"경기도 오산시 궐동 695-4번지 인아빌 203호","category":"의류 - 정장"},{"name":"헤어(HAIR)지지마","tel":"031-374-2050","addr":"경기도 오산시 궐동 695-4번지 인아빌딩 1층","category":"보건위생 - 미용원"}]},{"lat":"37.15894302","long":"127.05994777","items":[{"name":"진로마트D.C아울렛","tel":"031-375-1711","addr":"경기도 오산시 궐동 632-1번지 1층 상가","category":"유통업 영리 - 슈퍼마켓"}]},{"lat":"37.1587804","long":"127.06083702","items":[{"name":"진미참숯구이","tel":"031-375-2866","addr":"경기도 오산시 궐동 633-7번지 1층","category":"일반휴게음식 - 일반한식"}]},{"lat":"37.158028921","long":"127.06780494","items":[{"name":"짱구식당","tel":"031-0000-0000","addr":"경기도 오산시 궐동 48-21번지 1층","category":"일반휴게음식 - 일반한식"},{"name":"한영청과","tel":"031-374-0607","addr":"경기도 오산시 궐동 48-21번지","category":"음료식품 - 농·축·수산품"}]},{"lat":"37.158639804","long":"127.05300151","items":[{"name":"참맛돌솥시골밥상","tel":"031-374-0302","addr":"경기도 오산시 궐동 684-4번지 1층","category":"일반휴게음식 - 일반한식"}]},{"lat":"37.157032029","long":"127.06153365","items":[{"name":"참이맛감자탕","tel":"031-375-5622","addr":"경기도 오산시 궐동 647-6번지 1층 105호","category":"일반휴게음식 - 일반한식"}]},{"lat":"37.16022018","long":"127.06458703","items":[{"name":"창진에너지","tel":"031-377-5556","addr":"경기도 오산시 궐동 593-5번지","category":"연료판매점 - 유류판매"}]},{"lat":"37.160755575","long":"127.05684191","items":[{"name":"창현공조시스템","tel":"031-372-9435","addr":"경기도 오산시 궐동 620-8번지 밀란채 104호","category":"회원제형태 - 기타1"}]},{"lat":"37.159755967","long":"127.05561409","items":[{"name":"처갓집양념치킨","tel":"031-372-8998","addr":"경기도 오산시 궐동 673-1번지 청솔빌 1층","category":"일반휴게음식 - 주점"}]},{"lat":"37.158140259","long":"127.06164708","items":[{"name":"청기와 묵은지감자탕","tel":"031-377-5200","addr":"경기도 오산시 궐동 650-3번지","category":"일반휴게음식 - 일반한식"}]},{"lat":"37.161832773","long":"127.06511747","items":[{"name":"청우상사","tel":"031-374-3272","addr":"경기도 오산시 궐동 4외1필지(3-1)","category":"건축자재 - 기타건축자재"}]},{"lat":"37.157311586","long":"127.06106105","items":[{"name":"초이기획","tel":"031-372-0664","addr":"경기도 오산시 궐동 648-19 101","category":"용역 서비스 - 사무서비스"}]},{"lat":"37.157089384","long":"127.05445271","items":[{"name":"총각수산 유한회사","tel":"031-377-1889","addr":"경기도 오산시 궐동 689-2번지 1층","category":"일반휴게음식 - 일반한식"}]},{"lat":"37.158554617","long":"127.06189507","items":[{"name":"최미삼순대국","tel":"031-378-3787","addr":"경기도 오산시 궐동 637-4번지 1층","category":"일반휴게음식 - 일반한식"},{"name":"퍼스트 독 (캣)","tel":"031-373-3325","addr":"경기도 오산시 궐동 637-4번지 1층","category":"문화.취미 - 애완동물"}]},{"lat":"37.155755446","long":"127.05534113","items":[{"name":"카도리","tel":"070-4408-8055","addr":"경기도 오산시 궐동 704-9번지 강남빌딩","category":"자동차정비 유지 - 자동차부품"}]},{"lat":"37.159477046","long":"127.054702","items":[{"name":"카스키스","tel":"031-372-8172","addr":"경기도 오산시 궐동 677-20번지 세인빌 1층","category":"일반휴게음식 - 일반한식"}]},{"lat":"37.163054584","long":"127.05380377","items":[{"name":"카존","tel":"031-373-1890","addr":"경기도 오산시 궐동 611-2번지","category":"자동차정비 유지 - 세차장"},{"name":"카존워시","tel":"031-378-0447","addr":"경기도 오산시 궐동 611-2번지","category":"자동차정비 유지 - 세차장"}]},{"lat":"37.158727022","long":"127.0594185","items":[{"name":"카페베네오산대점","tel":"031-378-6889","addr":"경기도 오산시 궐동 652-3번지 1층","category":"일반휴게음식 - 서양음식"}]},{"lat":"37.159193419","long":"127.06375311","items":[{"name":"카피캣","tel":"031-378-7523","addr":"경기도 오산시 궐동 587번지","category":"사무통신 - 사무용 OA기기"}]},{"lat":"37.160332389","long":"127.05616613","items":[{"name":"캣츠앤독스","tel":"031-375-8254","addr":"경기도 오산시 궐동 619-1번지 103호","category":"문화.취미 - 애완동물"},{"name":"픽미픽미아이스 궐동점","tel":"","addr":"경기도 오산시 궐동 619-1번지 현대빌딩 105동","category":"음료식품 - 기타음료식품"},{"name":"하나치과의원","tel":"031-377-0428","addr":"경기도 오산시 궐동 619-1번지 2층","category":"의원 - 치과의원"},{"name":"휴대폰11번가","tel":"031-375-6010","addr":"경기도 오산시 궐동 619-1번지 101~102호","category":"사무통신 - 통신기기"}]},{"lat":"37.161142978","long":"127.05694351","items":[{"name":"케이제이세차장","tel":"","addr":"경기도 오산시 궐동 621-4번지","category":"자동차정비 유지 - 세차장"}]},{"lat":"37.155944183","long":"127.05642197","items":[{"name":"쿵쿵따노래연습장","tel":"031-372-2399","addr":"경기도 오산시 궐동 698-6번지 2층","category":"레저업소 - 노 래 방"}]},{"lat":"37.16114333","long":"127.0561667","items":[{"name":"크로바유통","tel":"031-375-2345","addr":"경기도 오산시 궐동 618-1번지","category":"유통업 영리 - 슈퍼마켓"}]},{"lat":"37.158448976","long":"127.0566714","items":[{"name":"큰맘할매순대국오산궐동점","tel":"031-372-2506","addr":"경기도 오산시 궐동 667-4번지 다래빌1층상가","category":"일반휴게음식 - 주점"}]},{"lat":"37.160166246","long":"127.06433931","items":[{"name":"태연닥트","tel":"031-372-1466","addr":"경기도 오산시 궐동 593-7번지","category":"건축자재 - 기타건축자재"}]},{"lat":"37.15980833","long":"127.05930672","items":[{"name":"태평양해물탕","tel":"031-374-5936","addr":"경기도 오산시 궐동 627-1번지","category":"일반휴게음식 - 일반한식"}]},{"lat":"37.160777439","long":"127.06719935","items":[{"name":"평화","tel":"031-373-5630","addr":"경기도 오산시 궐동 17-3번지","category":"음료식품 - 정육점"}]},{"lat":"37.159553494","long":"127.06441762","items":[{"name":"평화인테리어","tel":"031-372-7753","addr":"경기도 오산시 궐동 591번지","category":"건축자재 - 인테리어전문"},{"name":"피자풀","tel":"031-375-8382","addr":"경기도 오산시 궐동 591번지","category":"일반휴게음식 - 서양음식"}]},{"lat":"37.15716605","long":"127.06378526","items":[{"name":"푸르미시스템환경","tel":"031-376-5506","addr":"경기도 오산시 궐동 644-10번지 1층","category":"용역 서비스 - 종합용역"}]},{"lat":"37.161855755","long":"127.05481621","items":[{"name":"푸른숲어린이집[아이행복]","tel":"031-375-2318","addr":"경기도 오산시 궐동 616-1번지 우남퍼스트빌 101동 101호","category":"학원 - 유아원"}]},{"lat":"37.159755746","long":"127.05610943","items":[{"name":"풍광닭날개구이","tel":"031-376-9888","addr":"경기도 오산시 궐동 671-1번지 1층","category":"일반휴게음식 - 주점"},{"name":"할매순대국오산궐동점","tel":"070-4898-8889","addr":"경기도 오산시 궐동 671-1번지 1층","category":"일반휴게음식 - 일반한식"}]},{"lat":"37.161864302","long":"127.05586323","items":[{"name":"프로비전(Provision)","tel":"070-7717-3771","addr":"경기도 오산시 궐동 616-1번지 우남퍼스트빌 110동 2층 202호","category":"농업 - 비료,사료,종자"}]},{"lat":"37.161000139","long":"127.05394875","items":[{"name":"피스티스","tel":"","addr":"경기도 오산시 궐동 612-12번지 306호","category":"수리서비스 - 기타수리서비스"}]},{"lat":"37.159172863","long":"127.0685039","items":[{"name":"피앤티개발주식회사","tel":"031-905-3772","addr":"경기도 오산시 궐동 34-15번지","category":"건축자재 - 부동산 분양"},{"name":"환경닥터","tel":"031-376-2144","addr":"경기도 오산시 궐동 34-15번지","category":"용역 서비스 - 종합용역"}]},{"lat":"37.157727425","long":"127.05822445","items":[{"name":"하라주꾸","tel":"031-376-3965","addr":"경기도 오산시 궐동 653-8번지","category":"보건위생 - 미용원"}]},{"lat":"37.154944505","long":"127.05534057","items":[{"name":"하얀세탁","tel":"031-377-1451","addr":"경기도 오산시 궐동 705-6번지 테인빌 105호","category":"수리서비스 - 세탁소"},{"name":"하얀세탁소","tel":"031-377-1451","addr":"경기도 오산시 궐동 705-6번지","category":"수리서비스 - 세탁소"}]},{"lat":"37.159947793","long":"127.06844828","items":[{"name":"하쿠나","tel":"070-4007-6202","addr":"경기도 오산시 궐동 26-18번지 2층","category":"주방용구 - 주방용구"}]},{"lat":"37.158358759","long":"127.05691901","items":[{"name":"한.중.일","tel":"031-374-3749","addr":"경기도 오산시 궐동 666-10번지 1층","category":"일반휴게음식 - 주점"}]},{"lat":"37.159526806","long":"127.06375338","items":[{"name":"한가족푸드","tel":"031-373-5505","addr":"경기도 오산시 궐동 586-1번지 한일기전 1층 101호","category":"일반휴게음식 - 일반한식"}]},{"lat":"37.158830801","long":"127.06789568","items":[{"name":"한결상사","tel":"031-376-1645","addr":"경기도 오산시 궐동 36-12번지","category":"기타 - 기계공구"}]},{"lat":"37.157776213","long":"127.06855898","items":[{"name":"한림유통","tel":"031-374-6346","addr":"경기도 오산시 궐동 49-26번지","category":"음료식품 - 기타음료식품"}]},{"lat":"37.159029277","long":"127.06744554","items":[{"name":"한아름마트","tel":"031-372-3561","addr":"경기도 오산시 궐동 37-9번지","category":"유통업 영리 - 슈퍼마켓"}]},{"lat":"37.15972005","long":"127.05533261","items":[{"name":"한우정소머리국밥","tel":"031-372-4828","addr":"경기도 오산시 궐동 675-2번지","category":"일반휴게음식 - 일반한식"}]},{"lat":"37.159141103","long":"127.06025188","items":[{"name":"헤나커트샵","tel":"","addr":"경기도 오산시 궐동 633-11번지 그랑빌 1층","category":"보건위생 - 미용원"}]},{"lat":"37.155893652","long":"127.06742036","items":[{"name":"현대가구","tel":"031-375-9080","addr":"경기도 오산시 궐동 66-8번지","category":"가구 - 일반가구"}]},{"lat":"37.159056911","long":"127.06633104","items":[{"name":"현대자동차전문점","tel":"031-375-6101","addr":"경기도 오산시 궐동 40-1번지","category":"자동차정비 유지 - 자동차정비"}]},{"lat":"37.159386733","long":"127.05517477","items":[{"name":"형제자동차정비","tel":"031-376-0244","addr":"경기도 오산시 궐동 675-19번지","category":"자동차정비 유지 - 자동차정비"}]},{"lat":"37.159197638","long":"127.0548932","items":[{"name":"홍(HONG)","tel":"031-375-5277","addr":"경기도 오산시 궐동 677-5번지","category":"일반휴게음식 - 서양음식"}]},{"lat":"37.158891159","long":"127.05517443","items":[{"name":"홍아저씨네","tel":"031-377-5277","addr":"경기도 오산시 궐동 675-15번지 수원빌 1층","category":"일반휴게음식 - 스넥"}]},{"lat":"37.159497864","long":"127.06736713","items":[{"name":"화성제일건강원","tel":"031-375-5616","addr":"경기도 오산시 궐동 28-3 대우상가 105호","category":"건강식품 - 기타건강식품"}]},{"lat":"37.158670124","long":"127.06508111","items":[{"name":"화은전기","tel":"031-375-5870","addr":"경기도 오산시 궐동 588-1번지","category":"전기제품 - 기타전기제품"}]},{"lat":"37.157470708","long":"127.06700517","items":[{"name":"황금설렁탕","tel":"031-376-8352","addr":"경기도 오산시 궐동 76-3번지 [궐동]","category":"일반휴게음식 - 일반한식"}]},{"lat":"37.159610164","long":"127.05917148","items":[{"name":"효진자동차정비공업사","tel":"031-377-0065","addr":"경기도 오산시 궐동 627-3번지","category":"자동차정비 유지 - 자동차정비"}]}]