[{"lat":"37.022714923","long":"127.23979436","items":[{"name":"(주)삼성우드","tel":"031-675-3669","addr":"경기도 안성시 대덕면 모산리 412-13번지","category":"건축자재 - 목재·석재·철물"}]},{"lat":"37.04116035","long":"127.23945824","items":[{"name":"(주)인벤티오","tel":"031-366-4818","addr":"경기도 안성시 대덕면 모산리 38-1","category":"음료식품 - 제과점"}]},{"lat":"37.024964977","long":"127.24554395","items":[{"name":"(주)진행지앤텍","tel":"02-3488-8000","addr":"경기도 안성시 대덕면 모산리 478-12","category":"주방용구 - 정수기"}]},{"lat":"37.025524405","long":"127.24071336","items":[{"name":"거청낚시터","tel":"031-677-1191","addr":"경기도 안성시 대덕면 모산리 423","category":"레저업소 - 기타레져업소"}]},{"lat":"37.03965548","long":"127.24398335","items":[{"name":"경기지게차정비","tel":"033-618-0094","addr":"경기도 안성시 대덕면 모산리 96번지","category":"수리서비스 - 기타수리서비스"}]},{"lat":"37.030156877","long":"127.24021082","items":[{"name":"굳싸인","tel":"070-4652-0048","addr":"경기도 안성시 대덕면 모산리 360-2번지","category":"건축자재 - 인테리어전문"}]},{"lat":"37.038961872","long":"127.24388","items":[{"name":"금화종합식품","tel":"031-665-5127","addr":"경기도 안성시 대덕면 모산리 98번지","category":"음료식품 - 기타음료식품"},{"name":"농부의아들","tel":"031-656-9254","addr":"경기도 안성시 대덕면 모산리 98","category":"음료식품 - 기타음료식품"}]},{"lat":"37.024878876","long":"127.24357703","items":[{"name":"남한산성","tel":"031-671-0077","addr":"경기도 안성시 대덕면 모산리 498-6","category":"일반휴게음식 - 일반한식"}]},{"lat":"37.033879938","long":"127.2438527","items":[{"name":"누렁이과수원","tel":"031-675-4080","addr":"경기도 안성시 대덕면 모산리 190-9번지","category":"음료식품 - 농·축·수산품"}]},{"lat":"37.030801324","long":"127.23785267","items":[{"name":"닐넬코","tel":"070-8779-6388","addr":"경기도 안성시 대덕면 모산리 359-6번지 1층","category":"전기제품 - 가전제품"}]},{"lat":"37.027192196","long":"127.24476435","items":[{"name":"대덕초등학교","tel":"031-676-0630","addr":"경기도 안성시 대덕면 모산리 463번지 대덕초등학교","category":"학원 - 초중고교육기관"},{"name":"대덕초등학교 병설유치원[아이행복]","tel":"031-676-0630","addr":"경기도 안성시 대덕면 모산리 463번지 대덕초등학교","category":"학원 - 유치원"}]},{"lat":"37.025719335","long":"127.23784826","items":[{"name":"동강송어회장","tel":"031-676-5655","addr":"경기도 안성시 대덕면 모산리 401-4번지","category":"일반휴게음식 - 일식·회집"}]},{"lat":"37.024689335","long":"127.24373377","items":[{"name":"복사골","tel":"031-674-2203","addr":"경기도 안성시 대덕면 모산리 478-9번지","category":"일반휴게음식 - 일반한식"}]},{"lat":"37.042991255","long":"127.24307216","items":[{"name":"부자산업기계","tel":"031-671-3652","addr":"경기도 안성시 대덕면 모산리 20-4번지","category":"기타 - 기계공구"}]},{"lat":"37.031990453","long":"127.23799121","items":[{"name":"성원이앤에스(주)안성지점","tel":"031-671-6789","addr":"경기도 안성시 대덕면 모산리 359-15","category":"연료판매점 - GS 가스충전소"},{"name":"성원이앤에스(주)안성지점","tel":"031-671-6789","addr":"경기도 안성시 대덕면 모산리 359-15","category":"연료판매점 - GS주유소"},{"name":"숯불구이백반","tel":"031-672-5983","addr":"경기도 안성시 대덕면 모산리 359-15번지 1층","category":"일반휴게음식 - 일반한식"}]},{"lat":"37.02574339","long":"127.243827","items":[{"name":"세븐일레븐안성대덕본점","tel":"031-1577-0711","addr":"경기도 안성시 대덕면 모산리 479-5번지","category":"유통업 영리 - 편 의 점"}]},{"lat":"37.040213344","long":"127.23990491","items":[{"name":"신영가설산업","tel":"031-672-2996","addr":"경기도 안성시 대덕면 모산리 53-5","category":"건축자재 - 기타건축자재"}]},{"lat":"37.03287711","long":"127.24515327","items":[{"name":"안성과수농업협동조합(경제사업소)","tel":"031-671-8120","addr":"경기도 안성시 대덕면 모산리 188-1번지","category":"음료식품 - 농·축·수산품"}]},{"lat":"37.025883059","long":"127.23707334","items":[{"name":"안성에너지","tel":"031-672-2212","addr":"경기도 안성시 대덕면 모산리 396-3번지 안성에너지LPG충전소","category":"연료판매점 - E1가스충전소"},{"name":"안성에너지","tel":"031-672-2212","addr":"경기도 안성시 대덕면 모산리 396-3번지","category":"연료판매점 - E1가스충전소"}]},{"lat":"37.0368224","long":"127.24137802","items":[{"name":"에스에이산업","tel":"031-673-5210","addr":"경기도 안성시 대덕면 모산리 213-13번지 나동","category":"기타 - 기계공구"}]},{"lat":"37.029408706","long":"127.24481633","items":[{"name":"엘케이","tel":"031-671-3577","addr":"경기도 안성시 대덕면 모산리 328-5번지","category":"기타 - 기계공구"}]},{"lat":"37.025634913","long":"127.23495982","items":[{"name":"오피스텔","tel":"","addr":"경기도 안성시 대덕면 모산리 397-4번지","category":"용역 서비스 - 부동산 중개·임대"}]},{"lat":"37.039078059","long":"127.24873607","items":[{"name":"주식회사 엔아이","tel":"031-676-3301","addr":"경기도 안성시 대덕면 모산리 127-6번지","category":"기타 - 기계공구"}]},{"lat":"37.025655861","long":"127.23805035","items":[{"name":"중앙중장비센타","tel":"031-675-2328","addr":"경기도 안성시 대덕면 모산리 402-2","category":"수리서비스 - 기타수리서비스"}]},{"lat":"37.026328027","long":"127.2443458","items":[{"name":"초롱수퍼","tel":"031-000-0000","addr":"경기도 안성시 대덕면 모산리 474번지","category":"신변잡화 - 기타잡화"}]},{"lat":"37.033962287","long":"127.2432348","items":[{"name":"팜카페 빨간머리앤","tel":"031-674-4055","addr":"경기도 안성시 대덕면 모산리 191-8번지","category":"일반휴게음식 - 서양음식"}]},{"lat":"37.026102969","long":"127.24424394","items":[{"name":"행복하나 탁송대리","tel":"031-675-2931","addr":"경기도 안성시 대덕면 모산리 474-5번지 비봉주택 201호","category":"보건위생 - 기타대인서비스"}]}]