[{"lat":"37.007024846","long":"127.27065405","items":[{"name":"(주)독립문 안성직영점","tel":"031-672-8910","addr":"경기도 안성시 서인동 5번지","category":"레져용품 - 스포츠·레져용품"},{"name":"김창숙부띠끄","tel":"031-674-2091","addr":"경기도 안성시 서인동 5번지","category":"의류 - 정장"},{"name":"이든네이처","tel":"031-673-4234","addr":"경기도 안성시 서인동 5번지","category":"건강식품 - 기타건강식품"},{"name":"평안엘앤씨(주)안성직영점","tel":"031-672-8910","addr":"경기도 안성시 서인동 5번지","category":"레져용품 - 스포츠·레져용품"},{"name":"황한의원","tel":"031-676-3232","addr":"경기도 안성시 서인동 5번지","category":"의원 - 한의원"}]},{"lat":"37.006387977","long":"127.269371","items":[{"name":"(주)우정고속관광여행사","tel":"031-674-4456","addr":"경기도 안성시 서인동 60번지 3층","category":"여행 - 관광여행"},{"name":"안성한주의원","tel":"031-674-7501","addr":"경기도 안성시 서인동 60번지 남경빌딩 2층","category":"의원 - 의원"},{"name":"원심고무상회","tel":"031-675-8087","addr":"경기도 안성시 서인동 60번지","category":"신변잡화 - 신발"},{"name":"킴스핫요가&필라테스","tel":"031-677-3383","addr":"경기도 안성시 서인동 60번지 2층","category":"레저업소 - 헬스클럽"}]},{"lat":"37.007024542","long":"127.27078888","items":[{"name":"(주)풋마트코리아안성점","tel":"070-7162-2558","addr":"경기도 안성시 서인동 5-1번지 제1호","category":"레져용품 - 스포츠·레져용품"},{"name":"마르스","tel":"031-672-1283","addr":"경기도 안성시 서인동 5-1번지 2층","category":"일반휴게음식 - 일반한식"}]},{"lat":"37.007082296","long":"127.26914872","items":[{"name":"1001안경원","tel":"031-677-1001","addr":"경기도 안성시 서인동 70-1번지","category":"보건위생 - 안경"},{"name":"롯데헤어미본라이프","tel":"031-673-4123","addr":"경기도 안성시 서인동 70-1번지","category":"보건위생 - 미용원"},{"name":"바디","tel":"031-672-3611","addr":"경기도 안성시 서인동 70-1번지","category":"보건위생 - 화장품"},{"name":"프라자약국","tel":"031-672-2274","addr":"경기도 안성시 서인동 70-1번지","category":"약국 - 약국"},{"name":"홍내과","tel":"031-675-2478","addr":"경기도 안성시 서인동 70-1번지","category":"의원 - 의원"}]},{"lat":"37.006746581","long":"127.2701812","items":[{"name":"103베트남쌀국수","tel":"031-000-0000","addr":"경기도 안성시 서인동 13-1번지 A동 16호","category":"일반휴게음식 - 일반한식"},{"name":"Sanmai23","tel":"","addr":"경기도 안성시 서인동 13-1번지","category":"의류 - 정장"},{"name":"귀부인","tel":"031-676-5623","addr":"경기도 안성시 서인동 13-1번지 B5호","category":"의류 - 내의판매"},{"name":"꽃샘상회","tel":"031-675-2808","addr":"경기도 안성시 서인동 13-1번지","category":"의류 - 정장"},{"name":"너른메이커스튜디오","tel":"031-677-5478","addr":"경기도 안성시 서인동 13-1번지 A동 24호","category":"문화.취미 - 문화취미기타"},{"name":"릴리유","tel":"031-672-7644","addr":"경기도 안성시 서인동 13-1번지","category":"의류 - 아동의류"},{"name":"명성상회","tel":"031-676-5317","addr":"경기도 안성시 서인동 13-1번지 B동 31호","category":"신변잡화 - 기타잡화"},{"name":"미엘(miel)","tel":"031-656-7644","addr":"경기도 안성시 서인동 13-1번지 B동 17-2호","category":"의류 - 정장"},{"name":"블랑디자인","tel":"","addr":"경기도 안성시 서인동 13-1번지 B동 1층,2층 24호","category":"건축자재 - 인테리어전문"},{"name":"세컨드코너","tel":"031-676-3669","addr":"경기도 안성시 서인동 13-1번지 B동 1층 13,14호","category":"일반휴게음식 - 서양음식"},{"name":"세탁나라","tel":"031-671-5509","addr":"경기도 안성시 서인동 13-1번지 B-13","category":"수리서비스 - 세탁소"},{"name":"송이양품","tel":"031-673-0189","addr":"경기도 안성시 서인동 13-1번지","category":"의류 - 정장"},{"name":"오디너리템퍼러쳐","tel":"031-676-3669","addr":"경기도 안성시 서인동 13-1번지 A19, 20호","category":"일반휴게음식 - 서양음식"},{"name":"우주청년카페","tel":"","addr":"경기도 안성시 서인동 13-1번지 B동 18호,19호","category":"음료식품 - 제과점"},{"name":"은주네칼국수","tel":"031-677-0706","addr":"경기도 안성시 서인동 13-1번지 B동 1층 8호","category":"일반휴게음식 - 일반한식"},{"name":"장터칼국수","tel":"031-674-4645","addr":"경기도 안성시 서인동 13-1번지 B7호","category":"일반휴게음식 - 일반한식"},{"name":"제이음(JHMMM)","tel":"031-000-0000","addr":"경기도 안성시 서인동 13-1번지 A동 17호","category":"신변잡화 - 액세서리"},{"name":"주식회사 안성그린공판장","tel":"031-675-3396","addr":"경기도 안성시 서인동 13-1번지 지층","category":"유통업 영리 - 슈퍼마켓"},{"name":"주식회사 화인유통","tel":"031-675-3366","addr":"경기도 안성시 서인동 13-1번지","category":"유통업 영리 - 슈퍼마켓"},{"name":"탐나영","tel":"","addr":"경기도 안성시 서인동 13-1번지 1,2층 B41호","category":"보건위생 - 피부미용실"},{"name":"튀김's(에쓰)","tel":"031-677-0334","addr":"경기도 안성시 서인동 13-1번지 B동 41호","category":"일반휴게음식 - 일반한식"},{"name":"패션왕","tel":"031-677-6314","addr":"경기도 안성시 서인동 13-1번지","category":"의류 - 정장"},{"name":"포장마차","tel":"02-1111-1111","addr":"경기도 안성시 서인동 13-1번지 1층 A34호","category":"일반휴게음식 - 일반한식"},{"name":"프리미엄중화요리청춘","tel":"031-675-9986","addr":"경기도 안성시 서인동 13-1번지 A14호,15호","category":"일반휴게음식 - 중국식"}]},{"lat":"37.006854202","long":"127.27040628","items":[{"name":"B (비)47","tel":"031-677-6854","addr":"경기도 안성시 서인동 13-16번지 B동 47호","category":"의류 - 정장"},{"name":"서인동육장","tel":"031-671-6933","addr":"경기도 안성시 서인동 13-16번지 1층 A12호","category":"일반휴게음식 - 일반한식"},{"name":"선일상회","tel":"031-675-4758","addr":"경기도 안성시 서인동 13-16번지","category":"의류 - 정장"},{"name":"중앙흑염소","tel":"031-675-6765","addr":"경기도 안성시 서인동 13-16번지","category":"건강식품 - 기타건강식품"}]},{"lat":"37.00727008","long":"127.26978979","items":[{"name":"JNJ실용음악학원","tel":"031-673-0222","addr":"경기도 안성시 서인동 53-1번지 3층","category":"회원제형태 - 학원"},{"name":"지센안성점","tel":"031-675-2340","addr":"경기도 안성시 서인동 53-1번지","category":"레져용품 - 스포츠·레져용품"},{"name":"지센안성점","tel":"031-675-2340","addr":"경기도 안성시 서인동 53-1번지","category":"의류 - 스포츠의류"},{"name":"행운사","tel":"031-671-3968","addr":"경기도 안성시 서인동 53-1번지","category":"기타 - 기계공구"}]},{"lat":"37.007217253","long":"127.26923907","items":[{"name":"J왁싱&뷰티","tel":"031-677-0677","addr":"경기도 안성시 서인동 65번지","category":"보건위생 - 피부미용실"},{"name":"광신피부미용","tel":"031-676-1265","addr":"경기도 안성시 서인동 65번지","category":"회원제형태 - 기타4"},{"name":"광신헤어스케치","tel":"031-675-5642","addr":"경기도 안성시 서인동 65번지","category":"보건위생 - 미용원"},{"name":"남대문안경콘택트","tel":"031-677-7765","addr":"경기도 안성시 서인동 65번지","category":"보건위생 - 안경"},{"name":"라이프치과의원","tel":"031-671-2804","addr":"경기도 안성시 서인동 65번지","category":"의원 - 치과의원"},{"name":"명품찹쌀꽈배기","tel":"031-1111-1111","addr":"경기도 안성시 서인동 65번지","category":"일반휴게음식 - 스넥"},{"name":"블루진","tel":"031-674-0065","addr":"경기도 안성시 서인동 65번지","category":"의류 - 정장"},{"name":"우성모바일","tel":"031-671-9010","addr":"경기도 안성시 서인동 65번지","category":"사무통신 - 통신기기"},{"name":"우조","tel":"031-677-0131","addr":"경기도 안성시 서인동 65번지","category":"일반휴게음식 - 서양음식"}]},{"lat":"37.006078911","long":"127.27057209","items":[{"name":"O.K식당","tel":"031-675-6091","addr":"경기도 안성시 서인동 20번지","category":"일반휴게음식 - 일반한식"},{"name":"낙원보석","tel":"031-672-0970","addr":"경기도 안성시 서인동 20번지","category":"신변잡화 - 귀금속"},{"name":"안성콩나물국밥","tel":"","addr":"경기도 안성시 서인동 20번지 1층","category":"일반휴게음식 - 일반한식"},{"name":"탕탕추어랑장어랑","tel":"031-673-7551","addr":"경기도 안성시 서인동 20번지 1층","category":"일반휴게음식 - 일반한식"}]},{"lat":"37.006993424","long":"127.26859788","items":[{"name":"PLUS (플러스)","tel":"","addr":"경기도 안성시 서인동 82-1번지 3층","category":"보건위생 - 기타대인서비스"},{"name":"안성시한의사회","tel":"031-671-7582","addr":"경기도 안성시 서인동 82-1번지 2층 경희우리한의원","category":"기타 - 비영리/비대상"},{"name":"안성종로약국","tel":"031-675-5544","addr":"경기도 안성시 서인동 82-1","category":"약국 - 약국"},{"name":"우리한의원","tel":"031-671-7582","addr":"경기도 안성시 서인동 82-1.2층","category":"의원 - 한의원"},{"name":"천보상회","tel":"031-674-8338","addr":"경기도 안성시 서인동 82-1번지","category":"의류 - 정장"}]},{"lat":"37.007353671","long":"127.26867778","items":[{"name":"WORLD FOOD","tel":"031-678-8088","addr":"경기도 안성시 서인동 87-2번지","category":"음료식품 - 기타음료식품"}]},{"lat":"37.007026845","long":"127.26976647","items":[{"name":"girl스토리","tel":"031-677-0334","addr":"경기도 안성시 서인동 56-14번지","category":"의류 - 정장"},{"name":"걸스홀릭 (girls holic)","tel":"031-673-4662","addr":"경기도 안성시 서인동 56-14번지 제지동1,2층1호","category":"의류 - 정장"},{"name":"리얼민트","tel":"031-672-7644","addr":"경기도 안성시 서인동 56-14번지","category":"의류 - 정장"},{"name":"블루키키","tel":"031-677-2337","addr":"경기도 안성시 서인동 56-14번지 D동 2층 9호","category":"의류 - 아동의류"},{"name":"안성TRY","tel":"031-673-3921","addr":"경기도 안성시 서인동 56-14번지","category":"의류 - 내의판매"},{"name":"알곡숙녀복","tel":"031-673-4438","addr":"경기도 안성시 서인동 56-14번지","category":"의류 - 정장"}]},{"lat":"37.00610832","long":"127.26951608","items":[{"name":"개미미용실","tel":"031-673-2023","addr":"경기도 안성시 서인동 61번지","category":"보건위생 - 미용원"},{"name":"둥지","tel":"031-671-8324","addr":"경기도 안성시 서인동 61번지","category":"일반휴게음식 - 일반한식"},{"name":"배달삼겹돼지되지","tel":"031-675-0582","addr":"경기도 안성시 서인동 61번지 1층","category":"일반휴게음식 - 일반한식"},{"name":"성미식당","tel":"031-672-5710","addr":"경기도 안성시 서인동 61번지","category":"일반휴게음식 - 스넥"},{"name":"춘몽","tel":"031-677-3288","addr":"경기도 안성시 서인동 61번지","category":"일반휴게음식 - 일반한식"},{"name":"치맥하우스","tel":"031-673-2023","addr":"경기도 안성시 서인동 61번지 1층","category":"일반휴게음식 - 주점"},{"name":"한결뜨게방","tel":"031-674-8882","addr":"경기도 안성시 서인동 61번지","category":"직물 - 침구·수예점"}]},{"lat":"37.007246851","long":"127.26809317","items":[{"name":"거인상사(BYC)","tel":"031-674-6144","addr":"경기도 안성시 서인동 99번지","category":"의류 - 내의판매"},{"name":"교대파닭","tel":"031-671-8787","addr":"경기도 안성시 서인동 99번지","category":"일반휴게음식 - 주점"},{"name":"차밍홈","tel":"031-675-3275","addr":"경기도 안성시 서인동 99번지","category":"직물 - 침구·수예점"}]},{"lat":"37.006715277","long":"127.26806885","items":[{"name":"고향떡집","tel":"031-673-7874","addr":"경기도 안성시 서인동 103번지","category":"음료식품 - 제과점"},{"name":"생활용품땡백화점","tel":"031-671-8656","addr":"경기도 안성시 서인동 103번지","category":"신변잡화 - 기타잡화"}]},{"lat":"37.007133733","long":"127.27031738","items":[{"name":"광신만물","tel":"031-673-5959","addr":"경기도 안성시 서인동 8","category":"전기제품 - 기타전기제품"},{"name":"투미 (2ME)","tel":"031-677-0069","addr":"경기도 안성시 서인동 8번지","category":"레져용품 - 스포츠·레져용품"}]},{"lat":"37.006498822","long":"127.26815798","items":[{"name":"국밥먹는날","tel":"031-672-6921","addr":"경기도 안성시 서인동 109번지","category":"일반휴게음식 - 일반한식"},{"name":"서인순대국","tel":"031-672-6921","addr":"경기도 안성시 서인동 109번지","category":"일반휴게음식 - 일반한식"},{"name":"진미칼국수","tel":"031-676-2222","addr":"경기도 안성시 서인동 109번지","category":"일반휴게음식 - 일반한식"}]},{"lat":"37.007189364","long":"127.26962098","items":[{"name":"국수나무","tel":"031-673-9305","addr":"경기도 안성시 서인동 53-4번지","category":"일반휴게음식 - 스넥"},{"name":"권소아과의원","tel":"031-677-0134","addr":"경기도 안성시 서인동 53-4번지","category":"의원 - 의원"},{"name":"서울약국","tel":"031-675-2236","addr":"경기도 안성시 서인동 53-4번지","category":"약국 - 약국"},{"name":"서울이비인후과의원","tel":"031-676-9975","addr":"경기도 안성시 서인동 53-4번지","category":"의원 - 의원"}]},{"lat":"37.006578509","long":"127.26878743","items":[{"name":"궁전회관","tel":"031-674-6335","addr":"경기도 안성시 서인동 81번지","category":"일반휴게음식 - 일반한식"},{"name":"삼거리포차","tel":"031-676-2665","addr":"경기도 안성시 서인동 81번지 1층","category":"일반휴게음식 - 일반한식"},{"name":"안성복떡집","tel":"031-675-2752","addr":"경기도 안성시 서인동 81번지","category":"음료식품 - 제과점"},{"name":"제일혼수","tel":"031-675-4400","addr":"경기도 안성시 서인동 81번지","category":"직물 - 침구·수예점"}]},{"lat":"37.006331841","long":"127.2702921","items":[{"name":"귀례의류","tel":"031-675-3493","addr":"경기도 안성시 서인동 37번지","category":"의류 - 정장"},{"name":"삼삼오오맛집","tel":"031-673-3555","addr":"경기도 안성시 서인동 37번지","category":"일반휴게음식 - 일반한식"},{"name":"성심양장","tel":"031-676-3189","addr":"경기도 안성시 서인동 37번지","category":"의류 - 맞춤복점"},{"name":"안성미용실","tel":"031-676-5010","addr":"경기도 안성시 서인동 37번지","category":"보건위생 - 미용원"}]},{"lat":"37.007381935","long":"127.26812735","items":[{"name":"규현고무상회","tel":"031-673-0314","addr":"경기도 안성시 서인동 95번지","category":"신변잡화 - 제화"}]},{"lat":"37.006556118","long":"127.27073106","items":[{"name":"그때그맛집","tel":"031-671-2269","addr":"경기도 안성시 서인동 13-25번지 1층","category":"일반휴게음식 - 일반한식"},{"name":"은선한복","tel":"031-673-9441","addr":"경기도 안성시 서인동 13-25번지","category":"의류 - 맞춤복점"},{"name":"하리하리","tel":"031-671-8090","addr":"경기도 안성시 서인동 13-25번지","category":"의류 - 정장"}]},{"lat":"37.007108268","long":"127.26962069","items":[{"name":"그때그집","tel":"031-675-5268","addr":"경기도 안성시 서인동 53-6번지","category":"일반휴게음식 - 일반한식"},{"name":"안성중앙통신","tel":"031-674-1472","addr":"경기도 안성시 서인동 53-6번지","category":"사무통신 - 통신기기"},{"name":"안성중앙통신_PS","tel":"031-674-1472","addr":"경기도 안성시 서인동 53-6번지","category":"사무통신 - 통신기기"}]},{"lat":"37.006523186","long":"127.269349","items":[{"name":"그린인견","tel":"031-674-2877","addr":"경기도 안성시 서인동 60-4번지","category":"의류 - 정장"},{"name":"모아슈즈","tel":"031-672-9398","addr":"경기도 안성시 서인동 60-4번지","category":"신변잡화 - 신발"},{"name":"줌마","tel":"031-672-9398","addr":"경기도 안성시 서인동 60-4번지","category":"의류 - 정장"}]},{"lat":"37.006775356","long":"127.26940606","items":[{"name":"금산인삼","tel":"031-673-0333","addr":"경기도 안성시 서인동 58번지 1층","category":"건강식품 - 인삼제품"},{"name":"올네이션안성맞춤경기지사","tel":"031-691-1316","addr":"경기도 안성시 서인동 58번지 2층","category":"보건위생 - 화장품"}]},{"lat":"37.006660409","long":"127.26842819","items":[{"name":"금성당","tel":"031-675-3521","addr":"경기도 안성시 서인동 102-1번지","category":"신변잡화 - 시계"},{"name":"금성종합수입상품코너","tel":"031-677-0565","addr":"경기도 안성시 서인동 102-1번지","category":"신변잡화 - 기타잡화"},{"name":"새한우정육점","tel":"031-675-1857","addr":"경기도 안성시 서인동 102-1번지","category":"음료식품 - 정육점"},{"name":"샤론숙녀복","tel":"031-671-0584","addr":"경기도 안성시 서인동 102-1번지","category":"의류 - 정장"},{"name":"서연순대국","tel":"","addr":"경기도 안성시 서인동 102-1번지","category":"일반휴게음식 - 일반한식"},{"name":"좋은친구들","tel":"031-674-3521","addr":"경기도 안성시 서인동 102-1번지","category":"일반휴게음식 - 일반한식"}]},{"lat":"37.006273933","long":"127.26798867","items":[{"name":"금성안성점","tel":"031-672-7722","addr":"경기도 안성시 서인동 116번지","category":"전기제품 - 가전제품"},{"name":"대영양품","tel":"031-675-5519","addr":"경기도 안성시 서인동 116번지","category":"의류 - 정장"},{"name":"댕기머리","tel":"031-677-9656","addr":"경기도 안성시 서인동 116번지 A동 3호","category":"보건위생 - 미용원"},{"name":"베트남식당","tel":"031-675-9647","addr":"경기도 안성시 서인동 116번지 B동 1층","category":"일반휴게음식 - 일반한식"},{"name":"서산집","tel":"031-673-7723","addr":"경기도 안성시 서인동 116번지 A동 1층 2호","category":"일반휴게음식 - 일반한식"},{"name":"아름다운 사람들","tel":"031-677-2234","addr":"경기도 안성시 서인동 116번지 A동 1층 105호","category":"보건위생 - 미용원"},{"name":"안성오일장","tel":"031-673-9959","addr":"경기도 안성시 서인동 116번지 A동","category":"일반휴게음식 - 일반한식"},{"name":"청송집","tel":"031-676-8288","addr":"경기도 안성시 서인동 116","category":"일반휴게음식 - 일반한식"}]},{"lat":"37.006165128","long":"127.26829165","items":[{"name":"길림슈퍼","tel":"031-674-9010","addr":"경기도 안성시 서인동 114번지","category":"유통업 영리 - 슈퍼마켓"},{"name":"세라미용실","tel":"031-672-8046","addr":"경기도 안성시 서인동 114번지","category":"보건위생 - 미용원"}]},{"lat":"37.007134037","long":"127.27018255","items":[{"name":"김밥천국","tel":"031-671-2377","addr":"경기도 안성시 서인동 9-1","category":"일반휴게음식 - 일반한식"},{"name":"미니골드 안성점","tel":"031-672-5614","addr":"경기도 안성시 서인동 9-1 8","category":"신변잡화 - 액세서리"},{"name":"소울웨이즈","tel":"033-000-0000","addr":"경기도 안성시 서인동 9-1","category":"의류 - 정장"},{"name":"이니스프리 안성점","tel":"031-674-6974","addr":"경기도 안성시 서인동 9-1","category":"보건위생 - 화장품"},{"name":"트렌드세터(Trend Setter)","tel":"031-676-8786","addr":"경기도 안성시 서인동 9-1번지 2층","category":"보건위생 - 미용원"}]},{"lat":"37.006607777","long":"127.2677876","items":[{"name":"농가축산정육점","tel":"031-677-0377","addr":"경기도 안성시 서인동 105-1번지","category":"음료식품 - 정육점"},{"name":"신용전자","tel":"031-675-2747","addr":"경기도 안성시 서인동 105-1번지 상가","category":"수리서비스 - 가정용품수리"},{"name":"자매반점","tel":"031-676-1190","addr":"경기도 안성시 서인동 105-1번지 2층","category":"일반휴게음식 - 중국식"}]},{"lat":"37.007024339","long":"127.27087876","items":[{"name":"뉴발란스 안성점","tel":"031-8052-8239","addr":"경기도 안성시 서인동 4번지","category":"의류 - 스포츠의류"},{"name":"로엠 안성점","tel":"070-8809-0089","addr":"경기도 안성시 서인동 4번지","category":"의류 - 정장"}]},{"lat":"37.006327319","long":"127.26829221","items":[{"name":"다사랑미용실","tel":"031-675-9924","addr":"경기도 안성시 서인동 114-2번지","category":"보건위생 - 미용원"}]},{"lat":"37.007470683","long":"127.26873437","items":[{"name":"대박정보통신","tel":"031-677-7200","addr":"경기도 안성시 서인동 86번지","category":"사무통신 - 통신기기"},{"name":"미소에스테틱","tel":"031-673-0241","addr":"경기도 안성시 서인동 86번지 2층","category":"보건위생 - 화장품"},{"name":"사랑약국","tel":"031-674-9920","addr":"경기도 안성시 서인동 86번지","category":"약국 - 약국"}]},{"lat":"37.006993248","long":"127.26867653","items":[{"name":"대성청과","tel":"031-675-3044","addr":"경기도 안성시 서인동 82-3번지","category":"음료식품 - 농·축·수산품"},{"name":"선재고무","tel":"031-672-9867","addr":"경기도 안성시 서인동 82-3번지","category":"신변잡화 - 신발"}]},{"lat":"37.005717676","long":"127.27093035","items":[{"name":"동네맛집","tel":"031-674-5521","addr":"경기도 안성시 서인동 25-2번지 2층","category":"일반휴게음식 - 일반한식"},{"name":"라이징커피카페&런치룸","tel":"031-965-5677","addr":"경기도 안성시 서인동 25-2번지","category":"일반휴게음식 - 일반한식"},{"name":"사거리칼국수","tel":"031-000-0000","addr":"경기도 안성시 서인동 25-2번지","category":"일반휴게음식 - 일반한식"},{"name":"착한밥상","tel":"031-8052-2123","addr":"경기도 안성시 서인동 25-2번지","category":"일반휴게음식 - 일반한식"},{"name":"홍승주헤어샵","tel":"031-677-2977","addr":"경기도 안성시 서인동 25-2","category":"보건위생 - 미용원"}]},{"lat":"37.006056373","long":"127.26857215","items":[{"name":"동현스피닝&헬스","tel":"031-674-9815","addr":"경기도 안성시 서인동 78번지","category":"레저업소 - 헬스클럽"},{"name":"마로니에","tel":"031-674-9993","addr":"경기도 안성시 서인동 78번지","category":"일반휴게음식 - 서양음식"},{"name":"블랙하우스","tel":"031-674-5848","addr":"경기도 안성시 서인동 78번지 1층","category":"의류 - 정장"},{"name":"양푼정육점","tel":"031-677-7786","addr":"경기도 안성시 서인동 78번지","category":"음료식품 - 정육점"},{"name":"종근당건강 건미락 안성지사","tel":"031-676-7100","addr":"경기도 안성시 서인동 78번지","category":"보건위생 - 화장품"}]},{"lat":"37.005855089","long":"127.2699309","items":[{"name":"두발로양화점","tel":"031-672-0411","addr":"경기도 안성시 서인동 50번지","category":"신변잡화 - 신발"}]},{"lat":"37.007136788","long":"127.26895791","items":[{"name":"딩동댕노래방","tel":"031-675-4582","addr":"경기도 안성시 서인동 67번지","category":"레저업소 - 노 래 방"},{"name":"체인지텔레콤","tel":"","addr":"경기도 안성시 서인동 67번지","category":"사무통신 - 통신기기"},{"name":"큐사랑","tel":"031-677-2252","addr":"경기도 안성시 서인동 67번지","category":"보건위생 - 미용원"}]},{"lat":"37.005855721","long":"127.26965002","items":[{"name":"딱좋아족발","tel":"031-673-5999","addr":"경기도 안성시 서인동 51-3번지","category":"일반휴게음식 - 일반한식"}]},{"lat":"37.006913007","long":"127.26829425","items":[{"name":"떡마루","tel":"031-675-5082","addr":"경기도 안성시 서인동 84","category":"음료식품 - 제과점"}]},{"lat":"37.007024085","long":"127.27099111","items":[{"name":"라미화장품코너","tel":"031-2-3484","addr":"경기도 안성시 서인동 3번지","category":"보건위생 - 화장품"},{"name":"아이비헤어클럽","tel":"031-675-5090","addr":"경기도 안성시 서인동 3번지","category":"보건위생 - 미용원"},{"name":"이마트24 안성성모병원점","tel":"031-000-0000","addr":"경기도 안성시 서인동 3번지","category":"유통업 영리 - 편 의 점"},{"name":"중앙미용상사","tel":"031-675-3484","addr":"경기도 안성시 서인동 3번지","category":"보건위생 - 화장품"},{"name":"홀인원골프연습장","tel":"031-673-6953","addr":"경기도 안성시 서인동 3번지","category":"레저업소 - 골프연습장"}]},{"lat":"37.007443324","long":"127.26888033","items":[{"name":"라젤로","tel":"031-673-9556","addr":"경기도 안성시 서인동 85번지","category":"의류 - 스포츠의류"},{"name":"비카페(B cafe)","tel":"031-676-2525","addr":"경기도 안성시 서인동 85번지 1층","category":"일반휴게음식 - 서양음식"},{"name":"삼성서울안과의원","tel":"031-677-1119","addr":"경기도 안성시 서인동 85번지 2층","category":"의원 - 의원"},{"name":"서울치과의원","tel":"031-672-2657","addr":"경기도 안성시 서인동 85번지","category":"의원 - 치과의원"},{"name":"신약국","tel":"031-671-7444","addr":"경기도 안성시 서인동 85번지 3층","category":"약국 - 약국"},{"name":"아리따움안성서인점","tel":"031-675-6974","addr":"경기도 안성시 서인동 85번지 1층","category":"보건위생 - 화장품"},{"name":"예소람의원","tel":"031-674-8275","addr":"경기도 안성시 서인동 85번지 3층 87-1호 외1필지","category":"의원 - 의원"},{"name":"와이스파(Y-SPA)","tel":"031-674-1707","addr":"경기도 안성시 서인동 85번지","category":"회원제형태 - 기타4"},{"name":"커먼프라자","tel":"031-674-0608","addr":"경기도 안성시 서인동 85번지","category":"의류 - 스포츠의류"},{"name":"피카소안경원","tel":"031-676-2525","addr":"경기도 안성시 서인동 85번지","category":"보건위생 - 안경"},{"name":"한진약국","tel":"031-675-5659","addr":"경기도 안성시 서인동 85번지","category":"약국 - 약국"}]},{"lat":"37.00646882","long":"127.26948364","items":[{"name":"럭키가방","tel":"070-4258-2630","addr":"경기도 안성시 서인동 60-1번지 1층","category":"신변잡화 - 가방"},{"name":"안성가방","tel":"070-4258-2630","addr":"경기도 안성시 서인동 60-1번지","category":"신변잡화 - 가방"}]},{"lat":"37.007270257","long":"127.26971114","items":[{"name":"로이드","tel":"031-675-0059","addr":"경기도 안성시 서인동 53-2번지","category":"신변잡화 - 액세서리"}]},{"lat":"37.00685296","long":"127.2709568","items":[{"name":"루디아","tel":"031-674-7424","addr":"경기도 안성시 서인동 13-3번지","category":"의류 - 정장"},{"name":"센스","tel":"031-677-3172","addr":"경기도 안성시 서인동 13-3번지","category":"의류 - 캐주얼의류"},{"name":"지혜헤어샵","tel":"031-672-8672","addr":"경기도 안성시 서인동 13-3번지","category":"보건위생 - 미용원"}]},{"lat":"37.006217758","long":"127.26893224","items":[{"name":"린나이대리점","tel":"031-675-9714","addr":"경기도 안성시 서인동 74-2번지","category":"주방용구 - 주방용구"}]},{"lat":"37.006717674","long":"127.27101251","items":[{"name":"마레몬떼","tel":"031-672-1799","addr":"경기도 안성시 서인동 13-21번지 1층","category":"레져용품 - 스포츠·레져용품"}]},{"lat":"37.006359379","long":"127.27006749","items":[{"name":"만복기능성속옷","tel":"031-677-1947","addr":"경기도 안성시 서인동 52-5번지","category":"의류 - 내의판매"}]},{"lat":"37.006858441","long":"127.26851876","items":[{"name":"만복닭집","tel":"031-675-1749","addr":"경기도 안성시 서인동 83번지","category":"일반휴게음식 - 스넥"},{"name":"만복닭집","tel":"031-675-1749","addr":"경기도 안성시 서인동 83번지","category":"음료식품 - 정육점"},{"name":"영주네식당","tel":"031-671-8152","addr":"경기도 안성시 서인동 83번지","category":"일반휴게음식 - 일반한식"},{"name":"이화여인숙","tel":"031-000-0000","addr":"경기도 안성시 서인동 83번지","category":"숙박업 - 여관/기타숙박업"},{"name":"착한식당","tel":"031-677-8200","addr":"경기도 안성시 서인동 83번지","category":"일반휴게음식 - 일반한식"},{"name":"쿠키헤어","tel":"031-676-5203","addr":"경기도 안성시 서인동 83번지","category":"보건위생 - 미용원"}]},{"lat":"37.006884164","long":"127.26910309","items":[{"name":"명동타운","tel":"031-672-0229","addr":"경기도 안성시 서인동 70-3번지","category":"의류 - 정장"},{"name":"아름방","tel":"031-676-2622","addr":"경기도 안성시 서인동 70-3번지","category":"의류 - 맞춤복점"},{"name":"행복한책가게","tel":"031-675-3789","addr":"경기도 안성시 서인동 70-3번지","category":"서적문구 - 일반서적"},{"name":"행복한책가게","tel":"031-671-7441","addr":"경기도 안성시 서인동 70-3번지","category":"서적문구 - 일반서적"}]},{"lat":"37.007079112","long":"127.27056436","items":[{"name":"명동화장품","tel":"031-675-7664","addr":"경기도 안성시 서인동 7번지","category":"보건위생 - 화장품"}]},{"lat":"37.006055819","long":"127.26881932","items":[{"name":"모이새","tel":"031-672-5750","addr":"경기도 안성시 서인동 76번지","category":"일반휴게음식 - 일반한식"},{"name":"안성허브약초","tel":"031-677-2200","addr":"경기도 안성시 서인동 76번지","category":"약국 - 한약방"},{"name":"진미양꼬치","tel":"031-673-4088","addr":"경기도 안성시 서인동 76번지","category":"일반휴게음식 - 일반한식"},{"name":"천일약국","tel":"031-675-2165","addr":"경기도 안성시 서인동 76","category":"약국 - 약국"},{"name":"퀀텀의료기","tel":"031-674-8575","addr":"경기도 안성시 서인동 76번지","category":"보건위생 - 의료용품"},{"name":"홍익탕제원","tel":"031-677-7750","addr":"경기도 안성시 서인동 76","category":"건강식품 - 기타건강식품"}]},{"lat":"37.006802009","long":"127.26957468","items":[{"name":"몬스터","tel":"031-618-8531","addr":"경기도 안성시 서인동 57-5번지","category":"의류 - 정장"}]},{"lat":"37.006497036","long":"127.26895568","items":[{"name":"미래전기","tel":"031-675-5130","addr":"경기도 안성시 서인동 72번지","category":"전기제품 - 기타전기제품"},{"name":"하나산부인과의원","tel":"031-677-7700","addr":"경기도 안성시 서인동 72번지","category":"의원 - 의원"}]},{"lat":"37.006411365","long":"127.27098896","items":[{"name":"미소온누리헤어","tel":"031-674-7938","addr":"경기도 안성시 서인동 13-43번지","category":"보건위생 - 미용원"},{"name":"씨유안성성모병원점","tel":"031-671-1991","addr":"경기도 안성시 서인동 13-43번지 1층","category":"유통업 영리 - 편 의 점"}]},{"lat":"37.006053625","long":"127.26979677","items":[{"name":"미원부산물직매장","tel":"031-674-7105","addr":"경기도 안성시 서인동 51-1번지","category":"음료식품 - 정육점"}]},{"lat":"37.006884668","long":"127.26887838","items":[{"name":"믿음건강원","tel":"031-672-1981","addr":"경기도 안성시 서인동 69-2번지","category":"건강식품 - 기타건강식품"}]},{"lat":"37.006328624","long":"127.26770798","items":[{"name":"바른축산","tel":"031-676-0322","addr":"경기도 안성시 서인동 117번지 103,104,105호","category":"음료식품 - 정육점"},{"name":"상도락유통","tel":"031-674-9335","addr":"경기도 안성시 서인동 117번지","category":"음료식품 - 농·축·수산품"},{"name":"생선마트","tel":"031-676-1805","addr":"경기도 안성시 서인동 117번지 집합건물 107호","category":"음료식품 - 농·축·수산품"},{"name":"아바이순대","tel":"031-674-0789","addr":"경기도 안성시 서인동 117번지 101호","category":"일반휴게음식 - 일반한식"},{"name":"중앙패션","tel":"031-672-7644","addr":"경기도 안성시 서인동 117번지 5호","category":"신변잡화 - 신발"},{"name":"중앙헤어샵","tel":"031-673-4256","addr":"경기도 안성시 서인동 117번지","category":"보건위생 - 미용원"},{"name":"화장품백화점","tel":"031-676-2818","addr":"경기도 안성시 서인동 117번지","category":"보건위생 - 화장품"},{"name":"화장품백화점","tel":"031-676-2818","addr":"경기도 안성시 서인동 117번지","category":"보건위생 - 화장품"}]},{"lat":"37.006389463","long":"127.26870813","items":[{"name":"밥도둑","tel":"031-674-5461","addr":"경기도 안성시 서인동 80번지 외1필지 1층","category":"음료식품 - 기타음료식품"}]},{"lat":"37.00702735","long":"127.26954176","items":[{"name":"보디가드","tel":"031-674-0399","addr":"경기도 안성시 서인동 55-3번지","category":"레져용품 - 스포츠·레져용품"},{"name":"안성랜드로바","tel":"031-676-2385","addr":"경기도 안성시 서인동 55-3번지","category":"신변잡화 - 신발"},{"name":"이석아뜨리에","tel":"031-658-7668","addr":"경기도 안성시 서인동 55-3번지","category":"보건위생 - 미용원"}]},{"lat":"37.006714975","long":"127.26820368","items":[{"name":"보령떡방앗간","tel":"031-675-6700","addr":"경기도 안성시 서인동 102번지 1층","category":"음료식품 - 제과점"},{"name":"유림슈퍼","tel":"031-675-6600","addr":"경기도 안성시 서인동 102번지","category":"음료식품 - 기타음료식품"}]},{"lat":"37.006742685","long":"127.26790042","items":[{"name":"보체수산","tel":"031-674-5992","addr":"경기도 안성시 서인동 104번지","category":"음료식품 - 농·축·수산품"},{"name":"태평양수산","tel":"031-672-0528","addr":"경기도 안성시 서인동 104번지 3호","category":"음료식품 - 농·축·수산품"},{"name":"한강약국","tel":"031-672-2265","addr":"경기도 안성시 서인동 104번지 105호","category":"약국 - 약국"},{"name":"한경식당","tel":"031-000-0000","addr":"경기도 안성시 서인동 104번지 1층","category":"일반휴게음식 - 일반한식"}]},{"lat":"37.007215815","long":"127.26987948","items":[{"name":"봄약국","tel":"031-671-0799","addr":"경기도 안성시 서인동 53번지","category":"약국 - 약국"},{"name":"어묵이랑 강정이랑","tel":"031-675-7707","addr":"경기도 안성시 서인동 53번지","category":"일반휴게음식 - 일반한식"},{"name":"운동스포츠","tel":"031-671-2688","addr":"경기도 안성시 서인동 53번지 3층","category":"회원제형태 - 기타4"},{"name":"임영묵이비인후과","tel":"031-672-9738","addr":"경기도 안성시 서인동 53번지","category":"의원 - 의원"},{"name":"제일약초","tel":"031-676-5833","addr":"경기도 안성시 서인동 53번지","category":"음료식품 - 농·축·수산품"},{"name":"지성치과의원","tel":"031-674-5566","addr":"경기도 안성시 서인동 53번지","category":"의원 - 치과의원"},{"name":"토니모리","tel":"031-671-1885","addr":"경기도 안성시 서인동 53번지 1층","category":"보건위생 - 화장품"}]},{"lat":"37.006992241","long":"127.26912594","items":[{"name":"북경","tel":"031-675-2356","addr":"경기도 안성시 서인동 70-2번지","category":"일반휴게음식 - 중국식"}]},{"lat":"37.005917531","long":"127.270212","items":[{"name":"빈빈네일","tel":"031-674-0789","addr":"경기도 안성시 서인동 45번지 골든캐슬타워 1층 108호","category":"보건위생 - 피부미용실"},{"name":"연인들이야기","tel":"031-671-5387","addr":"경기도 안성시 서인동 45번지","category":"일반휴게음식 - 일반한식"},{"name":"황금휴게실","tel":"","addr":"경기도 안성시 서인동 45번지","category":"일반휴게음식 - 일반한식"}]},{"lat":"37.007019776","long":"127.26890132","items":[{"name":"빚은안성서인점","tel":"031-675-8651","addr":"경기도 안성시 서인동 68번지","category":"음료식품 - 제과점"}]},{"lat":"37.006937244","long":"127.26954145","items":[{"name":"삼진방앗간","tel":"031-674-3024","addr":"경기도 안성시 서인동 55-4번지","category":"음료식품 - 기타음료식품"},{"name":"안성금방","tel":"031-674-0442","addr":"경기도 안성시 서인동 55-4번지","category":"신변잡화 - 시계"},{"name":"푸른미용실","tel":"031-674-8287","addr":"경기도 안성시 서인동 55-4번지 2층","category":"보건위생 - 미용원"}]},{"lat":"37.00682942","long":"127.26940625","items":[{"name":"삼진탕제원","tel":"031-675-3364","addr":"경기도 안성시 서인동 57-2번지","category":"건강식품 - 기타건강식품"}]},{"lat":"37.005937876","long":"127.26917843","items":[{"name":"상신당","tel":"031-675-3447","addr":"경기도 안성시 서인동 64번지","category":"신변잡화 - 귀금속"},{"name":"유니트론보청기","tel":"031-676-7034","addr":"경기도 안성시 서인동 64번지","category":"보건위생 - 의료용품"}]},{"lat":"37.006159018","long":"127.27101054","items":[{"name":"새안성약국","tel":"031-674-7585","addr":"경기도 안성시 서인동 14번지 안성성모병원 1층 101호","category":"약국 - 약국"},{"name":"서인약국","tel":"02-701-7188","addr":"경기도 안성시 서인동 14번지 희망빌딩 1층 103호","category":"약국 - 약국"},{"name":"안성성모치과의원","tel":"031-676-2877","addr":"경기도 안성시 서인동 14번지 희망빌딩 3층 302호","category":"의원 - 치과의원"},{"name":"의료법인청천의료재단","tel":"031-675-6007","addr":"경기도 안성시 서인동 14번지","category":"병원 - 종합병원"},{"name":"지에스파크24(주)안성성모병원주차장","tel":"02-3272-3500","addr":"경기도 안성시 서인동 14번지 안성희망빌딩","category":"자동차정비 유지 - 주차장"},{"name":"카페희망/(주)메드빌트","tel":"031-675-6007","addr":"경기도 안성시 서인동 14번지 안성성모병원 1층","category":"일반휴게음식 - 서양음식"},{"name":"풍원농약사","tel":"031-675-3875","addr":"경기도 안성시 서인동 14번지","category":"농업 - 비료,사료,종자"}]},{"lat":"37.006222701","long":"127.27074112","items":[{"name":"송송송떡볶이","tel":"","addr":"경기도 안성시 서인동 16번지 1층 2호","category":"일반휴게음식 - 스넥"}]},{"lat":"37.005910213","long":"127.26945922","items":[{"name":"술먹는하마","tel":"031-675-1917","addr":"경기도 안성시 서인동 61-2번지","category":"일반휴게음식 - 주점"},{"name":"코털네고기백화점","tel":"031-675-4545","addr":"경기도 안성시 서인동 61-2번지","category":"음료식품 - 정육점"}]},{"lat":"37.006939662","long":"127.26846287","items":[{"name":"슈마트","tel":"031-672-9900","addr":"경기도 안성시 서인동 82번지","category":"신변잡화 - 신발"},{"name":"힐링","tel":"031-674-0789","addr":"경기도 안성시 서인동 82번지","category":"보건위생 - 피부미용실"}]},{"lat":"37.007161271","long":"127.27009276","items":[{"name":"스킨푸드(안성점)","tel":"031-676-4555","addr":"경기도 안성시 서인동 12-1번지 1층","category":"보건위생 - 화장품"},{"name":"에스핏 안성점","tel":"031-675-5253","addr":"경기도 안성시 서인동 12-1번지","category":"의류 - 정장"}]},{"lat":"37.007327444","long":"127.26831816","items":[{"name":"스타일코드D.H.K","tel":"031-671-8887","addr":"경기도 안성시 서인동 96번지","category":"의류 - 정장"}]},{"lat":"37.006249986","long":"127.27062887","items":[{"name":"신성온누리약국","tel":"031-675-8786","addr":"경기도 안성시 서인동 17번지","category":"약국 - 약국"},{"name":"한미아구","tel":"031-675-2467","addr":"경기도 안성시 서인동 17번지","category":"일반휴게음식 - 일반한식"}]},{"lat":"37.006915831","long":"127.27104691","items":[{"name":"아날드 바시니","tel":"031-673-6779","addr":"경기도 안성시 서인동 3-1번지","category":"의류 - 스포츠의류"},{"name":"아디다스안성점","tel":"031-672-3940","addr":"경기도 안성시 서인동 3-1번지","category":"의류 - 스포츠의류"}]},{"lat":"37.00627722","long":"127.27053908","items":[{"name":"아방스","tel":"031-675-4792","addr":"경기도 안성시 서인동 18번지","category":"직물 - 침구·수예점"},{"name":"주영양품","tel":"031-675-4120","addr":"경기도 안성시 서인동 18번지","category":"의류 - 정장"}]},{"lat":"37.006553462","long":"127.26789976","items":[{"name":"안동여인숙","tel":"031-673-2681","addr":"경기도 안성시 서인동 105-2번지","category":"숙박업 - 여관/기타숙박업"}]},{"lat":"37.007470985","long":"127.26859954","items":[{"name":"안성밝은안과","tel":"031-675-0975","addr":"경기도 안성시 서인동 90번지 2층","category":"의원 - 의원"}]},{"lat":"37.005828436","long":"127.26976228","items":[{"name":"안성신일센타","tel":"031-675-3836","addr":"경기도 안성시 서인동 51-4번지","category":"전기제품 - 가전제품"}]},{"lat":"37.007192587","long":"127.26818286","items":[{"name":"안성오룡약국","tel":"031-673-3156","addr":"경기도 안성시 서인동 100번지 1층","category":"약국 - 약국"}]},{"lat":"37.006721293","long":"127.26940587","items":[{"name":"안성종합인테리어","tel":"031-675-0353","addr":"경기도 안성시 서인동 58-1번지","category":"건축자재 - 인테리어전문"}]},{"lat":"37.006829294","long":"127.26946243","items":[{"name":"알럽미","tel":"070-8692-1963","addr":"경기도 안성시 서인동 57-3번지","category":"의류 - 정장"}]},{"lat":"37.006803648","long":"127.2688444","items":[{"name":"알찬상회","tel":"031-675-4020","addr":"경기도 안성시 서인동 69-5번지","category":"주방용구 - 주방용구"}]},{"lat":"37.006357251","long":"127.27101124","items":[{"name":"얀(YARN)","tel":"","addr":"경기도 안성시 서인동 13-119번지 1층 102호","category":"직물 - 침구·수예점"}]},{"lat":"37.00674782","long":"127.26963067","items":[{"name":"양성식당","tel":"031-674-6465","addr":"경기도 안성시 서인동 56-35번지","category":"일반휴게음식 - 일반한식"}]},{"lat":"37.005555537","long":"127.27090731","items":[{"name":"얼룩말","tel":"031-671-3602","addr":"경기도 안성시 서인동 26번지 1층","category":"신변잡화 - 신발"},{"name":"중앙미용학원","tel":"031-674-3400","addr":"경기도 안성시 서인동 26번지 2층","category":"회원제형태 - 학원"},{"name":"중앙약국","tel":"031-674-2109","addr":"경기도 안성시 서인동 26번지","category":"약국 - 약국"}]},{"lat":"37.006079544","long":"127.27029121","items":[{"name":"엄마손칼국수","tel":"02-423-7092","addr":"경기도 안성시 서인동 41번지","category":"일반휴게음식 - 일반한식"},{"name":"황실한복연구실","tel":"031-675-4917","addr":"경기도 안성시 서인동 41번지","category":"수리서비스 - 세탁소"}]},{"lat":"37.006413999","long":"127.2698205","items":[{"name":"연출","tel":"031-674-1486","addr":"경기도 안성시 서인동 52번지","category":"의류 - 정장"},{"name":"한일상회","tel":"031-675-4062","addr":"경기도 안성시 서인동 52번지","category":"직물 - 침구·수예점"}]},{"lat":"37.006161626","long":"127.26985333","items":[{"name":"오행생식","tel":"031-677-2238","addr":"경기도 안성시 서인동 51","category":"회원제형태 - 건강식품"}]},{"lat":"37.006553211","long":"127.26801211","items":[{"name":"우리장","tel":"031-676-7997","addr":"경기도 안성시 서인동 107번지","category":"숙박업 - 여관/기타숙박업"}]},{"lat":"37.007138774","long":"127.26807032","items":[{"name":"우지알로(Ujyalo)","tel":"031-111-1111","addr":"경기도 안성시 서인동 101-2번지 2층","category":"일반휴게음식 - 일반한식"}]},{"lat":"37.006269703","long":"127.26987618","items":[{"name":"이대호 프로덕션","tel":"031-675-6991","addr":"경기도 안성시 서인동 52-9번지 1층","category":"전기제품 - 가전제품"}]},{"lat":"37.006300036","long":"127.26840447","items":[{"name":"이정표","tel":"031-671-8876","addr":"경기도 안성시 서인동 114-1번지","category":"일반휴게음식 - 일반한식"}]},{"lat":"37.006214703","long":"127.27029169","items":[{"name":"일번지칼국수","tel":"031-675-2373","addr":"경기도 안성시 서인동 39번지","category":"일반휴게음식 - 일반한식"}]},{"lat":"37.006889307","long":"127.27082211","items":[{"name":"죠이토탈패션","tel":"031-677-3413","addr":"경기도 안성시 서인동 13-4번지","category":"의류 - 정장"}]},{"lat":"37.006749081","long":"127.26906891","items":[{"name":"중앙닭집","tel":"031-677-1363","addr":"경기도 안성시 서인동 69-10번지","category":"일반휴게음식 - 일반한식"}]},{"lat":"37.00636044","long":"127.26959561","items":[{"name":"추련","tel":"031-675-6642","addr":"경기도 안성시 서인동 59","category":"의류 - 기타의류"}]},{"lat":"37.006801833","long":"127.26965333","items":[{"name":"충북식당","tel":"031-675-6781","addr":"경기도 안성시 서인동 56-34번지 1층 전호","category":"일반휴게음식 - 일반한식"}]},{"lat":"37.006386663","long":"127.26995523","items":[{"name":"코롱상회","tel":"031-675-3870","addr":"경기도 안성시 서인동 52-3번지","category":"직물 - 침구·수예점"}]},{"lat":"37.006693529","long":"127.2697316","items":[{"name":"톰과제리","tel":"031-677-2337","addr":"경기도 안성시 서인동 56-20번지","category":"의류 - 정장"}]},{"lat":"37.007075951","long":"127.26795775","items":[{"name":"퉁퉁왕족발","tel":"031-672-0067","addr":"경기도 안성시 서인동 101-3번지","category":"일반휴게음식 - 일반한식"}]},{"lat":"37.006830806","long":"127.26878831","items":[{"name":"풍년상회","tel":"031-675-3734","addr":"경기도 안성시 서인동 69-3번지","category":"음료식품 - 농·축·수산품"}]},{"lat":"37.005910516","long":"127.2693244","items":[{"name":"한도가축약품","tel":"","addr":"경기도 안성시 서인동 63번지","category":"기타의료기관 - 동물병원"}]},{"lat":"37.007246475","long":"127.2682617","items":[{"name":"한양내과의원","tel":"031-675-7567","addr":"경기도 안성시 서인동 96-1번지","category":"의원 - 의원"}]},{"lat":"37.006471061","long":"127.26848371","items":[{"name":"행복여관","tel":"031-673-3689","addr":"경기도 안성시 서인동 113번지","category":"숙박업 - 여관/기타숙박업"},{"name":"현대주단","tel":"031-676-1656","addr":"경기도 안성시 서인동 113번지","category":"직물 - 침구·수예점"}]},{"lat":"37.007190549","long":"127.26909292","items":[{"name":"향원","tel":"031-675-4016","addr":"경기도 안성시 서인동 66번지","category":"일반휴게음식 - 중국식"}]},{"lat":"37.006444406","long":"127.26831509","items":[{"name":"향진여인숙","tel":"031-675-2108","addr":"경기도 안성시 서인동 110번지","category":"숙박업 - 여관/기타숙박업"}]},{"lat":"37.006190046","long":"127.26923549","items":[{"name":"흥농종묘사","tel":"031-673-3201","addr":"경기도 안성시 서인동 62번지","category":"농업 - 비료,사료,종자"}]}]