[{"lat":"37.717767945","long":"127.13294987","items":[{"name":"YB진 코스메틱","tel":"031-847-1654","addr":"경기도 남양주시 별내면 용암리 443-4","category":"보건위생 - 화장품"}]},{"lat":"37.729377418","long":"127.13641862","items":[{"name":"강씨네한방백봉오골계","tel":"031-841-3493","addr":"경기도 남양주시 별내면 용암리 268번지","category":"음료식품 - 농·축·수산품"}]},{"lat":"37.720292118","long":"127.13159322","items":[{"name":"꽃과어린왕자","tel":"031-841-1139","addr":"경기도 남양주시 별내면 용암리 421번지","category":"용역 서비스 - 종합용역"},{"name":"꽃과어린왕자","tel":"031-841-1139","addr":"경기도 남양주시 별내면 용암리 421번지","category":"일반휴게음식 - 일반한식"}]},{"lat":"37.742957325","long":"127.13419657","items":[{"name":"나래농원","tel":"02-573-3256","addr":"경기도 남양주시 별내면 용암리 138-2 나래화훼단지","category":"문화.취미 - 화원"}]},{"lat":"37.719047429","long":"127.13283869","items":[{"name":"도서출판창조문화","tel":"031-841-9258","addr":"경기도 남양주시 별내면 용암리 428-6번지","category":"서적문구 - 출판 및 인쇄물"}]},{"lat":"37.73823702","long":"127.13356426","items":[{"name":"라벤다하우스","tel":"031-796-2554","addr":"경기도 남양주시 별내면 용암리 111-5번지","category":"신변잡화 - 기타잡화"}]},{"lat":"37.724486533","long":"127.13525287","items":[{"name":"루핀시아","tel":"070-4145-2633","addr":"경기도 남양주시 별내면 용암리 329-2번지","category":"신변잡화 - 기타잡화"}]},{"lat":"37.731046834","long":"127.1340621","items":[{"name":"머루다래","tel":"031-841-6638","addr":"경기도 남양주시 별내면 용암리 256-4번지","category":"일반휴게음식 - 일반한식"}]},{"lat":"37.721041305","long":"127.13031283","items":[{"name":"명성농원","tel":"031-841-3092","addr":"경기도 남양주시 별내면 용암리 557번지","category":"음료식품 - 농·축·수산품"}]},{"lat":"37.731269899","long":"127.13600229","items":[{"name":"바우농원","tel":"031-841-4869","addr":"경기도 남양주시 별내면 용암리 253-7번지","category":"음료식품 - 농·축·수산품"}]},{"lat":"37.743516811","long":"127.13339201","items":[{"name":"백련","tel":"031-841-6588","addr":"경기도 남양주시 별내면 용암리 140-1번지","category":"일반휴게음식 - 일반한식"}]},{"lat":"37.729707433","long":"127.13131458","items":[{"name":"법장사","tel":"031-847-2682","addr":"경기도 남양주시 별내면 용암리 238","category":"보건위생 - 기타대인서비스"}]},{"lat":"37.739819986","long":"127.12775831","items":[{"name":"별내블루베리","tel":"031-841-7522","addr":"경기도 남양주시 별내면 용암리 163-3번지","category":"회원제형태 - 기타1"}]},{"lat":"37.734345512","long":"127.13300155","items":[{"name":"별내어린이천문대(주)","tel":"031-841-3246","addr":"경기도 남양주시 별내면 용암리 96번지","category":"학원 - 기타 교육기관"}]},{"lat":"37.746122425","long":"127.13170601","items":[{"name":"별내작은말학교(MHK LLC)","tel":"031-841-9523","addr":"경기도 남양주시 별내면 용암리 149-6번지","category":"레저업소 - 기타레져업소"}]},{"lat":"37.726632454","long":"127.13378208","items":[{"name":"소리봉","tel":"031-846-4800","addr":"경기도 남양주시 별내면 용암리 311번지","category":"일반휴게음식 - 일반한식"}]},{"lat":"37.737483807","long":"127.13028428","items":[{"name":"소소비루개맛집","tel":"031-111-1111","addr":"경기도 남양주시 별내면 용암리 203-1번지 1층","category":"일반휴게음식 - 일반한식"}]},{"lat":"37.734517305","long":"127.13244598","items":[{"name":"수향농원","tel":"031-111-1111","addr":"경기도 남양주시 별내면 용암리 98번지","category":"음료식품 - 농·축·수산품"},{"name":"수향농원","tel":"","addr":"경기도 남양주시 별내면 용암리 98번지","category":"음료식품 - 농·축·수산품"}]},{"lat":"37.717709577","long":"127.1286172","items":[{"name":"스튜디오 마마루시","tel":"031-575-5807","addr":"경기도 남양주시 별내면 용암리 500번지","category":"광학제품 - 사진관"}]},{"lat":"37.721434903","long":"127.13289957","items":[{"name":"아로마피아","tel":"031-528-6910","addr":"경기도 남양주시 별내면 용암리 416-3번지","category":"신변잡화 - 기타잡화"}]},{"lat":"37.736903331","long":"127.1338115","items":[{"name":"오성농원","tel":"031-841-0723","addr":"경기도 남양주시 별내면 용암리 113-1번지","category":"음료식품 - 농·축·수산품"}]},{"lat":"37.727904094","long":"127.13261595","items":[{"name":"옹달샘","tel":"031-841-0330","addr":"경기도 남양주시 별내면 용암리 306-4번지","category":"일반휴게음식 - 일반한식"}]},{"lat":"37.726848154","long":"127.13425887","items":[{"name":"원두막","tel":"031-841-4868","addr":"경기도 남양주시 별내면 용암리 310번지","category":"음료식품 - 농·축·수산품"}]},{"lat":"37.720266776","long":"127.13003929","items":[{"name":"이슬농원","tel":"031-841-4884","addr":"경기도 남양주시 별내면 용암리 544","category":"음료식품 - 농·축·수산품"}]},{"lat":"37.737125361","long":"127.12847985","items":[{"name":"짱아 야영장","tel":"031-842-3434","addr":"경기도 남양주시 별내면 용암리 210번지","category":"숙박업 - 여관/기타숙박업"}]},{"lat":"37.718241938","long":"127.12786953","items":[{"name":"테이트카페","tel":"070-7767-8283","addr":"경기도 남양주시 별내면 용암리 513-2번지","category":"일반휴게음식 - 서양음식"}]},{"lat":"37.717405951","long":"127.13440098","items":[{"name":"헬스 서포트 코리아","tel":"","addr":"경기도 남양주시 별내면 용암리 445번지","category":"신변잡화 - 기타잡화"}]},{"lat":"37.735488833","long":"127.13380901","items":[{"name":"홍매원","tel":"031-841-9626","addr":"경기도 남양주시 별내면 용암리 90-6번지","category":"음료식품 - 농·축·수산품"}]},{"lat":"37.740596965","long":"127.1340676","items":[{"name":"흙과나무","tel":"031-841-1007","addr":"경기도 남양주시 별내면 용암리 122번지","category":"일반휴게음식 - 일반한식"},{"name":"흙과나무생태","tel":"031-841-1007","addr":"경기도 남양주시 별내면 용암리 122번지","category":"학원 - 기타 교육기관"}]}]