[{"lat":"37.3380138","long":"127.3622127","imageIndex":0,"items":[{"name":"경기현대자동차서비스","tel":"031-761-7711","addr":"경기도 광주시 곤지암읍 수양리 524-4번지 (가,나)","indutype":"자동차정비 유지 - 자동차부품","category":"car"}]},{"lat":"37.33262167","long":"127.3751858","imageIndex":0,"items":[{"name":"광주수양자동차공사 (주)","tel":"031-762-6780","addr":"경기도 광주시 곤지암읍 수양리 250-1번지 1층","indutype":"자동차정비 유지 - 자동차정비","category":"car"}]},{"lat":"37.33379532","long":"127.3773016","imageIndex":0,"items":[{"name":"대일","tel":"031-8027-2772","addr":"경기도 광주시 곤지암읍 수양리 269-4번지","indutype":"자동차정비 유지 - 자동차부품","category":"car"}]},{"lat":"37.33337487","long":"127.3903548","imageIndex":0,"items":[{"name":"청산카공업사","tel":"031-761-9746","addr":"경기도 광주시 곤지암읍 수양리 48-6번지","indutype":"자동차정비 유지 - 자동차정비","category":"car"}]},{"lat":"37.33385202","long":"127.393212","imageIndex":0,"items":[{"name":"현대종합지게차서비스","tel":"070-9464-9844","addr":"경기도 광주시 곤지암읍 수양리 54번지","indutype":"자동차정비 유지 - 중장비수리","category":"car"}]}]