[{"lat":"38.05761738","long":"127.0120427","items":[{"name":"엄마순대국","tel":"031-832-3443","addr":"경기도 연천군 왕징면 무등리 45-4","category":"일반휴게음식 - 일반한식"}]},{"lat":"38.06039218","long":"127.0120658","items":[{"name":"왕징상회","tel":"031-833-7824","addr":"경기도 연천군 왕징면 무등리 1","category":"음료식품 - 기타음료식품"}]},{"lat":"38.05705872","long":"127.0132846","items":[{"name":"유빅(Ubiq)","tel":"031-833-0099","addr":"경기도 연천군 왕징면 무등리 17-1","category":"숙박업 - 여관/기타숙박업"}]},{"lat":"38.05711285","long":"127.0123959","items":[{"name":"이든아토","tel":"031-833-9534","addr":"경기도 연천군 왕징면 무등리 20-4번지","category":"음료식품 - 농·축·수산품"}]},{"lat":"38.06303194","long":"127.0105621","items":[{"name":"임진강해돋이펜션","tel":"031-833-1171","addr":"경기도 연천군 왕징면 무등리 99-1번지","category":"숙박업 - 여관/기타숙박업"}]},{"lat":"38.05722093","long":"127.0127263","items":[{"name":"임진호프","tel":"031-833-4157","addr":"경기도 연천군 왕징면 무등리 18-10번지","category":"일반휴게음식 - 주점"}]},{"lat":"38.05695068","long":"127.0124528","items":[{"name":"전주식당","tel":"031-833-8058","addr":"경기도 연천군 왕징면 무등리 21-6","category":"일반휴게음식 - 일반한식"},{"name":"킹스개발주식회사","tel":"070-4015-3981","addr":"경기도 연천군 왕징면 무등리 21-6","category":"숙박업 - 콘도"}]},{"lat":"38.06008603","long":"127.0096502","items":[{"name":"황해냉면","tel":"031-833-7470","addr":"경기도 연천군 왕징면 무등리 68-3번지","category":"일반휴게음식 - 일반한식"}]}]