[{"lat":"37.308655065","long":"127.38074141","items":[{"name":"CYCLE PROJECT","tel":"031-000-0000","addr":"경기도 이천시 신둔면 인후리 251-15번지","category":"문화.취미 - 민예·공예품"}]},{"lat":"37.303575328","long":"127.37727582","items":[{"name":"더화","tel":"031-638-8170","addr":"경기도 이천시 신둔면 인후리 186번지","category":"문화.취미 - 민예·공예품"},{"name":"세라스","tel":"070-8869-6675","addr":"경기도 이천시 신둔면 인후리 186번지","category":"문화.취미 - 민예·공예품"},{"name":"조신현도예연구소","tel":"031-634-3097","addr":"경기도 이천시 신둔면 인후리 186번지","category":"문화.취미 - 민예·공예품"}]},{"lat":"37.302349962","long":"127.37726975","items":[{"name":"도은","tel":"031-613-3135","addr":"경기도 이천시 신둔면 인후리 176번지","category":"주방용구 - 주방용식기"}]},{"lat":"37.305103222","long":"127.37563659","items":[{"name":"레이저스토리(Laser Story)","tel":"031-638-8198","addr":"경기도 이천시 신둔면 인후리 205번지 가동","category":"용역 서비스 - 기타용역서비스"}]},{"lat":"37.305071101","long":"127.3772494","items":[{"name":"맛나사철탕","tel":"031-637-5579","addr":"경기도 이천시 신둔면 인후리 216번지 1동","category":"일반휴게음식 - 일반한식"}]},{"lat":"37.308569878","long":"127.38482434","items":[{"name":"소요방","tel":"031-638-1831","addr":"경기도 이천시 신둔면 인후리 40-1번지","category":"문화.취미 - 민예·공예품"}]},{"lat":"37.311073923","long":"127.37944499","items":[{"name":"솔과흙","tel":"031-638-3691","addr":"경기도 이천시 신둔면 인후리 315번지","category":"문화.취미 - 민예·공예품"}]},{"lat":"37.303242696","long":"127.37987967","items":[{"name":"씨쓰리에이앤지","tel":"031-638-4897","addr":"경기도 이천시 신둔면 인후리 148번지 1층","category":"음료식품 - 기타음료식품"}]},{"lat":"37.307624731","long":"127.37890892","items":[{"name":"에이보울 (A-BOWL)","tel":"031-341-6235","addr":"경기도 이천시 신둔면 인후리 241-3번지","category":"주방용구 - 주방용식기"}]},{"lat":"37.30504958","long":"127.37835468","items":[{"name":"영광도요","tel":"031-638-4266","addr":"경기도 이천시 신둔면 인후리 225-2번지 영광도요","category":"문화.취미 - 민예·공예품"}]},{"lat":"37.308685619","long":"127.37963612","items":[{"name":"이엑스미디어(EX MEDIA)","tel":"070-4100-6635","addr":"경기도 이천시 신둔면 인후리 242-4번지","category":"용역 서비스 - 사무서비스"}]},{"lat":"37.312098209","long":"127.38316139","items":[{"name":"이천시 공예","tel":"031-638-5506","addr":"경기도 이천시 신둔면 인후리 298-1번지","category":"문화.취미 - 민예·공예품"}]},{"lat":"37.302321263","long":"127.38063077","items":[{"name":"장성규조토산업","tel":"031-634-5512","addr":"경기도 이천시 신둔면 인후리 163번지","category":"건축자재 - 기타건축자재"}]},{"lat":"37.302798536","long":"127.37788104","items":[{"name":"주식회사 아끼다","tel":"","addr":"경기도 이천시 신둔면 인후리 172-3번지","category":"주방용구 - 주방용식기"},{"name":"판스튜디오","tel":"070-7783-9919","addr":"경기도 이천시 신둔면 인후리 172-3번지","category":"문화.취미 - 민예·공예품"}]},{"lat":"37.304235488","long":"127.37935449","items":[{"name":"주식회사청정씨앤씨","tel":"031-637-1331","addr":"경기도 이천시 신둔면 인후리 102","category":"용역 서비스 - 기타용역서비스"}]},{"lat":"37.309075812","long":"127.3787695","items":[{"name":"청탑도자기","tel":"031-638-2662","addr":"경기도 이천시 신둔면 인후리 242-32","category":"주방용구 - 주방용식기"}]},{"lat":"37.31281814","long":"127.38343575","items":[{"name":"푸른상회","tel":"031-886-4803","addr":"경기도 이천시 신둔면 인후리 300-3번지","category":"음료식품 - 농·축·수산품"}]},{"lat":"37.304792055","long":"127.37430408","items":[{"name":"호연카페","tel":"02-1577-0000","addr":"경기도 이천시 신둔면 인후리 196-1번지 2동 1층","category":"일반휴게음식 - 서양음식"},{"name":"호운","tel":"","addr":"경기도 이천시 신둔면 인후리 196-1번지 1동 1층","category":"일반휴게음식 - 일반한식"}]}]