[{"lat":"37.293389429","long":"127.68197055","items":[{"name":"가마코리아","tel":"031-885-7070","addr":"경기도 여주시 강천면 이호리 350-16번지","category":"문화.취미 - 민예·공예품"},{"name":"창무도예연구원","tel":"031-885-7070","addr":"경기도 여주시 강천면 이호리 350-16번지","category":"문화.취미 - 민예·공예품"},{"name":"한림요업","tel":"031-885-9810","addr":"경기도 여주시 강천면 이호리 350-16번지","category":"문화.취미 - 민예·공예품"}]},{"lat":"37.286884557","long":"127.68346827","items":[{"name":"강천다리골","tel":"031-886-6358","addr":"경기도 여주시 강천면 이호리 488번지","category":"일반휴게음식 - 일반한식"}]},{"lat":"37.288662757","long":"127.68290916","items":[{"name":"강천해장국","tel":"031-885-5734","addr":"경기도 여주시 강천면 이호리 480-1번지","category":"일반휴게음식 - 일반한식"}]},{"lat":"37.292111691","long":"127.68324469","items":[{"name":"그린모텔","tel":"031-885-4466","addr":"경기도 여주시 강천면 이호리 351-11번지","category":"숙박업 - 여관/기타숙박업"}]},{"lat":"37.288446389","long":"127.69996908","items":[{"name":"기공수련센터","tel":"031-881-5769","addr":"경기도 여주시 강천면 이호리 65-6번지 2층","category":"보건위생 - 기타대인서비스"}]},{"lat":"37.286691528","long":"127.68413185","items":[{"name":"꼬꼬치킨","tel":"031-885-6902","addr":"경기도 여주시 강천면 이호리 492-6번지","category":"일반휴게음식 - 일반한식"}]},{"lat":"37.287417526","long":"127.68791609","items":[{"name":"꼬마별어린이집[아이행복]","tel":"031-885-0010","addr":"경기도 여주시 강천면 이호리 399-2번지","category":"학원 - 유아원"},{"name":"대박촌손두부","tel":"031-885-0171","addr":"경기도 여주시 강천면 이호리 399-2번지","category":"일반휴게음식 - 일반한식"}]},{"lat":"37.286249862","long":"127.6841617","items":[{"name":"나루터매운탕","tel":"031-885-1023","addr":"경기도 여주시 강천면 이호리 492-2번지","category":"일반휴게음식 - 일반한식"}]},{"lat":"37.28641463","long":"127.68371212","items":[{"name":"나루터수산","tel":"031-885-1023","addr":"경기도 여주시 강천면 이호리 492번지","category":"음료식품 - 농·축·수산품"}]},{"lat":"37.293745088","long":"127.68279702","items":[{"name":"나의손","tel":"031-886-1444","addr":"경기도 여주시 강천면 이호리 368-4번지","category":"문화.취미 - 민예·공예품"}]},{"lat":"37.286804767","long":"127.68324202","items":[{"name":"남한강매운탕","tel":"031-885-1889","addr":"경기도 여주시 강천면 이호리 487번지","category":"일반휴게음식 - 일반한식"},{"name":"여주수산","tel":"031-883-7458","addr":"경기도 여주시 강천면 이호리 487번지","category":"음료식품 - 농·축·수산품"}]},{"lat":"37.280055413","long":"127.69272042","items":[{"name":"대진공업사","tel":"031-1111-1111","addr":"경기도 여주시 강천면 이호리 176-2번지","category":"자동차정비 유지 - 자동차정비"}]},{"lat":"37.284084624","long":"127.69705342","items":[{"name":"디자인비젼","tel":"031-883-8926","addr":"경기도 여주시 강천면 이호리 132-5번지","category":"용역 서비스 - 종합용역"}]},{"lat":"37.286389157","long":"127.68344125","items":[{"name":"먼동이틀때","tel":"031-885-1233","addr":"경기도 여주시 강천면 이호리 491번지","category":"일반휴게음식 - 서양음식"}]},{"lat":"37.288140843","long":"127.68435917","items":[{"name":"목아미사","tel":"031-885-9952","addr":"경기도 여주시 강천면 이호리 444-2번지","category":"문화.취미 - 민예·공예품"}]},{"lat":"37.288497635","long":"127.68810631","items":[{"name":"목아박물관","tel":"031-885-9952","addr":"경기도 여주시 강천면 이호리 395-2번지","category":"문화.취미 - 티켓"},{"name":"목아박물관판매장","tel":"031-885-9952","addr":"경기도 여주시 강천면 이호리 395-2번지","category":"기타 - 기타 전문점"},{"name":"목아카페","tel":"031-885-9952","addr":"경기도 여주시 강천면 이호리 395-2번지","category":"일반휴게음식 - 서양음식"},{"name":"에듀뮤지움","tel":"031-882-9954","addr":"경기도 여주시 강천면 이호리 395-2번지","category":"신변잡화 - 기타잡화"}]},{"lat":"37.286775793","long":"127.68358005","items":[{"name":"봄날광고기획","tel":"","addr":"경기도 여주시 강천면 이호리 489번지","category":"건축자재 - 인테리어전문"}]},{"lat":"37.289723291","long":"127.68180228","items":[{"name":"사랑방","tel":"031-886-6808","addr":"경기도 여주시 강천면 이호리 477-3번지","category":"문화.취미 - 민예·공예품"},{"name":"아뜨리움","tel":"","addr":"경기도 여주시 강천면 이호리 477-3번지","category":"일반휴게음식 - 서양음식"},{"name":"육일 소고기국밥","tel":"031-885-9959","addr":"경기도 여주시 강천면 이호리 477-3번지","category":"일반휴게음식 - 일반한식"}]},{"lat":"37.286912483","long":"127.6848781","items":[{"name":"송백보리밥","tel":"031-883-1257","addr":"경기도 여주시 강천면 이호리 496-2번지","category":"일반휴게음식 - 일반한식"}]},{"lat":"37.287473876","long":"127.6828308","items":[{"name":"여강재","tel":"031-883-8881","addr":"경기도 여주시 강천면 이호리 486-6번지","category":"일반휴게음식 - 일반한식"}]},{"lat":"37.294382298","long":"127.6816637","items":[{"name":"예진도예","tel":"031-885-1192","addr":"경기도 여주시 강천면 이호리 342-1번지","category":"문화.취미 - 민예·공예품"}]},{"lat":"37.292219408","long":"127.68174577","items":[{"name":"이십일세기 철건","tel":"031-885-9787","addr":"경기도 여주시 강천면 이호리 352-1번지","category":"건축자재 - 목재·석재·철물"}]},{"lat":"37.283527267","long":"127.69221085","items":[{"name":"피톤치드산천","tel":"031-111-1111","addr":"경기도 여주시 강천면 이호리 193-6번지","category":"신변잡화 - 기타잡화"}]},{"lat":"37.284223865","long":"127.69635558","items":[{"name":"흙내가마","tel":"031-884-7918","addr":"경기도 여주시 강천면 이호리 129-8번지","category":"문화.취미 - 민예·공예품"}]}]