[{"lat":"36.963523265","long":"126.93310523","items":[{"name":"굿모닝동물병원","tel":"031-683-1333","addr":"경기도 평택시 현덕면 황산리 62-3","category":"기타의료기관 - 동물병원"}]},{"lat":"36.961910551","long":"126.93346602","items":[{"name":"내집만들기","tel":"031-683-1847","addr":"경기도 평택시 현덕면 황산리 72-1번지","category":"건축자재 - 인테리어전문"}]},{"lat":"36.95538425","long":"126.92929521","items":[{"name":"동보전기","tel":"031-000-0000","addr":"경기도 평택시 현덕면 황산리 147-2번지","category":"전기제품 - 기타전기제품"}]},{"lat":"36.962856889","long":"126.93382448","items":[{"name":"백리도예","tel":"031-683-8061","addr":"경기도 평택시 현덕면 황산리 66-1번지","category":"문화.취미 - 민예·공예품"}]},{"lat":"36.958020144","long":"126.93741063","items":[{"name":"평산에스 푸드","tel":"031-682-9981","addr":"경기도 평택시 현덕면 황산리 83-8번지","category":"도소매업 - 식료품"},{"name":"평산에스FOOD","tel":"031-682-8230","addr":"경기도 평택시 현덕면 황산리 83-8번지","category":"음료식품 - 기타음료식품"}]},{"lat":"36.957387486","long":"126.93404275","items":[{"name":"한솔산업사","tel":"031-684-1344","addr":"경기도 평택시 현덕면 황산리 330-11번지 외1필지","category":"기타 - 기타 전문점"},{"name":"한솔씽크","tel":"031-681-5303","addr":"경기도 평택시 현덕면 황산리 330-11번지","category":"주방용구 - 주방용구"}]}]