[{"lat":"37.49671712","long":"127.52600226","items":[{"name":"(주)그린홈","tel":"031-775-9030","addr":"경기도 양평군 양평읍 백안리 343-4","category":"건축자재 - 기타건축자재"}]},{"lat":"37.491717143","long":"127.5299476","items":[{"name":"(주)너나들이여행사","tel":"031-771-3388","addr":"경기도 양평군 양평읍 백안리 264-8번지","category":"회원제형태 - 기타4"},{"name":"벨라","tel":"031-1111-1111","addr":"경기도 양평군 양평읍 백안리 264-8번지 1층","category":"의류 - 정장"}]},{"lat":"37.512852394","long":"127.52016546","items":[{"name":"(주)탑클래스기숙학원","tel":"031-773-4700","addr":"경기도 양평군 양평읍 백안리 774-3번지","category":"학원 - 보습학원"},{"name":"(학교)염광학원","tel":"031-772-4812","addr":"경기도 양평군 양평읍 백안리 774-3번지","category":"기타 - 비영리/대상"},{"name":"대한패스원학원","tel":"031-773-4700","addr":"경기도 양평군 양평읍 백안리 774-3번지 2층","category":"학원 - 보습학원"},{"name":"양평청솔기숙학원","tel":"031-773-4700","addr":"경기도 양평군 양평읍 백안리 774-3번지","category":"학원 - 보습학원"}]},{"lat":"37.494777491","long":"127.51422852","items":[{"name":"LEE어학원","tel":"031-773-0902","addr":"경기도 양평군 양평읍 백안리 518번지","category":"학원 - 외국어학원"},{"name":"리(LEE)서점","tel":"031-773-0902","addr":"경기도 양평군 양평읍 백안리 518번지","category":"서적문구 - 일반서적"}]},{"lat":"37.490608249","long":"127.50950758","items":[{"name":"OHANA","tel":"031-772-8806","addr":"경기도 양평군 양평읍 백안리 501-10번지","category":"일반휴게음식 - 일반한식"},{"name":"대성C&G","tel":"031-771-8862","addr":"경기도 양평군 양평읍 백안리 501-10번지 101호","category":"건축자재 - 보일러·펌프·샷시"},{"name":"썬에스테틱","tel":"031-775-1676","addr":"경기도 양평군 양평읍 백안리 501-10번지 203호","category":"회원제형태 - 기타4"}]},{"lat":"37.498662912","long":"127.51580427","items":[{"name":"감자바우","tel":"031-775-7357","addr":"경기도 양평군 양평읍 백안리 564-1번지","category":"일반휴게음식 - 일반한식"},{"name":"베스트","tel":"031-775-1164","addr":"경기도 양평군 양평읍 백안리 564-1번지 외4필지 1층","category":"보건위생 - 사우나"},{"name":"베스트라이브","tel":"031-771-7712","addr":"경기도 양평군 양평읍 백안리 564-1번지 2층","category":"일반휴게음식 - 서양음식"},{"name":"양평장어마을","tel":"031-773-1592","addr":"경기도 양평군 양평읍 백안리 564-1번지 1층","category":"일반휴게음식 - 일반한식"}]},{"lat":"37.494911214","long":"127.52891841","items":[{"name":"강원골프연습장","tel":"031-775-5979","addr":"경기도 양평군 양평읍 백안리 242-2번지 양평힐스골프연습장","category":"레져용품 - 골프용품 전문점"},{"name":"양평힐스골프클럽","tel":"031-775-5979","addr":"경기도 양평군 양평읍 백안리 242-2번지","category":"레저업소 - 골프연습장"}]},{"lat":"37.498021857","long":"127.51611652","items":[{"name":"건강한집을짓는사람들","tel":"031-772-1881","addr":"경기도 양평군 양평읍 백안리 542번지 양지빌 303호","category":"회원제형태 - 건강식품"}]},{"lat":"37.503277378","long":"127.52575398","items":[{"name":"건뜨갤러리","tel":"031-775-1924","addr":"경기도 양평군 양평읍 백안리 129번지","category":"직물 - 침구·수예점"}]},{"lat":"37.491244727","long":"127.51025817","items":[{"name":"공삼번지다육농원","tel":"031-1111-1111","addr":"경기도 양평군 양평읍 백안리 490-2번지","category":"문화.취미 - 화원"}]},{"lat":"37.502694665","long":"127.5210001","items":[{"name":"꼬마아이마당어린이집[아이행복]","tel":"031-772-6455","addr":"경기도 양평군 양평읍 백안리 191-1번지 아이마당어린이집","category":"학원 - 유아원"}]},{"lat":"37.495333672","long":"127.51270573","items":[{"name":"대가집보쌈왕족발","tel":"031-771-4416","addr":"경기도 양평군 양평읍 백안리 876번지 양평벽산블루밍아파트2단지 1층 104호","category":"일반휴게음식 - 일반한식"},{"name":"봄샘어린이집[아이행복]","tel":"031-774-4690","addr":"경기도 양평군 양평읍 백안리 876번지 벽산블루밍2단지 주민공동시설","category":"학원 - 유아원"},{"name":"양평빨래방 아쿠아워시 양평점","tel":"","addr":"경기도 양평군 양평읍 백안리 876번지 양평벽산블루밍아파트2단지","category":"수리서비스 - 세탁소"}]},{"lat":"37.492329632","long":"127.51772847","items":[{"name":"대동공업양평대리점","tel":"031-772-8985","addr":"경기도 양평군 양평읍 백안리 439-4번지","category":"농업 - 농기계"}]},{"lat":"37.491862166","long":"127.52569702","items":[{"name":"대산건업","tel":"031-771-8666","addr":"경기도 양평군 양평읍 백안리 271-1번지","category":"건축자재 - 기타건축자재"}]},{"lat":"37.496438431","long":"127.51558551","items":[{"name":"더무라","tel":"031-773-3880","addr":"경기도 양평군 양평읍 백안리 533-1번지 1층 102호","category":"일반휴게음식 - 주점"},{"name":"수다클럽","tel":"031-774-7048","addr":"경기도 양평군 양평읍 백안리 533-1번지 2층","category":"의류 - 정장"},{"name":"씨유양평백안점","tel":"031-775-5521","addr":"경기도 양평군 양평읍 백안리 533-1번지 1층","category":"유통업 영리 - 편 의 점"},{"name":"위키드스노우","tel":"031-775-5665","addr":"경기도 양평군 양평읍 백안리 533-1번지 2층","category":"일반휴게음식 - 서양음식"},{"name":"헤어415(HAIR415)","tel":"031-774-0415","addr":"경기도 양평군 양평읍 백안리 533-1번지 1층","category":"보건위생 - 미용원"}]},{"lat":"37.494471435","long":"127.52650675","items":[{"name":"동부충전소","tel":"031-774-1422","addr":"경기도 양평군 양평읍 백안리 333번지","category":"연료판매점 - SK가스충전소"}]},{"lat":"37.496858786","long":"127.51837021","items":[{"name":"돼지왕갈비","tel":"031-771-7671","addr":"경기도 양평군 양평읍 백안리 365-13번지 1층","category":"일반휴게음식 - 일반한식"}]},{"lat":"37.495249095","long":"127.5238322","items":[{"name":"둥글레슈퍼","tel":"031-775-1652","addr":"경기도 양평군 양평읍 백안리 337-1번지","category":"유통업 영리 - 슈퍼마켓"}]},{"lat":"37.491801304","long":"127.52925844","items":[{"name":"들녘","tel":"031-773-5114","addr":"경기도 양평군 양평읍 백안리 265번지 1층","category":"일반휴게음식 - 일반한식"}]},{"lat":"37.491745432","long":"127.52966511","items":[{"name":"루마코리아양평점","tel":"031-773-3239","addr":"경기도 양평군 양평읍 백안리 264-1번지","category":"자동차정비 유지 - 카인테리어"},{"name":"소낙스양평점","tel":"031-772-9951","addr":"경기도 양평군 양평읍 백안리 264-1번지 104호,105호,106호","category":"자동차정비 유지 - 자동차부품"},{"name":"양평광고기획","tel":"031-772-9951","addr":"경기도 양평군 양평읍 백안리 264-1번지","category":"건축자재 - 인테리어전문"}]},{"lat":"37.495388503","long":"127.52081393","items":[{"name":"리틀보더스","tel":"","addr":"경기도 양평군 양평읍 백안리 358-15번지 1동","category":"레져용품 - 스포츠·레져용품"}]},{"lat":"37.49366022","long":"127.51005966","items":[{"name":"마니커치킨(양평점)","tel":"031-773-0590","addr":"경기도 양평군 양평읍 백안리 512번지 103호","category":"일반휴게음식 - 스넥"}]},{"lat":"37.49155038","long":"127.50831536","items":[{"name":"모던타일도기","tel":"031-771-7941","addr":"경기도 양평군 양평읍 백안리 504-1번지","category":"건축자재 - 건축용 요업제품"},{"name":"잉크프리(양평점)","tel":"031-774-1818","addr":"경기도 양평군 양평읍 백안리 504-1번지","category":"사무통신 - 기타 사무용품"}]},{"lat":"37.495244058","long":"127.51675338","items":[{"name":"미스로스웰","tel":"02-1111-1111","addr":"경기도 양평군 양평읍 백안리 390-13번지 1층 101-2호","category":"일반휴게음식 - 서양음식"},{"name":"슬러그(SLUG)","tel":"031-771-5460","addr":"경기도 양평군 양평읍 백안리 390-13번지 1동 102호 (동피랑)","category":"자동차정비 유지 - 자동차부품"}]},{"lat":"37.495028664","long":"127.51655967","items":[{"name":"바른치킨양평백안리점","tel":"031-773-5851","addr":"경기도 양평군 양평읍 백안리 390-12번지 103호104호","category":"일반휴게음식 - 스넥"},{"name":"이마트24 양평백안점","tel":"","addr":"경기도 양평군 양평읍 백안리 390-12번지","category":"유통업 영리 - 편 의 점"},{"name":"이마트24 양평백안점","tel":"","addr":"경기도 양평군 양평읍 백안리 390-12번지","category":"유통업 영리 - 편 의 점"}]},{"lat":"37.492604687","long":"127.51870281","items":[{"name":"바미인터내셔널(주)","tel":"031-773-2045","addr":"경기도 양평군 양평읍 백안리 434-2번지","category":"농업 - 기타농업관련"}]},{"lat":"37.49705324","long":"127.51509215","items":[{"name":"백석어린이집[아이행복]","tel":"031-774-9106","addr":"경기도 양평군 양평읍 백안리 542-2번지 백운빌라 102동 101호","category":"학원 - 유아원"}]},{"lat":"37.492216003","long":"127.51692486","items":[{"name":"백안주유소","tel":"031-772-5700","addr":"경기도 양평군 양평읍 백안리 449-1번지","category":"연료판매점 - 쌍용S-OIL"}]},{"lat":"37.499687842","long":"127.51630886","items":[{"name":"백운가든","tel":"031-775-0604","addr":"경기도 양평군 양평읍 백안리 565-2번지","category":"일반휴게음식 - 일반한식"}]},{"lat":"37.497495295","long":"127.52525003","items":[{"name":"백운봉 편의점","tel":"031-771-4714","addr":"경기도 양평군 양평읍 백안리 343-1번지","category":"유통업 영리 - 편 의 점"},{"name":"백운봉주유소","tel":"031-771-7182","addr":"경기도 양평군 양평읍 백안리 343-1번지","category":"연료판매점 - SK주유소"}]},{"lat":"37.494771089","long":"127.5115372","items":[{"name":"벽산봄샘어린이집[아이행복]","tel":"031-774-2690","addr":"경기도 양평군 양평읍 백안리 875번지 양평벽산블루밍아파트1단지 벽산블루밍공동시설","category":"학원 - 유아원"}]},{"lat":"37.516078355","long":"127.52822992","items":[{"name":"브라운스마일","tel":"","addr":"경기도 양평군 양평읍 백안리 산68-5번지 쉬자파크 내","category":"음료식품 - 기타음료식품"}]},{"lat":"37.49666151","long":"127.5160846","items":[{"name":"블루밍헤어","tel":"031-773-9027","addr":"경기도 양평군 양평읍 백안리 381-1번지 1층","category":"보건위생 - 미용원"}]},{"lat":"37.511104068","long":"127.52639671","items":[{"name":"블루힐펜션","tel":"031-722-7702","addr":"경기도 양평군 양평읍 백안리 17-38번지","category":"숙박업 - 여관/기타숙박업"}]},{"lat":"37.493523765","long":"127.51036404","items":[{"name":"사랑헤어","tel":"031-771-0728","addr":"경기도 양평군 양평읍 백안리 513-6번지 지 1층 층 103호","category":"보건위생 - 미용원"},{"name":"수제버거924","tel":"031-775-0924","addr":"경기도 양평군 양평읍 백안리 513-6번지","category":"일반휴게음식 - 스넥"},{"name":"이벤트","tel":"031-771-0277","addr":"경기도 양평군 양평읍 백안리 513-6번지","category":"의류 - 정장"},{"name":"카페에서 놀다(카놀)","tel":"031-771-0913","addr":"경기도 양평군 양평읍 백안리 513-6번지 1층 101호","category":"일반휴게음식 - 서양음식"},{"name":"파티오(Patio)","tel":"031-771-8855","addr":"경기도 양평군 양평읍 백안리 513-6번지 지하1층","category":"보건위생 - 피부미용실"},{"name":"포맘 핸드메이드 공방","tel":"","addr":"경기도 양평군 양평읍 백안리 513-6번지","category":"문화.취미 - 문화취미기타"}]},{"lat":"37.491659704","long":"127.50803341","items":[{"name":"세븐일레븐양평중앙로점","tel":"031-1577-0711","addr":"경기도 양평군 양평읍 백안리 504-18번지","category":"유통업 영리 - 편 의 점"},{"name":"조명과사람들","tel":"031-775-1745","addr":"경기도 양평군 양평읍 백안리 504-18번지","category":"건축자재 - 조명기구"}]},{"lat":"37.497330281","long":"127.51561423","items":[{"name":"시부야","tel":"","addr":"경기도 양평군 양평읍 백안리 542-35번지 201호","category":"신변잡화 - 액세서리"}]},{"lat":"37.493083179","long":"127.52870205","items":[{"name":"씨유양평대로점","tel":"031-239-6697","addr":"경기도 양평군 양평읍 백안리 259번지 103호 102호, 103호","category":"유통업 영리 - 편 의 점"},{"name":"한우설렁탕","tel":"031-773-3514","addr":"경기도 양평군 양평읍 백안리 259번지 1층","category":"일반휴게음식 - 일반한식"},{"name":"흑천낚시","tel":"031-775-5526","addr":"경기도 양평군 양평읍 백안리 259번지 101호","category":"레져용품 - 스포츠·레져용품"}]},{"lat":"37.496499241","long":"127.5181755","items":[{"name":"아세아용접기","tel":"","addr":"경기도 양평군 양평읍 백안리 366-13번지","category":"건축자재 - 기타건축자재"}]},{"lat":"37.493637679","long":"127.523527","items":[{"name":"아세아웰딩주식회사","tel":"032-679-1022","addr":"경기도 양평군 양평읍 백안리 320-3","category":"기타 - 기계공구"}]},{"lat":"37.496964958","long":"127.51467315","items":[{"name":"아트하임 아카데미 미술교습소","tel":"031-772-0089","addr":"경기도 양평군 양평읍 백안리 540-3번지 상가 1층","category":"학원 - 예·체능계학원"}]},{"lat":"37.498802691","long":"127.51681169","items":[{"name":"양평꽃게한상","tel":"031-773-6711","addr":"경기도 양평군 양평읍 백안리 565-5번지","category":"일반휴게음식 - 일반한식"}]},{"lat":"37.49452236","long":"127.52313737","items":[{"name":"양평농기계","tel":"031-771-8999","addr":"경기도 양평군 양평읍 백안리 310","category":"농업 - 농기계"}]},{"lat":"37.509108997","long":"127.52727627","items":[{"name":"양평밸리관광펜션","tel":"031-774-3000","addr":"경기도 양평군 양평읍 백안리 17-2번지","category":"숙박업 - 여관/기타숙박업"}]},{"lat":"37.510581514","long":"127.52639306","items":[{"name":"양평밸리관광펜션","tel":"031-774-3000","addr":"경기도 양평군 양평읍 백안리 17번지 13호","category":"숙박업 - 여관/기타숙박업"}]},{"lat":"37.508443596","long":"127.52697756","items":[{"name":"양평밸리키친","tel":"031-774-3000","addr":"경기도 양평군 양평읍 백안리 18번지","category":"일반휴게음식 - 일반한식"}]},{"lat":"37.507937706","long":"127.52727939","items":[{"name":"양평애완밸리","tel":"031-774-0000","addr":"경기도 양평군 양평읍 백안리 89-3번지","category":"숙박업 - 여관/기타숙박업"}]},{"lat":"37.490609945","long":"127.50911184","items":[{"name":"양평워시존","tel":"031-771-6377","addr":"경기도 양평군 양평읍 백안리 501-11번지","category":"자동차정비 유지 - 세차장"}]},{"lat":"37.492135354","long":"127.52094978","items":[{"name":"양평윤활유","tel":"031-774-8124","addr":"경기도 양평군 양평읍 백안리 295-1번지","category":"자동차정비 유지 - 윤활유 전문 판매"}]},{"lat":"37.492413708","long":"127.52116654","items":[{"name":"양평종합농기계","tel":"031-772-2145","addr":"경기도 양평군 양평읍 백안리 296-5번지","category":"농업 - 농기계"}]},{"lat":"37.510777398","long":"127.53297702","items":[{"name":"양평헬스투어 협동조합","tel":"031-770-1004","addr":"경기도 양평군 양평읍 백안리 산45-7번지","category":"용역 서비스 - 사무서비스"}]},{"lat":"37.494914907","long":"127.52605753","items":[{"name":"어울림팀버","tel":"031-775-0085","addr":"경기도 양평군 양평읍 백안리 산15-15번지","category":"건축자재 - 기타건축자재"}]},{"lat":"37.494632832","long":"127.51642126","items":[{"name":"엄마손반찬카페","tel":"031-773-7979","addr":"경기도 양평군 양평읍 백안리 405-1번지","category":"일반휴게음식 - 서양음식"}]},{"lat":"37.499916185","long":"127.51766747","items":[{"name":"에덴하우징","tel":"031-774-7466","addr":"경기도 양평군 양평읍 백안리 571번지","category":"건축자재 - 기타건축자재"}]},{"lat":"37.501189967","long":"127.52916601","items":[{"name":"에이번리","tel":"031-775-8866","addr":"경기도 양평군 양평읍 백안리 105-9번지 1층","category":"음료식품 - 기타음료식품"}]},{"lat":"37.49207692","long":"127.53008582","items":[{"name":"영육후드서비스(주)양평지점/물레방아있는","tel":"031-775-0607","addr":"경기도 양평군 양평읍 백안리 263","category":"일반휴게음식 - 일반한식"}]},{"lat":"37.501604075","long":"127.52314126","items":[{"name":"예솔","tel":"031-771-9555","addr":"경기도 양평군 양평읍 백안리 177-5번지","category":"일반휴게음식 - 서양음식"},{"name":"예솔","tel":"031-771-8749","addr":"경기도 양평군 양평읍 백안리 177-5번지 1층","category":"일반휴게음식 - 일반한식"}]},{"lat":"37.507996828","long":"127.5261375","items":[{"name":"옥동자네","tel":"031-775-8808","addr":"경기도 양평군 양평읍 백안리 20번지","category":"음료식품 - 기타음료식품"}]},{"lat":"37.496862306","long":"127.52373032","items":[{"name":"용천개발 (주)","tel":"031-771-4843","addr":"경기도 양평군 양평읍 백안리 344-6번지","category":"용역 서비스 - 기타용역서비스"},{"name":"주식회사 성심건업","tel":"031-772-9052","addr":"경기도 양평군 양평읍 백안리 344-6번지","category":"용역 서비스 - 기타용역서비스"}]},{"lat":"37.492245897","long":"127.52039647","items":[{"name":"이솝어린이집[아이행복]","tel":"031-967-5216","addr":"경기도 양평군 양평읍 백안리 435-1번지","category":"학원 - 유아원"}]},{"lat":"37.51021616","long":"127.51933293","items":[{"name":"자비미소","tel":"031-111-1111","addr":"경기도 양평군 양평읍 백안리 766-11번지","category":"신변잡화 - 귀금속"}]},{"lat":"37.491859086","long":"127.52842209","items":[{"name":"전주고을해물순두부","tel":"031-774-3559","addr":"경기도 양평군 양평읍 백안리 268-8번지","category":"일반휴게음식 - 일반한식"}]},{"lat":"37.494471986","long":"127.51611485","items":[{"name":"정안가든","tel":"031-774-6620","addr":"경기도 양평군 양평읍 백안리 404-1번지","category":"일반휴게음식 - 일반한식"}]},{"lat":"37.498385873","long":"127.51528219","items":[{"name":"주식회사 넥서스큐브","tel":"031-429-4810","addr":"경기도 양평군 양평읍 백안리 564-22번지 3층","category":"용역 서비스 - 종합용역"}]},{"lat":"37.498298935","long":"127.51869674","items":[{"name":"주식회사 중앙산업개발","tel":"031-773-0460","addr":"경기도 양평군 양평읍 백안리 556-1번지","category":"건축자재 - 인테리어전문"}]},{"lat":"37.498055677","long":"127.51869507","items":[{"name":"주식회사테이크","tel":"070-7773-2082","addr":"경기도 양평군 양평읍 백안리 556-5번지","category":"음료식품 - 농·축·수산품"}]},{"lat":"37.491883785","long":"127.52691837","items":[{"name":"태성1급자동차공업사","tel":"031-74-1149","addr":"경기도 양평군 양평읍 백안리 269-3번지","category":"자동차정비 유지 - 자동차정비"}]},{"lat":"37.491890436","long":"127.52744987","items":[{"name":"폴라아트샵 양평점","tel":"031-111-1111","addr":"경기도 양평군 양평읍 백안리 269-6번지","category":"가구 - 기타가구"}]},{"lat":"37.497770915","long":"127.51580948","items":[{"name":"해물짬뽕탕수육","tel":"031-771-6313","addr":"경기도 양평군 양평읍 백안리 542-32번지 1층","category":"일반휴게음식 - 중국식"}]},{"lat":"37.495163512","long":"127.52075584","items":[{"name":"현성광고디자인","tel":"031-771-8689","addr":"경기도 양평군 양평읍 백안리 358-9","category":"건축자재 - 인테리어전문"}]},{"lat":"37.505913218","long":"127.52666582","items":[{"name":"화이트하우스","tel":"031-211-0324","addr":"경기도 양평군 양평읍 백안리 93번지","category":"숙박업 - 여관/기타숙박업"}]}]