[{"lat":"37.232434615","long":"126.98144888","imageIndex":17,"items":[{"name":"(주)다사리싸이클링","tel":"031-224-4288","addr":"경기도 수원시 권선구 오목천동 739-10번지","indutype":"의류 - 정장","category":"other"}]},{"lat":"37.233847846","long":"126.97478854","imageIndex":17,"items":[{"name":"(주)수일","tel":"031-294-2784","addr":"경기도 수원시 권선구 오목천동 853-2번지","indutype":"여행 - 택시회사","category":"other"}]},{"lat":"37.244458905","long":"126.9638184","imageIndex":17,"items":[{"name":"GS25권선오목천점","tel":"02-2006-2118","addr":"경기도 수원시 권선구 오목천동 498-5번지","indutype":"유통업 영리 - 편 의 점","category":"other"}]},{"lat":"37.234794092","long":"126.9754756","imageIndex":17,"items":[{"name":"GS25오목천그린점","tel":"","addr":"경기도 수원시 권선구 오목천동 824-1번지 2상가 206호","indutype":"유통업 영리 - 편 의 점","category":"other"},{"name":"크린토피아 수원권선오목천꿈에그린점","tel":"031-292-3104","addr":"경기도 수원시 권선구 오목천동 824-1번지 수원권선꿈에그린 단지네상가2단지 1호","indutype":"수리서비스 - 세탁소","category":"other"}]},{"lat":"37.245657735","long":"126.96522662","imageIndex":17,"items":[{"name":"handmade 공방","tel":"031-278-7161","addr":"경기도 수원시 권선구 오목천동 314-48번지 대유빌딩 101호","indutype":"문화.취미 - 문화취미기타","category":"other"},{"name":"해피랄라","tel":"031-227-9400","addr":"경기도 수원시 권선구 오목천동 314-48번지 대유빌딩 106호","indutype":"의류 - 아동의류","category":"other"}]},{"lat":"37.24524274","long":"126.96362639","imageIndex":17,"items":[{"name":"간지","tel":"031-306-9458","addr":"경기도 수원시 권선구 오목천동 320-11번지 1층","indutype":"의류 - 정장","category":"other"},{"name":"화성종합건재","tel":"031-291-6325","addr":"경기도 수원시 권선구 오목천동 320-11번지","indutype":"기타 - 기계공구","category":"other"}]},{"lat":"37.237632174","long":"126.97473079","imageIndex":17,"items":[{"name":"경기도인쇄정보산업협동조합","tel":"031-253-3311","addr":"경기도 수원시 권선구 오목천동 690번지 3층","indutype":"유통업 영리 - 기타유통업","category":"other"}]},{"lat":"37.237549186","long":"126.96765359","imageIndex":17,"items":[{"name":"국립축산과학원","tel":"031-292-4511","addr":"경기도 수원시 권선구 오목천동 562번지","indutype":"유통업 비영리 - 공무원 연금 매점","category":"other"}]},{"lat":"37.24535125","long":"126.96480975","imageIndex":17,"items":[{"name":"궁전인테리어","tel":"031-292-2943","addr":"경기도 수원시 권선구 오목천동 314-2번지","indutype":"건축자재 - 인테리어전문","category":"other"}]},{"lat":"37.243459793","long":"126.96708732","imageIndex":17,"items":[{"name":"그린모닝","tel":"070-8281-0074","addr":"경기도 수원시 권선구 오목천동 527-43, 중부주택 9-201 36/5","indutype":"신변잡화 - 기타잡화","category":"other"}]},{"lat":"37.243018685","long":"126.96842869","imageIndex":17,"items":[{"name":"글로벌세탁","tel":"031-292-2233","addr":"경기도 수원시 권선구 오목천동 227-9번지","indutype":"수리서비스 - 세탁소","category":"other"}]},{"lat":"37.245765446","long":"126.96395297","imageIndex":17,"items":[{"name":"다올모바일","tel":"070-7434-9374","addr":"경기도 수원시 권선구 오목천동 321-4번지","indutype":"사무통신 - 통신기기","category":"other"}]},{"lat":"37.245819754","long":"126.96470808","imageIndex":17,"items":[{"name":"대도","tel":"031-292-7552","addr":"경기도 수원시 권선구 오목천동 318-2번지","indutype":"직물 - 카페트,커튼,천막,지물","category":"other"}]},{"lat":"37.246486554","long":"126.96482045","imageIndex":17,"items":[{"name":"대우사","tel":"031-295-2177","addr":"경기도 수원시 권선구 오목천동 318-8","indutype":"용역 서비스 - 종합용역","category":"other"},{"name":"비엔비건설기계","tel":"031-294-9966","addr":"경기도 수원시 권선구 오목천동 318-8","indutype":"기타 - 기계공구","category":"other"},{"name":"아피스낚시","tel":"031-293-4293","addr":"경기도 수원시 권선구 오목천동 318-8,1층","indutype":"레져용품 - 스포츠·레져용품","category":"other"}]},{"lat":"37.232684769","long":"126.97181402","imageIndex":17,"items":[{"name":"동원샘물수원총판","tel":"031-291-6660","addr":"경기도 수원시 권선구 오목천동 656-2번지","indutype":"유통업 영리 - 기타유통업","category":"other"}]},{"lat":"37.24429578","long":"126.96106849","imageIndex":17,"items":[{"name":"동일샷시","tel":"031-296-7804","addr":"경기도 수원시 권선구 오목천동 378-4번지","indutype":"건축자재 - 보일러·펌프·샷시","category":"other"},{"name":"정희건설","tel":"031-225-8277","addr":"경기도 수원시 권선구 오목천동 378-4번지","indutype":"건축자재 - 페인트","category":"other"}]},{"lat":"37.239513651","long":"126.96837394","imageIndex":17,"items":[{"name":"디앤피","tel":"031-355-4478","addr":"경기도 수원시 권선구 오목천동 558-7번지","indutype":"용역 서비스 - 종합용역","category":"other"},{"name":"세븐일레븐수원오목천대로점","tel":"","addr":"경기도 수원시 권선구 오목천동 558-7번지 101호~102호","indutype":"유통업 영리 - 편 의 점","category":"other"},{"name":"창우씨앤씨","tel":"031-293-1750","addr":"경기도 수원시 권선구 오목천동 558-7번지","indutype":"사무통신 - 컴퓨터","category":"other"},{"name":"후지냉동","tel":"031-292-8626","addr":"경기도 수원시 권선구 오목천동 558-7번지","indutype":"전기제품 - 냉열기기","category":"other"}]},{"lat":"37.240242697","long":"126.96575899","imageIndex":17,"items":[{"name":"딸기공주","tel":"031-291-2562","addr":"경기도 수원시 권선구 오목천동 431-1 로뎀프라자 1층 101-1","indutype":"의류 - 정장","category":"other"},{"name":"상오","tel":"031-294-9990","addr":"경기도 수원시 권선구 오목천동 431-1번지 로뎀프라자 107호","indutype":"건축자재 - 인테리어전문","category":"other"},{"name":"하늘땅인테리어","tel":"031-294-6969","addr":"경기도 수원시 권선구 오목천동 431-1번지","indutype":"직물 - 카페트,커튼,천막,지물","category":"other"}]},{"lat":"37.244882372","long":"126.96376183","imageIndex":17,"items":[{"name":"레인보우텔레콤(오목천동점)","tel":"031-292-7010","addr":"경기도 수원시 권선구 오목천동 500-1번지","indutype":"사무통신 - 통신기기","category":"other"}]},{"lat":"37.246549218","long":"126.96356936","imageIndex":17,"items":[{"name":"마루조명LED","tel":"031-298-1100","addr":"경기도 수원시 권선구 오목천동 327-6번지 101호","indutype":"건축자재 - 조명기구","category":"other"}]},{"lat":"37.241990257","long":"126.96437191","imageIndex":17,"items":[{"name":"마리엔모리 수원권선점","tel":"031-293-2001","addr":"경기도 수원시 권선구 오목천동 452-2번지 1층","indutype":"서적문구 - 문구용품","category":"other"},{"name":"영신서점","tel":"031-291-9930","addr":"경기도 수원시 권선구 오목천동 452-2번지","indutype":"서적문구 - 일반서적","category":"other"},{"name":"제일좋은이벤트","tel":"054-283-0083","addr":"경기도 수원시 권선구 오목천동 452-2번지","indutype":"신변잡화 - 기타잡화","category":"other"}]},{"lat":"37.240963259","long":"126.96492466","imageIndex":17,"items":[{"name":"만년설비","tel":"","addr":"경기도 수원시 권선구 오목천동 446번지 효창주택 102호","indutype":"용역 서비스 - 기타용역서비스","category":"other"}]},{"lat":"37.245603104","long":"126.96347969","imageIndex":17,"items":[{"name":"명가홈인테리어","tel":"031-291-7629","addr":"경기도 수원시 권선구 오목천동 320-3번지 1층","indutype":"건축자재 - 인테리어전문","category":"other"}]},{"lat":"37.245874089","long":"126.96556463","imageIndex":17,"items":[{"name":"모자오토바이","tel":"031-291-8925","addr":"경기도 수원시 권선구 오목천동 314-17번지","indutype":"수리서비스 - 레져용품수리","category":"other"}]},{"lat":"37.245431908","long":"126.96347978","imageIndex":17,"items":[{"name":"무궁화세탁","tel":"031-292-2950","addr":"경기도 수원시 권선구 오목천동 320-12번지","indutype":"수리서비스 - 세탁소","category":"other"}]},{"lat":"37.252513989","long":"126.96339719","imageIndex":17,"items":[{"name":"미니스톱수원여대인제점","tel":"031-1577-9621","addr":"경기도 수원시 권선구 오목천동 산1-6번지 학생회관 1층 매점","indutype":"유통업 영리 - 편 의 점","category":"other"},{"name":"수원여대구내","tel":"070-7745-6199","addr":"경기도 수원시 권선구 오목천동 산1-6번지 수원여자대학 한울관 1층","indutype":"서적문구 - 일반서적","category":"other"}]},{"lat":"37.245793187","long":"126.96617329","imageIndex":17,"items":[{"name":"미디어앤피플 미디어협동조합","tel":"031-225-2300","addr":"경기도 수원시 권선구 오목천동 314-85번지 301호","indutype":"용역 서비스 - 종합용역","category":"other"},{"name":"아이랩프랜드","tel":"031-304-3024","addr":"경기도 수원시 권선구 오목천동 314-85번지 101호","indutype":"서적문구 - 과학기자재","category":"other"}]},{"lat":"37.243629881","long":"126.96359342","imageIndex":17,"items":[{"name":"미르라인","tel":"031-294-8055","addr":"경기도 수원시 권선구 오목천동 472-7번지","indutype":"용역 서비스 - 종합용역","category":"other"}]},{"lat":"37.242712261","long":"126.96818089","imageIndex":17,"items":[{"name":"박카트럭","tel":"","addr":"경기도 수원시 권선구 오목천동 523-5번지 오목그린타운 301호","indutype":"용역 서비스 - 기타용역서비스","category":"other"}]},{"lat":"37.246378903","long":"126.96631952","imageIndex":17,"items":[{"name":"반품할인매장","tel":"031-292-2228","addr":"경기도 수원시 권선구 오목천동 314-6번지","indutype":"전기제품 - 가전제품","category":"other"},{"name":"착한광고","tel":"031-308-2445","addr":"경기도 수원시 권선구 오목천동 314-6번지 2층","indutype":"건축자재 - 인테리어전문","category":"other"}]},{"lat":"37.244397129","long":"126.96796597","imageIndex":17,"items":[{"name":"보나바이핸드","tel":"","addr":"경기도 수원시 권선구 오목천동 956번지 오목천동푸르지오2단지 203동 105호","indutype":"신변잡화 - 액세서리","category":"other"},{"name":"아이트랩 (냄새프로)","tel":"031-1599-9557","addr":"경기도 수원시 권선구 오목천동 956번지 오목천동푸르지오2단지 203동 510호","indutype":"용역 서비스 - 기타용역서비스","category":"other"},{"name":"주르 도자기 공방","tel":"","addr":"경기도 수원시 권선구 오목천동 956번지 오목천동푸르지오2단지 203동 301호","indutype":"문화.취미 - 문화취미기타","category":"other"}]},{"lat":"37.239881778","long":"126.9641814","imageIndex":17,"items":[{"name":"사과꽃집","tel":"","addr":"경기도 수원시 권선구 오목천동 438-7번지 102호","indutype":"문화.취미 - 화원","category":"other"}]},{"lat":"37.255992523","long":"126.96509748","imageIndex":17,"items":[{"name":"사단법인 한국환경문화사랑","tel":"031-225-7781","addr":"경기도 수원시 권선구 오목천동 11-2번지 2층","indutype":"기타 - 비영리/비대상","category":"other"}]},{"lat":"37.244541621","long":"126.96909296","imageIndex":17,"items":[{"name":"삼인건설","tel":"031-278-4204","addr":"경기도 수원시 권선구 오목천동 919-6번지","indutype":"건축자재 - 인테리어전문","category":"other"}]},{"lat":"37.247630195","long":"126.9627911","imageIndex":17,"items":[{"name":"서희세탁소","tel":"031-297-9981","addr":"경기도 수원시 권선구 오목천동 1170번지 서희스타힐스아파트 상가동 204호","indutype":"수리서비스 - 세탁소","category":"other"}]},{"lat":"37.246180606","long":"126.9660942","imageIndex":17,"items":[{"name":"성심종합알뜰매장","tel":"031-292-8288","addr":"경기도 수원시 권선구 오목천동 314-22번지 1층","indutype":"전기제품 - 가전제품","category":"other"}]},{"lat":"37.233551154","long":"126.97767349","imageIndex":17,"items":[{"name":"세븐일레븐수원그린메디피아점","tel":"031-1577-0711","addr":"경기도 수원시 권선구 오목천동 1182-1번지 그린메디프라자 1층 103,104호","indutype":"유통업 영리 - 편 의 점","category":"other"}]},{"lat":"37.243521078","long":"126.96159862","imageIndex":17,"items":[{"name":"세븐일레븐수원오목청구점","tel":"031-1577-0711","addr":"경기도 수원시 권선구 오목천동 381번지 청구2차아파트 108, 109호","indutype":"유통업 영리 - 편 의 점","category":"other"}]},{"lat":"37.247513871","long":"126.96525951","imageIndex":17,"items":[{"name":"수원오목천동지역주택조합","tel":"031-292-4800","addr":"경기도 수원시 권선구 오목천동 337번지","indutype":"건축자재 - 부동산 분양","category":"other"}]},{"lat":"37.241405721","long":"126.96803497","imageIndex":17,"items":[{"name":"씨유오목천영신점","tel":"031-292-7727","addr":"경기도 수원시 권선구 오목천동 545-4번지 1층","indutype":"유통업 영리 - 편 의 점","category":"other"}]},{"lat":"37.246568313","long":"126.9669506","imageIndex":17,"items":[{"name":"아메리칸 스탠다드 서울동부대행점","tel":"","addr":"경기도 수원시 권선구 오목천동 951번지 오목천동푸르지오1단지 101동 401호","indutype":"수리서비스 - 기타수리서비스","category":"other"}]},{"lat":"37.244323839","long":"126.96408896","imageIndex":17,"items":[{"name":"아이앤조이(I&JOY)","tel":"031-292-4511","addr":"경기도 수원시 권선구 오목천동 498-1번지 1동 2층","indutype":"서적문구 - 기타서적문구","category":"other"},{"name":"킴벌리샵","tel":"031-613-0020","addr":"경기도 수원시 권선구 오목천동 498-1번지","indutype":"신변잡화 - 기타잡화","category":"other"}]},{"lat":"37.244377674","long":"126.96340143","imageIndex":17,"items":[{"name":"에덴꽃동산","tel":"031-295-0056","addr":"경기도 수원시 권선구 오목천동 372-3번지","indutype":"문화.취미 - 화원","category":"other"}]},{"lat":"37.244575704","long":"126.96281526","imageIndex":17,"items":[{"name":"에스제이코퍼레이션","tel":"070-8817-1558","addr":"경기도 수원시 권선구 오목천동 372-5번지","indutype":"건축자재 - 기타건축자재","category":"other"}]},{"lat":"37.244882009","long":"126.96267985","imageIndex":17,"items":[{"name":"에픽바이크 (EPIC Bike)","tel":"031-293-3559","addr":"경기도 수원시 권선구 오목천동 367-14번지","indutype":"레져용품 - 스포츠·레져용품","category":"other"}]},{"lat":"37.243764942","long":"126.96331159","imageIndex":17,"items":[{"name":"오목천동킥복싱","tel":"031-227-0027","addr":"경기도 수원시 권선구 오목천동 472-16번지 3층","indutype":"회원제형태 - 레져업소","category":"other"}]},{"lat":"37.245404802","long":"126.96325438","imageIndex":17,"items":[{"name":"우먼로드","tel":"031-294-8244","addr":"경기도 수원시 권선구 오목천동 367-30번지","indutype":"직물 - 침구·수예점","category":"other"}]},{"lat":"37.245187822","long":"126.96112435","imageIndex":17,"items":[{"name":"우주종합주방","tel":"031-292-4499","addr":"경기도 수원시 권선구 오목천동 361-2번지","indutype":"주방용구 - 주방용구","category":"other"},{"name":"태광사","tel":"031-295-0279","addr":"경기도 수원시 권선구 오목천동 361-2번지","indutype":"기타 - 기계공구","category":"other"}]},{"lat":"37.245297064","long":"126.96442658","imageIndex":17,"items":[{"name":"이록열쇠","tel":"031-294-1313","addr":"경기도 수원시 권선구 오목천동 314-3번지","indutype":"건축자재 - 목재·석재·철물","category":"other"}]},{"lat":"37.240577281","long":"126.969816","imageIndex":17,"items":[{"name":"이마트24","tel":"031-000-0000","addr":"경기도 수원시 권선구 오목천동 213-1번지","indutype":"유통업 영리 - 편 의 점","category":"other"}]},{"lat":"37.239827834","long":"126.96454206","imageIndex":17,"items":[{"name":"일화철물마트/(주)일화시냅스","tel":"031-227-7973","addr":"경기도 수원시 권선구 오목천동 438-5번지","indutype":"건축자재 - 목재·석재·철물","category":"other"}]},{"lat":"37.241431788","long":"126.96490189","imageIndex":17,"items":[{"name":"제일탄성","tel":"031-253-9346","addr":"경기도 수원시 권선구 오목천동 450-4번지 명성비라 B-6호","indutype":"건축자재 - 페인트","category":"other"}]},{"lat":"37.253604116","long":"126.96303592","imageIndex":17,"items":[{"name":"주식회사 원테크","tel":"070-4324-0218","addr":"경기도 수원시 권선구 오목천동 20-1번지","indutype":"전기제품 - 기타전기제품","category":"other"}]},{"lat":"37.252208255","long":"126.96529099","imageIndex":17,"items":[{"name":"주식회사 진명이앤지","tel":"031-292-5373","addr":"경기도 수원시 권선구 오목천동 29-8번지 2층","indutype":"용역 서비스 - 기타용역서비스","category":"other"}]},{"lat":"37.239765718","long":"126.96761875","imageIndex":17,"items":[{"name":"주식회사디엔씨투어","tel":"00-1600-6684","addr":"경기도 수원시 권선구 오목천동 558-3번지 한양빌딩 401호","indutype":"여행 - 관광여행","category":"other"}]},{"lat":"37.246819808","long":"126.96442581","imageIndex":17,"items":[{"name":"즐거운강아지","tel":"","addr":"경기도 수원시 권선구 오목천동 318-59번지 오목동마을회관 1층 104호","indutype":"문화.취미 - 애완동물","category":"other"}]},{"lat":"37.243847155","long":"126.96681665","imageIndex":17,"items":[{"name":"지에프지엔지니어링","tel":"031-374-0902","addr":"경기도 수원시 권선구 오목천동 527-57번지","indutype":"기타 - 기계공구","category":"other"}]},{"lat":"37.247964607","long":"126.96595808","imageIndex":17,"items":[{"name":"창영환경","tel":"031-257-3330","addr":"경기도 수원시 권선구 오목천동 263-1번지","indutype":"용역 서비스 - 종합용역","category":"other"}]},{"lat":"37.245044639","long":"126.9640097","imageIndex":17,"items":[{"name":"천일통신","tel":"031-291-1599","addr":"경기도 수원시 권선구 오목천동 313-5번지","indutype":"사무통신 - 통신기기","category":"other"},{"name":"휴대폰마트 오목천점","tel":"","addr":"경기도 수원시 권선구 오목천동 313-5번지 1층","indutype":"사무통신 - 통신기기","category":"other"}]},{"lat":"37.252568505","long":"126.96478358","imageIndex":17,"items":[{"name":"최영애브리스","tel":"031-480-3060","addr":"경기도 수원시 권선구 오목천동 30번지 뉴엠파크 402호","indutype":"의류 - 내의판매","category":"other"}]},{"lat":"37.250540637","long":"126.96311643","imageIndex":17,"items":[{"name":"탑","tel":"031-246-9543","addr":"경기도 수원시 권선구 오목천동 39-56번지","indutype":"용역 서비스 - 사무서비스","category":"other"}]},{"lat":"37.24055014","long":"126.96942157","imageIndex":17,"items":[{"name":"핑크피플","tel":"031-3890-2305","addr":"경기도 수원시 권선구 오목천동 550-3번지 동일빌라 B동 401호","indutype":"회원제형태 - 기타1","category":"other"}]},{"lat":"37.232461721","long":"126.98186581","imageIndex":17,"items":[{"name":"한국후지테크","tel":"031-296-7691","addr":"경기도 수원시 권선구 오목천동 739번지","indutype":"기타 - 기계공구","category":"other"}]},{"lat":"37.242811401","long":"126.968271","imageIndex":17,"items":[{"name":"핸즈 수","tel":"","addr":"경기도 수원시 권선구 오목천동 523-5번지 오목그린타운 B동 304호","indutype":"의류 - 아동의류","category":"other"}]},{"lat":"37.240351944","long":"126.96953436","imageIndex":17,"items":[{"name":"훼밀리스크린골프","tel":"031-292-4230","addr":"경기도 수원시 권선구 오목천동 551-1번지","indutype":"회원제형태 - 레져업소","category":"other"}]}]