[{"lat":"37.4541382","long":"127.1509253","items":[{"name":"BBQ산성동점","tel":"031-748-7626","addr":"경기도 성남시 수정구 산성동 1466번지","category":""}]},{"lat":"37.4545524","long":"127.1511522","items":[{"name":"꼬맹이 화장품","tel":"031-746-1434","addr":"경기도 성남시 수정구 산성동 1361번지","category":""}]},{"lat":"37.4527431","long":"127.1497924","items":[{"name":"꾸러기창의학원","tel":"031-746-3020","addr":"경기도 성남시 수정구 산성동 2125-1번지","category":""}]},{"lat":"37.4546605","long":"127.151175","items":[{"name":"남산숯불갈비","tel":"031-744-5292","addr":"경기도 성남시 수정구 산성동 1362번지","category":""}]},{"lat":"37.4533544","long":"127.1508786","items":[{"name":"남일유통 산성점","tel":"031-741-4756","addr":"경기도 성남시 수정구 산성동 1556번지","category":""}]},{"lat":"37.4536309","long":"127.1530943","items":[{"name":"남일유통 털보점","tel":"031-743-2464","addr":"경기도 성남시 수정구 산성동 1822번지","category":""}]},{"lat":"37.4534983","long":"127.151071","items":[{"name":"노블헤어샵","tel":"031-757-7166","addr":"경기도 성남시 수정구 산성동 1648번지","category":""}]},{"lat":"37.4545538","long":"127.1499881","items":[{"name":"농촌사랑돈비어 산성점","tel":"","addr":"경기도 성남시 수정구 산성동 1434번지","category":""},{"name":"행복한약국","tel":"031-749-8543","addr":"경기도 성남시 수정구 산성동 1434번지","category":""}]},{"lat":"37.4525798","long":"127.1506849","items":[{"name":"다들림보리밥","tel":"031-731-2689","addr":"경기도 성남시 수정구 산성동 2114번지","category":""}]},{"lat":"37.4550752","long":"127.1509837","items":[{"name":"대성식당","tel":"031-742-8131","addr":"경기도 성남시 수정구 산성동 1364번지","category":""},{"name":"신중앙 메디칼약국","tel":"031-744-0158","addr":"경기도 성남시 수정구 산성동 1364번지","category":""}]},{"lat":"37.4553002","long":"127.1511763","items":[{"name":"대오약국","tel":"031-733-3349","addr":"경기도 성남시 수정구 산성동 920번지","category":""}]},{"lat":"37.4521665","long":"127.1497122","items":[{"name":"뜨끈이해장국","tel":"031-744-6542","addr":"경기도 성남시 수정구 산성동 2134번지","category":""}]},{"lat":"37.4549093","long":"127.1538993","items":[{"name":"뜬바우골한우","tel":"031-731-9337","addr":"경기도 성남시 수정구 산성동 555번지","category":""}]},{"lat":"37.4510547","long":"127.1525693","items":[{"name":"마망베이커리&카페1호점","tel":"031-735-3398","addr":"경기도 성남시 수정구 산성동 2156번지","category":""}]},{"lat":"37.4557765","long":"127.1521492","items":[{"name":"베스트핀","tel":"","addr":"경기도 성남시 수정구 산성동 661번지","category":""}]},{"lat":"37.4546578","long":"127.1532885","items":[{"name":"보아스베이커리카페","tel":"031-731-8050","addr":"경기도 성남시 수정구 산성동 1030번지","category":""}]},{"lat":"37.4539123","long":"127.1514561","items":[{"name":"보영제화","tel":"031-731-4761","addr":"경기도 성남시 수정구 산성동 1762번지","category":""}]},{"lat":"37.4539646","long":"127.1528689","items":[{"name":"산성칼국수","tel":"031-741-8862","addr":"경기도 성남시 수정구 산성동 1223번지","category":""}]},{"lat":"37.4558856","long":"127.151347","items":[{"name":"산성퓨전포차","tel":"031-758-7696","addr":"경기도 성남시 수정구 산성동 852번지","category":""}]},{"lat":"37.4563874","long":"127.1535406","items":[{"name":"새강약국","tel":"031-747-4655","addr":"경기도 성남시 수정구 산성동 402번지","category":""}]},{"lat":"37.4525538","long":"127.1498147","items":[{"name":"서서갈비 산성점","tel":"031-744-4567","addr":"경기도 성남시 수정구 산성동 2125번지","category":""}]},{"lat":"37.4527757","long":"127.1525162","items":[{"name":"성남시니어클럽 국시랑","tel":"031-735-6332","addr":"경기도 성남시 수정구 산성동 1597번지","category":""}]},{"lat":"37.4529648","long":"127.1525957","items":[{"name":"성남시니어클럽 장인진기름","tel":"031-739-2973","addr":"경기도 성남시 수정구 산성동 1631번지","category":""}]},{"lat":"37.4525776","long":"127.1524254","items":[{"name":"슈퍼푸드(산성점)","tel":"031-747-0889","addr":"경기도 성남시 수정구 산성동 1928번지","category":""}]},{"lat":"37.4551033","long":"127.1500683","items":[{"name":"신세계","tel":"031-745-1001","addr":"경기도 성남시 수정구 산성동 1391번지","category":""},{"name":"한우명가","tel":"031-732-7177","addr":"경기도 성남시 수정구 산성동 1391번지","category":""},{"name":"헤어스토리","tel":"031-742-2331","addr":"경기도 성남시 수정구 산성동 1391번지","category":""}]},{"lat":"37.4544713","long":"127.151152","items":[{"name":"신중앙철물","tel":"031-742-7931","addr":"경기도 성남시 수정구 산성동 1360번지","category":""}]},{"lat":"37.4542703","long":"127.1533781","items":[{"name":"쌀부잣집","tel":"031-733-3234","addr":"경기도 성남시 수정구 산성동 1144번지","category":""}]},{"lat":"37.454716","long":"127.150011","items":[{"name":"아리따움 산성역점","tel":"031-747-3335","addr":"경기도 성남시 수정구 산성동 1433번지","category":""},{"name":"파리바게뜨 산성역점","tel":"031-731-8244","addr":"경기도 성남시 수정구 산성동 1433번지","category":""}]},{"lat":"37.4517761","long":"127.1520961","items":[{"name":"영일마트","tel":"031-743-4851","addr":"경기도 성남시 수정구 산성동 2006번지","category":""}]},{"lat":"37.4523542","long":"127.1509331","items":[{"name":"예원문구","tel":"031-745-5812","addr":"경기도 성남시 수정구 산성동 2090번지","category":""}]},{"lat":"37.4549636","long":"127.1537299","items":[{"name":"월드마트산성점","tel":"031-742-9092","addr":"경기도 성남시 수정구 산성동 556번지","category":""}]},{"lat":"37.4540475","long":"127.1514338","items":[{"name":"유성방아","tel":"031-746-9305","addr":"경기도 성남시 수정구 산성동 1341번지","category":""}]},{"lat":"37.4537753","long":"127.1529251","items":[{"name":"이엠최강학원","tel":"031-732-1225","addr":"경기도 성남시 수정구 산성동 1795번지","category":""},{"name":"태성(행복한집)","tel":"031-745-0709","addr":"경기도 성남시 수정구 산성동 1795번지","category":""}]},{"lat":"37.454165","long":"127.1510949","items":[{"name":"전주약국","tel":"031-734-6524","addr":"경기도 성남시 수정구 산성동 1358번지","category":""}]},{"lat":"37.4553824","long":"127.1502949","items":[{"name":"정직한 고기총각","tel":"031-736-3343","addr":"경기도 성남시 수정구 산성동 866번지","category":""}]},{"lat":"37.4539371","long":"127.1531853","items":[{"name":"정호방아간","tel":"031-731-7596","addr":"경기도 성남시 수정구 산성동 1183번지","category":""}]},{"lat":"37.4562164","long":"127.1534046","items":[{"name":"진로마트 산성동","tel":"031-735-5333","addr":"경기도 성남시 수정구 산성동 404번지 부흥하이츠3차","category":""}]},{"lat":"37.452858","long":"127.151567","items":[{"name":"진미정육점","tel":"031-744-1132","addr":"경기도 성남시 수정구 산성동 2040번지","category":""}]},{"lat":"37.4551649","long":"127.151289","items":[{"name":"축협축산물직판장","tel":"031-735-2188","addr":"경기도 성남시 수정구 산성동 949번지","category":""}]},{"lat":"37.4551384","long":"127.1508482","items":[{"name":"치킨플러스 산성점","tel":"031-746-2366","addr":"경기도 성남시 수정구 산성동 1365번지","category":""}]},{"lat":"37.456324","long":"127.1537665","items":[{"name":"팔구미곡상회","tel":"031-742-4817","addr":"경기도 성남시 수정구 산성동 423번지","category":""}]},{"lat":"37.4567746","long":"127.1537335","items":[{"name":"하늘마트","tel":"031-732-2221","addr":"경기도 성남시 수정구 산성동 401번지","category":""}]},{"lat":"37.4527766","long":"127.151759","items":[{"name":"한국유통(우리점)","tel":"031-743-7387","addr":"경기도 성남시 수정구 산성동 2026번지","category":""}]},{"lat":"37.4552733","long":"127.1510406","items":[{"name":"한국유통문화점","tel":"031-747-3115","addr":"경기도 성남시 수정구 산성동 919번지","category":""}]},{"lat":"37.4568282","long":"127.1540953","items":[{"name":"한국잉크토너연구소","tel":"031-734-0970","addr":"경기도 성남시 수정구 산성동 112번지","category":""}]},{"lat":"37.4537416","long":"127.1510941","items":[{"name":"한아름마트","tel":"031-731-1361","addr":"경기도 성남시 수정구 산성동 1719번지","category":""}]},{"lat":"37.4537148","long":"127.1509019","items":[{"name":"해맑음정육점","tel":"031-731-3209","addr":"경기도 성남시 수정구 산성동 1517번지","category":""}]},{"lat":"37.4563594","long":"127.1542865","items":[{"name":"헤드온(미니도도)","tel":"031-748-9962","addr":"경기도 성남시 수정구 산성동 148번지 초원빌라","category":""}]},{"lat":"37.4516591","long":"127.1520393","items":[{"name":"헤어모리스","tel":"031-732-8068","addr":"경기도 성남시 수정구 산성동 2007번지","category":""}]},{"lat":"37.4561604","long":"127.1548964","items":[{"name":"황금슈퍼","tel":"031-736-2155","addr":"경기도 성남시 수정구 산성동 143번지 황금빌라1차","category":""}]},{"lat":"37.456055","long":"127.152794","items":[{"name":"황소갈비살","tel":"031-741-1317","addr":"경기도 성남시 수정구 산성동 669번지","category":""}]}]