[{"lat":"37.529044796","long":"127.23136284","items":[{"name":"(사)민족문화유산샤먼스테이","tel":"031-000-0000","addr":"경기도 하남시 창우동 453-25번지","category":"보건위생 - 기타대인서비스"}]},{"lat":"37.536294705","long":"127.22825091","items":[{"name":"(주) 알파오","tel":"031-793-8222","addr":"경기도 하남시 창우동 523번지 하남시 벤처집적시설 4층 404호","category":"전기제품 - 기타전기제품"},{"name":"후광전자(주)","tel":"031-796-0069","addr":"경기도 하남시 창우동 523번지 하남벤처센터 702호","category":"전기제품 - 기타전기제품"}]},{"lat":"37.534039374","long":"127.22500835","items":[{"name":"(주)글로벌유통","tel":"031-000-0000","addr":"경기도 하남시 창우동 200-13번지 1층","category":"신변잡화 - 기타잡화"}]},{"lat":"37.528905774","long":"127.22869252","items":[{"name":"(주)디피웨이","tel":"031-796-9086","addr":"경기도 하남시 창우동 447-1번지 가동","category":"의류 - 정장"}]},{"lat":"37.528457333","long":"127.22761643","items":[{"name":"(주)라이트하우스","tel":"031-796-7222","addr":"경기도 하남시 창우동 429-8번지 루체빌딩 2층","category":"건축자재 - 조명기구"}]},{"lat":"37.533240035","long":"127.22842274","items":[{"name":"(주)레드페이스 검단산점","tel":"02-3434-3415","addr":"경기도 하남시 창우동 290-1번지","category":"레져용품 - 스포츠·레져용품"},{"name":"더웨스트우드검단산점","tel":"031-795-3003","addr":"경기도 하남시 창우동 290-1번지 1층","category":"레져용품 - 스포츠·레져용품"}]},{"lat":"37.535122523","long":"127.22872258","items":[{"name":"(주)맥스에반코리아","tel":"02-1588-8915","addr":"경기도 하남시 창우동 270-27번지 태주빌딩 211호","category":"신변잡화 - 액세서리"}]},{"lat":"37.533566242","long":"127.22745073","items":[{"name":"(주)신한프라임","tel":"070-7510-2121","addr":"경기도 하남시 창우동 299-1번지","category":"음료식품 - 정육점"},{"name":"검단레저","tel":"070-4159-4569","addr":"경기도 하남시 창우동 299-1번지","category":"유통업 영리 - 편 의 점"},{"name":"검단레저","tel":"070-8809-8848","addr":"경기도 하남시 창우동 299-1번지","category":"의류 - 스포츠의류"},{"name":"제주흑돼지 본돈","tel":"031-792-8556","addr":"경기도 하남시 창우동 299-1번지","category":"일반휴게음식 - 일반한식"},{"name":"주식회사 가인메디컬","tel":"031-1800-8995","addr":"경기도 하남시 창우동 299-1번지","category":"보건위생 - 의료용품"},{"name":"청보리 낙지마당","tel":"031-793-7229","addr":"경기도 하남시 창우동 299-1번지","category":"일반휴게음식 - 일반한식"}]},{"lat":"37.534012918","long":"127.22470279","items":[{"name":"(주)애드플레이","tel":"070-7775-6700","addr":"경기도 하남시 창우동 200-4번지","category":"용역 서비스 - 종합용역"}]},{"lat":"37.534510958","long":"127.22814372","items":[{"name":"(주)에이치엔에스","tel":"031-794-5942","addr":"경기도 하남시 창우동 284-5번지","category":"의류 - 스포츠의류"},{"name":"JDX 하남 검단산","tel":"031-796-5942","addr":"경기도 하남시 창우동 284-5번지","category":"레져용품 - 스포츠·레져용품"}]},{"lat":"37.541957573","long":"127.23513623","items":[{"name":"(주)오와이로지스(OY Logis)","tel":"031-1577-8934","addr":"경기도 하남시 창우동 47-10번지","category":"음료식품 - 정육점"},{"name":"미사리남원추어탕본점","tel":"031-793-9307","addr":"경기도 하남시 창우동 47-10번지 1층","category":"일반휴게음식 - 일반한식"}]},{"lat":"37.527073549","long":"127.22564384","items":[{"name":"(주)케이엠케이","tel":"031-796-8977","addr":"경기도 하남시 창우동 416-23번지","category":"가구 - 기타가구"}]},{"lat":"37.540871839","long":"127.23285855","items":[{"name":"(주)화인엠엔에스","tel":"070-4139-9951","addr":"경기도 하남시 창우동 27번지","category":"보건위생 - 의료용품"}]},{"lat":"37.541350275","long":"127.23697869","items":[{"name":"14번지루프탑앤카페","tel":"","addr":"경기도 하남시 창우동 14번지 ,2~4층","category":"일반휴게음식 - 서양음식"}]},{"lat":"37.534150608","long":"127.22812001","items":[{"name":"2019빵사랑","tel":"031-795-5966","addr":"경기도 하남시 창우동 288번지 1층","category":"음료식품 - 제과점"},{"name":"가락공판장 검단산점","tel":"031-795-7100","addr":"경기도 하남시 창우동 288번지 1층","category":"유통업 영리 - 슈퍼마켓"}]},{"lat":"37.526539809","long":"127.22678484","items":[{"name":"AMS팩토리","tel":"031-1588-3540","addr":"경기도 하남시 창우동 442-3번지 1층","category":"자동차정비 유지 - 자동차부품"}]},{"lat":"37.534180391","long":"127.22667191","items":[{"name":"CAFE 온","tel":"","addr":"경기도 하남시 창우동 307-2번지 1층","category":"일반휴게음식 - 서양음식"},{"name":"백년곰탕","tel":"031-796-2570","addr":"경기도 하남시 창우동 307-2번지 외2필지","category":"일반휴게음식 - 일반한식"},{"name":"백년불고기","tel":"","addr":"경기도 하남시 창우동 307-2번지 1층","category":"일반휴게음식 - 일반한식"}]},{"lat":"37.536705148","long":"127.22561591","items":[{"name":"COOL#미용실","tel":"031-791-3754","addr":"경기도 하남시 창우동 521 신안종합상가212호","category":"보건위생 - 미용원"},{"name":"가휘스킨케어","tel":"070-4108-4425","addr":"경기도 하남시 창우동 521번지 꿈동산신안아파트","category":"보건위생 - 피부미용실"},{"name":"경기인포","tel":"031-632-6995","addr":"경기도 하남시 창우동 521번지 꿈동산신안아파트","category":"용역 서비스 - 사무서비스"},{"name":"금당","tel":"031-793-9522","addr":"경기도 하남시 창우동 521신안상가127","category":"신변잡화 - 액세서리"},{"name":"꿈동산 미술","tel":"","addr":"경기도 하남시 창우동 521번지 신안 종합상가 206호","category":"학원 - 예·체능계학원"},{"name":"남대문안경마트","tel":"031-793-3698","addr":"경기도 하남시 창우동 521신안상가137,138호","category":"보건위생 - 안경"},{"name":"대성참기름","tel":"031-793-6334","addr":"경기도 하남시 창우동 521 신안상가지층 36","category":"음료식품 - 기타음료식품"},{"name":"더 베스트 보습학원","tel":"031-796-5605","addr":"경기도 하남시 창우동 521번지 신안종합상가 3층 313호 창우동","category":"학원 - 보습학원"},{"name":"러벤","tel":"031-794-7553","addr":"경기도 하남시 창우동 521번지 꿈동산신안 상가 2층 223호","category":"의류 - 정장"},{"name":"베이비꼬미","tel":"070-7562-3452","addr":"경기도 하남시 창우동 521번지 신안종합상가 204호 장우동","category":"의류 - 아동의류"},{"name":"보명한의원","tel":"031-793-7273","addr":"경기도 하남시 창우동 521신안종합상가314호","category":"의원 - 한의원"},{"name":"서정인테리어","tel":"031-795-6818","addr":"경기도 하남시 창우동 521번지 신안상가 2층 205호","category":"건축자재 - 인테리어전문"},{"name":"세브란츠약국","tel":"031-791-5575","addr":"경기도 하남시 창우동 521번지 신안종합상가1층 120호 창우동","category":"약국 - 약국"},{"name":"신안떡방앗간","tel":"031-796-1575","addr":"경기도 하남시 창우동 521신안상가8,9호","category":"음료식품 - 제과점"},{"name":"신안세탁소","tel":"031-794-3778","addr":"경기도 하남시 창우동 521신안종합상가2층221","category":"수리서비스 - 세탁소"},{"name":"신안정육점","tel":"031-792-3045","addr":"경기도 하남시 창우동 521번지 꿈동산신안상가 지하층 16,17호","category":"음료식품 - 정육점"},{"name":"오르","tel":"031-796-3693","addr":"경기도 하남시 창우동 521번지 신한 종합상가 201호","category":"보건위생 - 화장품"},{"name":"올리브","tel":"031-792-6479","addr":"경기도 하남시 창우동 521번지 신안상가202 창우동","category":"의류 - 정장"},{"name":"와이앤케이","tel":"031-791-5214","addr":"경기도 하남시 창우동 521번지 103호,104호","category":"건축자재 - 인테리어전문"},{"name":"이내과의원","tel":"031-794-9076","addr":"경기도 하남시 창우동 521번지 신안종합상가 302호","category":"의원 - 의원"},{"name":"제이원네일","tel":"031-791-4376","addr":"경기도 하남시 창우동 521번지 2층 225호 A꿈동산신안주상가","category":"보건위생 - 피부미용실"},{"name":"케리홈치킨","tel":"031-791-3599","addr":"경기도 하남시 창우동 521번지 신안종합상가지층37호,38호","category":"일반휴게음식 - 주점"},{"name":"코사마트","tel":"031-791-3339","addr":"경기도 하남시 창우동 521번지꿈동산신안상가지하1호","category":"유통업 영리 - 슈퍼마켓"},{"name":"크린토피아","tel":"031-795-3662","addr":"경기도 하남시 창우동 521 신안(아)주상가1층142호","category":"수리서비스 - 세탁소"},{"name":"프렌드","tel":"031-793-2176","addr":"경기도 하남시 창우동 521신안종합상가144","category":"의류 - 정장"},{"name":"한아름","tel":"031-793-6953","addr":"경기도 하남시 창우동 521번지 신안종합상가 2층 222호","category":"의류 - 정장"}]},{"lat":"37.543155162","long":"127.22616691","items":[{"name":"EMF","tel":"02-441-9850","addr":"경기도 하남시 창우동 146-6번지","category":"건강식품 - 기타건강식품"}]},{"lat":"37.541431162","long":"127.23708078","items":[{"name":"GS25하남창우점","tel":"","addr":"경기도 하남시 창우동 14번지","category":"유통업 영리 - 편 의 점"}]},{"lat":"37.52901811","long":"127.22647548","items":[{"name":"Reverse 399(리버스 399)","tel":"031-111-1111","addr":"경기도 하남시 창우동 399-3번지","category":"자동차정비 유지 - 카인테리어"},{"name":"리버스399","tel":"","addr":"경기도 하남시 창우동 399-3번지","category":"자동차정비 유지 - 카인테리어"}]},{"lat":"37.537707341","long":"127.22925084","items":[{"name":"SK하남충전소","tel":"031-795-2373","addr":"경기도 하남시 창우동 522번지","category":"연료판매점 - SK가스충전소"},{"name":"대원에너지(주)/SK하남충전소","tel":"031-795-6881","addr":"경기도 하남시 창우동 522번지","category":"연료판매점 - SK가스충전소"},{"name":"에스케이(SK)동남가스","tel":"02-429-0001","addr":"경기도 하남시 창우동 522번지","category":"연료판매점 - SK가스충전소"}]},{"lat":"37.540934904","long":"127.23744131","items":[{"name":"THE소나무","tel":"031-795-6677","addr":"경기도 하남시 창우동 4-13번지","category":"일반휴게음식 - 일반한식"},{"name":"소나무집","tel":"031-795-6677","addr":"경기도 하남시 창우동 4-13번지 2층, 3층","category":"일반휴게음식 - 일반한식"}]},{"lat":"37.5332412","long":"127.2278118","items":[{"name":"가미통상","tel":"031-791-1739","addr":"경기도 하남시 창우동 294-2번지 1층","category":"신변잡화 - 기타잡화"},{"name":"라노비아갤러리","tel":"031-794-8000","addr":"경기도 하남시 창우동 294-2번지","category":"가구 - 일반가구"},{"name":"마샤(Masha)","tel":"031-794-8000","addr":"경기도 하남시 창우동 294-2번지 1층","category":"가구 - 일반가구"}]},{"lat":"37.532181198","long":"127.22614551","items":[{"name":"강동기업","tel":"031-794-4400","addr":"경기도 하남시 창우동 364-3번지 364-4","category":"건축자재 - 보일러·펌프·샷시"}]},{"lat":"37.537985146","long":"127.23003238","items":[{"name":"강릉집","tel":"031-796-3737","addr":"경기도 하남시 창우동 220-2번지","category":"일반휴게음식 - 일반한식"}]},{"lat":"37.541512519","long":"127.23694525","items":[{"name":"강스라운지","tel":"031-792-2970","addr":"경기도 하남시 창우동 15-5번지","category":"일반휴게음식 - 서양음식"}]},{"lat":"37.542176765","long":"127.22897015","items":[{"name":"강윤화훼자재","tel":"031-791-4594","addr":"경기도 하남시 창우동 105-2번지","category":"문화.취미 - 화원"},{"name":"금강농원","tel":"031-795-1525","addr":"경기도 하남시 창우동 105-2번지 화훼 53호","category":"문화.취미 - 화원"},{"name":"모둔꽃농원","tel":"031-792-3337","addr":"경기도 하남시 창우동 105-2 라-68","category":"문화.취미 - 화원"},{"name":"백두식물원","tel":"031-795-9876","addr":"경기도 하남시 창우동 105-2번지","category":"문화.취미 - 화원"},{"name":"보성화훼자재","tel":"031-542-6241","addr":"경기도 하남시 창우동 105-2번지 1층","category":"문화.취미 - 화원"},{"name":"부자농원","tel":"031-795-5431","addr":"경기도 하남시 창우동 105-2번지","category":"문화.취미 - 화원"},{"name":"상일농원","tel":"031-793-6532","addr":"경기도 하남시 창우동 105-2번지","category":"문화.취미 - 화원"},{"name":"서울농원","tel":"031-793-5200","addr":"경기도 하남시 창우동 105-2번지","category":"문화.취미 - 화원"},{"name":"석산농원","tel":"","addr":"경기도 하남시 창우동 105-2번지 화훼 54호","category":"문화.취미 - 화원"},{"name":"선주농원","tel":"031-794-3929","addr":"경기도 하남시 창우동 105-2번지 67호","category":"문화.취미 - 화원"},{"name":"성모농원","tel":"031-792-8143","addr":"경기도 하남시 창우동 105-2번지","category":"문화.취미 - 화원"},{"name":"세진농원","tel":"031-794-2323","addr":"경기도 하남시 창우동 105-2 (미사대로 800 다동38호)","category":"문화.취미 - 화원"},{"name":"일성농원","tel":"031-793-3367","addr":"경기도 하남시 창우동 105-2","category":"문화.취미 - 화원"},{"name":"지리산농원","tel":"031-794-2494","addr":"경기도 하남시 창우동 105-2번지","category":"문화.취미 - 화원"},{"name":"진성화분","tel":"031-793-8088","addr":"경기도 하남시 창우동 105-2 라56","category":"문화.취미 - 화원"},{"name":"진우농원","tel":"","addr":"경기도 하남시 창우동 105-2번지 51호","category":"문화.취미 - 화원"},{"name":"청주농원","tel":"031-793-4900","addr":"경기도 하남시 창우동 105-2번지 69호","category":"문화.취미 - 화원"},{"name":"태양농원","tel":"031-795-9417","addr":"경기도 하남시 창우동 105-2번지","category":"문화.취미 - 화원"},{"name":"털보난원","tel":"031-793-7459","addr":"경기도 하남시 창우동 105-2, 라-72","category":"문화.취미 - 화원"},{"name":"하남일번지화분","tel":"031-794-8866","addr":"경기도 하남시 창우동 105-2번지 나동 24","category":"문화.취미 - 화원"},{"name":"한림식물원","tel":"031-792-0908","addr":"경기도 하남시 창우동 105-2번지","category":"문화.취미 - 화원"},{"name":"한샘농원","tel":"031-795-0332","addr":"경기도 하남시 창우동 105-2번지 31호 나","category":"문화.취미 - 화원"},{"name":"호반분재원","tel":"031-792-4514","addr":"경기도 하남시 창우동 105-2번지 하남화훼단지32호 창우동","category":"문화.취미 - 화원"}]},{"lat":"37.534178436","long":"127.22770147","items":[{"name":"검단골5000원하우스","tel":"070-7863-0720","addr":"경기도 하남시 창우동 293-5번지 1층","category":"일반휴게음식 - 일반한식"},{"name":"삼성유통","tel":"031-796-3468","addr":"경기도 하남시 창우동 293-5번지","category":"레져용품 - 스포츠·레져용품"},{"name":"인정이네","tel":"031-793-6083","addr":"경기도 하남시 창우동 293-5번지 1층","category":"일반휴게음식 - 일반한식"}]},{"lat":"37.527372959","long":"127.22453606","items":[{"name":"검단산사우나","tel":"","addr":"경기도 하남시 창우동 416-5번지","category":"보건위생 - 사우나"}]},{"lat":"37.533817138","long":"127.22817557","items":[{"name":"검단산트렉스타예솔스포츠","tel":"031-794-5396","addr":"경기도 하남시 창우동 292-1번지","category":"레져용품 - 스포츠·레져용품"}]},{"lat":"37.532429886","long":"127.22803564","items":[{"name":"검단산할매만두","tel":"031-792-3904","addr":"경기도 하남시 창우동 295-1번지 1층","category":"일반휴게음식 - 일반한식"}]},{"lat":"37.533375247","long":"127.22838921","items":[{"name":"검단소머리국밥","tel":"031-796-1259","addr":"경기도 하남시 창우동 290번지 1층","category":"일반휴게음식 - 일반한식"}]},{"lat":"37.532653012","long":"127.22914505","items":[{"name":"검단플라워","tel":"031-791-6802","addr":"경기도 하남시 창우동 290-7번지","category":"문화.취미 - 화원"}]},{"lat":"37.527880962","long":"127.22747894","items":[{"name":"경성매트 경기영업소","tel":"031-739-5538","addr":"경기도 하남시 창우동 432-11번지","category":"직물 - 카페트,커튼,천막,지물"}]},{"lat":"37.528097628","long":"127.22725333","items":[{"name":"고릴라캠핑 하남점","tel":"070-8866-4848","addr":"경기도 하남시 창우동 432-2번지","category":"레져용품 - 스포츠·레져용품"}]},{"lat":"37.538567205","long":"127.22239679","items":[{"name":"고치과의원","tel":"031-793-5840","addr":"경기도 하남시 창우동 520번지 은행종합상가 302호","category":"의원 - 치과의원"},{"name":"김정문알로에신안지부","tel":"031-792-3178","addr":"경기도 하남시 창우동 520번지 신안상가 2층 209호","category":"보건위생 - 화장품"},{"name":"다예음악학원","tel":"031-794-8172","addr":"경기도 하남시 창우동 520번지 306-1호","category":"학원 - 예·체능계학원"},{"name":"봄약국","tel":"031-791-5456","addr":"경기도 하남시 창우동 520번지 은행 종합상가 104호","category":"약국 - 약국"},{"name":"봉구스 밥버거 창우점","tel":"031-796-5700","addr":"경기도 하남시 창우동 520번지 은행종합상가1층 108호 창우동","category":"일반휴게음식 - 스넥"},{"name":"빙달 하남점","tel":"031-0000-0000","addr":"경기도 하남시 창우동 520번지 은행한신아파트 지하1층 1호","category":"일반휴게음식 - 서양음식"},{"name":"서울가정의원","tel":"031-794-7575","addr":"경기도 하남시 창우동 520번지 은행상가 205호","category":"의원 - 의원"},{"name":"신안팬시","tel":"031-793-0244","addr":"경기도 하남시 창우동 520신안상가143","category":"신변잡화 - 기념품점"},{"name":"예인플라워&공방","tel":"031-793-0882","addr":"경기도 하남시 창우동 520 은행종합상가110-1호","category":"문화.취미 - 화원"},{"name":"오렌지마트","tel":"031-794-5989","addr":"경기도 하남시 창우동 520번지 은행종합상가 지하층 12호 창우동","category":"유통업 영리 - 슈퍼마켓"},{"name":"은행세탁","tel":"031-794-3010","addr":"경기도 하남시 창우동 520은행(아)상가301호","category":"수리서비스 - 세탁소"},{"name":"프랑세즈과자점","tel":"031-793-8211","addr":"경기도 하남시 창우동 520번지 은행종합상가 105호","category":"음료식품 - 제과점"},{"name":"헤어뱅크미용실","tel":"031-791-7662","addr":"경기도 하남시 창우동 520번지 은행종합상가 204호","category":"보건위생 - 미용원"}]},{"lat":"37.541433958","long":"127.23566641","items":[{"name":"골프존파크","tel":"031-792-9536","addr":"경기도 하남시 창우동 36-3번지 2층","category":"레져용품 - 골프용품 전문점"},{"name":"기광메디칼","tel":"070-8866-5006","addr":"경기도 하남시 창우동 36-3번지 101호","category":"보건위생 - 의료용품"}]},{"lat":"37.541512945","long":"127.23673027","items":[{"name":"광릉불고기","tel":"031-792-1297","addr":"경기도 하남시 창우동 15-1번지 외1필지","category":"일반휴게음식 - 일반한식"},{"name":"굿(Good) 엔터테인먼트","tel":"031-777-0434","addr":"경기도 하남시 창우동 15-1번지 101호","category":"문화.취미 - 티켓"}]},{"lat":"37.538155591","long":"127.23041759","items":[{"name":"굿잠DAY(데이)","tel":"031-794-5077","addr":"경기도 하남시 창우동 221번지","category":"가구 - 일반가구"}]},{"lat":"37.541010096","long":"127.23586876","items":[{"name":"귀족과함께 팔당점","tel":"","addr":"경기도 하남시 창우동 18-5번지 1층","category":"일반휴게음식 - 일반한식"},{"name":"더-실로아","tel":"031-791-8219","addr":"경기도 하남시 창우동 18-5번지 1층","category":"주방용구 - 주방용구"}]},{"lat":"37.541371603","long":"127.23530413","items":[{"name":"그린생활건강","tel":"02-443-0323","addr":"경기도 하남시 창우동 35-1","category":"보건위생 - 의료용품"}]},{"lat":"37.540679132","long":"127.22527697","items":[{"name":"금시당","tel":"031-793-4676","addr":"경기도 하남시 창우동 518번지 부영상가 1-122호","category":"신변잡화 - 시계"},{"name":"부영장식","tel":"031-795-6316","addr":"경기도 하남시 창우동 518부영상가108","category":"직물 - 카페트,커튼,천막,지물"},{"name":"샘학원","tel":"031-791-2310","addr":"경기도 하남시 창우동 518번지 부영 상가 303호","category":"학원 - 보습학원"},{"name":"술통","tel":"031-795-8447","addr":"경기도 하남시 창우동 518번지 부영상가 128호","category":"일반휴게음식 - 일반한식"},{"name":"주식회사일월닛시","tel":"031-792-0350","addr":"경기도 하남시 창우동 518번지 부영상가 402호 창우동","category":"전기제품 - 기타전기제품"},{"name":"창우체육관","tel":"031-794-1844","addr":"경기도 하남시 창우동 518부영상가3층305.306","category":"학원 - 예·체능계학원"},{"name":"하남기독교청년회","tel":"031-796-4068","addr":"경기도 하남시 창우동 518번지 부영상가 4층","category":"기타 - 비영리/대상"}]},{"lat":"37.5335142","long":"127.22638708","items":[{"name":"금호타이어창우대리점","tel":"070-8690-8900","addr":"경기도 하남시 창우동 312-2번지 2층","category":"자동차정비 유지 - 자동차시트·타이어"},{"name":"현대자동차창우점","tel":"031-796-5545","addr":"경기도 하남시 창우동 312-2번지","category":"자동차정비 유지 - 자동차정비"}]},{"lat":"37.534491252","long":"127.22902615","items":[{"name":"꼬마성어린이집[아이행복]","tel":"031-796-7609","addr":"경기도 하남시 창우동 270-25번지 1층","category":"학원 - 유아원"}]},{"lat":"37.542339591","long":"127.22863119","items":[{"name":"꽃다지","tel":"031-791-2505","addr":"경기도 하남시 창우동 105-2번지 다-49","category":"문화.취미 - 화원"},{"name":"상록식물원","tel":"031-595-5111","addr":"경기도 하남시 창우동 105-2번지 다-45","category":"문화.취미 - 화원"},{"name":"해뜨는 농원","tel":"031-791-7741","addr":"경기도 하남시 창우동 105-2번지 화훼단지 다동 61호","category":"문화.취미 - 화원"},{"name":"황금농원","tel":"031-795-8762","addr":"경기도 하남시 창우동 105-2번지 다-43호","category":"문화.취미 - 화원"}]},{"lat":"37.533153958","long":"127.2263068","items":[{"name":"꿈나라어린이집[아이행복]","tel":"031-794-4823","addr":"경기도 하남시 창우동 312-7번지 꿈나라어린이집","category":"학원 - 유아원"}]},{"lat":"37.543739105","long":"127.22706257","items":[{"name":"나눔중고재활용센터","tel":"031-795-8289","addr":"경기도 하남시 창우동 110-9번지","category":"신변잡화 - 기타잡화"},{"name":"대진냉동설비","tel":"031-792-2221","addr":"경기도 하남시 창우동 110-9번지","category":"용역 서비스 - 기타용역서비스"},{"name":"제이힐텍","tel":"","addr":"경기도 하남시 창우동 110-9번지","category":"레져용품 - 스포츠·레져용품"}]},{"lat":"37.533123598","long":"127.22806035","items":[{"name":"나무와 산","tel":"","addr":"경기도 하남시 창우동 294-1번지 1층","category":"일반휴게음식 - 주점"},{"name":"더캠트","tel":"070-4103-4455","addr":"경기도 하남시 창우동 294-1번지 외1필지","category":"레져용품 - 스포츠·레져용품"},{"name":"캠핑트렁크하남점","tel":"070-4103-4455","addr":"경기도 하남시 창우동 294-1번지 2층","category":"레져용품 - 스포츠·레져용품"}]},{"lat":"37.533510437","long":"127.22836699","items":[{"name":"노스페이스<검단산점>","tel":"031-793-7447","addr":"경기도 하남시 창우동 289-2번지","category":"의류 - 스포츠의류"},{"name":"블랙야크검단산점","tel":"031-794-3650","addr":"경기도 하남시 창우동 289-2번지","category":"레져용품 - 스포츠·레져용품"}]},{"lat":"37.534682036","long":"127.2282008","items":[{"name":"노적봉식당","tel":"031-794-7300","addr":"경기도 하남시 창우동 284-1번지","category":"일반휴게음식 - 일반한식"}]},{"lat":"37.537599417","long":"127.22439661","items":[{"name":"농산물싱싱과일야채","tel":"031-792-1120","addr":"경기도 하남시 창우동 538번지 1층","category":"음료식품 - 농·축·수산품"},{"name":"생활맥주 하남 창우점","tel":"031-792-6474","addr":"경기도 하남시 창우동 538번지 2층","category":"일반휴게음식 - 주점"},{"name":"유기농스킨케어","tel":"031-796-3223","addr":"경기도 하남시 창우동 538번지 2층","category":"보건위생 - 화장품"}]},{"lat":"37.532568363","long":"127.22628243","items":[{"name":"농업회사법인 주식회사 단크","tel":"070-7621-7000","addr":"경기도 하남시 창우동 301-7번지","category":"문화.취미 - 화원"}]},{"lat":"37.536428685","long":"127.22886229","items":[{"name":"농업회사법인돈마루(주)서울영업지점","tel":"031-796-8552","addr":"경기도 하남시 창우동 275-1번지","category":"음료식품 - 정육점"},{"name":"씨유하남검단산점","tel":"031-795-6083","addr":"경기도 하남시 창우동 275-1번지","category":"유통업 영리 - 편 의 점"}]},{"lat":"37.533593701","long":"127.22722454","items":[{"name":"다비움 어탕 국수","tel":"031-792-1236","addr":"경기도 하남시 창우동 304-13번지 1층 2호","category":"일반휴게음식 - 스넥"},{"name":"엄마손칼국수","tel":"031-792-3918","addr":"경기도 하남시 창우동 304-13번지 1층","category":"일반휴게음식 - 일반한식"}]},{"lat":"37.541232834","long":"127.23713673","items":[{"name":"대교집","tel":"031-791-6740","addr":"경기도 하남시 창우동 4-10번지","category":"일반휴게음식 - 일반한식"}]},{"lat":"37.542230607","long":"127.22908347","items":[{"name":"대능농원","tel":"031-794-1177","addr":"경기도 하남시 창우동 105-2번지 라동 65호","category":"문화.취미 - 화원"},{"name":"미소농원","tel":"031-791-1033","addr":"경기도 하남시 창우동 105-2번지 라-71호","category":"문화.취미 - 화원"},{"name":"진성화분","tel":"031-793-8088","addr":"경기도 하남시 창우동 105-2번지 라-56호","category":"문화.취미 - 화원"}]},{"lat":"37.540848254","long":"127.23569853","items":[{"name":"대성집","tel":"031-794-4678","addr":"경기도 하남시 창우동 20-5번지","category":"일반휴게음식 - 일반한식"}]},{"lat":"37.532850504","long":"127.22477854","items":[{"name":"대창교역주식회사","tel":"02-525-1090","addr":"경기도 하남시 창우동 314-2번지","category":"용역 서비스 - 부동산 중개·임대"}]},{"lat":"37.537875742","long":"127.2306996","items":[{"name":"도도브로스","tel":"031-791-6745","addr":"경기도 하남시 창우동 249-9번지 1층","category":"일반휴게음식 - 서양음식"}]},{"lat":"37.533791552","long":"127.22741747","items":[{"name":"동산들밥","tel":"031-795-7339","addr":"경기도 하남시 창우동 304-1번지 (304-1,304-2)","category":"일반휴게음식 - 일반한식"},{"name":"봉메밀 (검단산점)","tel":"031-792-8842","addr":"경기도 하남시 창우동 304-1번지","category":"일반휴게음식 - 일반한식"},{"name":"숙자매도시락","tel":"070-5096-5848","addr":"경기도 하남시 창우동 304-1번지 1층","category":"일반휴게음식 - 일반한식"}]},{"lat":"37.529650964","long":"127.23006367","items":[{"name":"동우엔지니어링","tel":"031-794-6130","addr":"경기도 하남시 창우동 453번지 E동","category":"사무통신 - 사무용 OA기기"},{"name":"주식회사 에이원이앤씨","tel":"031-794-9610","addr":"경기도 하남시 창우동 453번지","category":"용역 서비스 - 종합용역"}]},{"lat":"37.534095772","long":"127.22852714","items":[{"name":"두경희 만두전골","tel":"02-1111-1111","addr":"경기도 하남시 창우동 288-3번지","category":"일반휴게음식 - 일반한식"}]},{"lat":"37.540567857","long":"127.23164693","items":[{"name":"들꽃사랑조경","tel":"031-791-0140","addr":"경기도 하남시 창우동 54-2. 5/2","category":"건축자재 - 인테리어전문"}]},{"lat":"37.532989679","long":"127.22741506","items":[{"name":"디자인우바","tel":"031-793-0271","addr":"경기도 하남시 창우동 297-1번지","category":"일반휴게음식 - 서양음식"},{"name":"애드윈통상","tel":"070-8785-7126","addr":"경기도 하남시 창우동 297-1번지","category":"신변잡화 - 기타잡화"},{"name":"애드윈통상","tel":"070-8785-7126","addr":"경기도 하남시 창우동 297-1번지","category":"신변잡화 - 기타잡화"},{"name":"애드윈통상","tel":"070-8785-7126","addr":"경기도 하남시 창우동 297-1번지","category":"신변잡화 - 기타잡화"},{"name":"주식회사도미르베네","tel":"031-793-0271","addr":"경기도 하남시 창우동 297-1번지 3층","category":"가구 - 일반가구"}]},{"lat":"37.527321622","long":"127.2278619","items":[{"name":"레저마린","tel":"031-795-9457","addr":"경기도 하남시 창우동 445-3번지","category":"기타 - 기계공구"}]},{"lat":"37.534372545","long":"127.22511116","items":[{"name":"리마리명품청국장","tel":"031-793-1938","addr":"경기도 하남시 창우동 200-2번지 1층","category":"일반휴게음식 - 일반한식"}]},{"lat":"37.541017566","long":"127.22735993","items":[{"name":"마당","tel":"031-792-7962","addr":"경기도 하남시 창우동 103-8번지","category":"문화.취미 - 화원"}]},{"lat":"37.536239479","long":"127.22886171","items":[{"name":"만돈만리","tel":"031-796-8552","addr":"경기도 하남시 창우동 274-2번지","category":"일반휴게음식 - 일반한식"}]},{"lat":"37.537935041","long":"127.23264587","items":[{"name":"맛있는집밥/주식회사 패밀리푸드","tel":"031-796-6927","addr":"경기도 하남시 창우동 250-5번지 1층","category":"일반휴게음식 - 일반한식"}]},{"lat":"37.540877043","long":"127.23480474","items":[{"name":"멍슈슈","tel":"031-793-3612","addr":"경기도 하남시 창우동 36-4번지","category":"일반휴게음식 - 서양음식"}]},{"lat":"37.533068913","long":"127.22838828","items":[{"name":"미니멀백","tel":"031-795-8089","addr":"경기도 하남시 창우동 290-2번지 1층","category":"레져용품 - 스포츠·레져용품"},{"name":"버팔로KOREA","tel":"031-794-4357","addr":"경기도 하남시 창우동 290-2번지","category":"의류 - 스포츠의류"}]},{"lat":"37.533989811","long":"127.22739543","items":[{"name":"미니식품","tel":"031-794-3604","addr":"경기도 하남시 창우동 305-4번지","category":"음료식품 - 기타음료식품"},{"name":"세븐일레븐하남검단산점","tel":"031-1577-0711","addr":"경기도 하남시 창우동 305-4번지 1층","category":"유통업 영리 - 편 의 점"}]},{"lat":"37.534017163","long":"127.22722581","items":[{"name":"밀향기","tel":"031-794-8155","addr":"경기도 하남시 창우동 305-5번지","category":"일반휴게음식 - 일반한식"}]},{"lat":"37.541404895","long":"127.23669599","items":[{"name":"바이크라이딩","tel":"031-794-0590","addr":"경기도 하남시 창우동 16-6번지 1층","category":"레져용품 - 스포츠·레져용품"},{"name":"카페루아","tel":"031-794-0590","addr":"경기도 하남시 창우동 16-6번지 1층","category":"일반휴게음식 - 서양음식"},{"name":"한마음종합유통","tel":"","addr":"경기도 하남시 창우동 16-6번지 1층","category":"음료식품 - 농·축·수산품"}]},{"lat":"37.538127011","long":"127.23122083","items":[{"name":"방태막국수","tel":"031-794-4922","addr":"경기도 하남시 창우동 248번지 2층","category":"일반휴게음식 - 일반한식"},{"name":"아미채 칼국수 샤브샤브","tel":"031-795-3020","addr":"경기도 하남시 창우동 248번지 하오빌딩","category":"일반휴게음식 - 일반한식"},{"name":"에이플러스 골프아카데미","tel":"031-792-8778","addr":"경기도 하남시 창우동 248번지 3층","category":"레저업소 - 스크린골프"},{"name":"카페 린(lyn)","tel":"031-795-7237","addr":"경기도 하남시 창우동 248번지 2층","category":"일반휴게음식 - 서양음식"}]},{"lat":"37.541876574","long":"127.23509071","items":[{"name":"뻘떡낙지","tel":"031-791-6692","addr":"경기도 하남시 창우동 47-1번지 47-1(2층),47-10(1,2층)","category":"일반휴게음식 - 일반한식"}]},{"lat":"37.528267535","long":"127.2231472","items":[{"name":"산성카센타","tel":"031-794-6350","addr":"경기도 하남시 창우동 330-15번지","category":"자동차정비 유지 - 자동차정비"}]},{"lat":"37.540488576","long":"127.23533534","items":[{"name":"산행마차","tel":"031-796-3666","addr":"경기도 하남시 창우동 산1-7번지","category":"일반휴게음식 - 일반한식"}]},{"lat":"37.53451634","long":"127.22530392","items":[{"name":"삼성재활용센터","tel":"02-1644-8953","addr":"경기도 하남시 창우동 200-7번지 102호","category":"전기제품 - 가전제품"},{"name":"옛고을","tel":"031-796-1422","addr":"경기도 하남시 창우동 200-7번지","category":"일반휴게음식 - 일반한식"}]},{"lat":"37.54383409","long":"127.2292241","items":[{"name":"상록화훼조경","tel":"031-795-3476","addr":"경기도 하남시 창우동 105-2번지 화훼단지 가동 2호","category":"문화.취미 - 화원"},{"name":"성희농원","tel":"031-794-7294","addr":"경기도 하남시 창우동 105-2번지 가-8","category":"문화.취미 - 화원"},{"name":"육교농원","tel":"031-793-2476","addr":"경기도 하남시 창우동 105-2번지 가-17호","category":"문화.취미 - 화원"},{"name":"하남꽃생화도매","tel":"031-796-3696","addr":"경기도 하남시 창우동 105-2번지 하남화훼단지 가동 10호","category":"문화.취미 - 화원"}]},{"lat":"37.537977213","long":"127.22472585","items":[{"name":"새싹어린이집[아이행복]","tel":"031-792-6246","addr":"경기도 하남시 창우동 537번지 창우마을아파트 101동 102호","category":"학원 - 유아원"}]},{"lat":"37.528824855","long":"127.22383894","items":[{"name":"성진가설산업 (주)","tel":"031-795-5045","addr":"경기도 하남시 창우동 331-1번지","category":"용역 서비스 - 기타용역서비스"}]},{"lat":"37.544795586","long":"127.22583234","items":[{"name":"세림원예","tel":"031-794-8939","addr":"경기도 하남시 창우동 139-4","category":"문화.취미 - 화원"}]},{"lat":"37.529153257","long":"127.22647588","items":[{"name":"세븐일레븐하남창우본점","tel":"031-1577-0711","addr":"경기도 하남시 창우동 399번지 1층","category":"유통업 영리 - 편 의 점"}]},{"lat":"37.531686192","long":"127.2258612","items":[{"name":"셀프광장주유소","tel":"031-795-2001","addr":"경기도 하남시 창우동 361-1번지","category":"연료판매점 - 쌍용S-OIL"}]},{"lat":"37.530289029","long":"127.22619644","items":[{"name":"소망유통","tel":"031-699-0882","addr":"경기도 하남시 창우동 352-3번지","category":"음료식품 - 기타음료식품"},{"name":"포커스(focus)렌탈","tel":"031-796-7167","addr":"경기도 하남시 창우동 352-3번지","category":"사무통신 - 사무용 OA기기"}]},{"lat":"37.534322118","long":"127.22795081","items":[{"name":"숙이네꽃게 하남검단점","tel":"031-795-4646","addr":"경기도 하남시 창우동 285번지 외1필지 1층","category":"일반휴게음식 - 일반한식"}]},{"lat":"37.531318866","long":"127.22950305","items":[{"name":"스톤밸리","tel":"031-793-2020","addr":"경기도 하남시 창우동 375-1번지","category":"일반휴게음식 - 서양음식"}]},{"lat":"37.538037657","long":"127.23083587","items":[{"name":"스튜디오 카페루시다","tel":"031-792-0946","addr":"경기도 하남시 창우동 249-7번지 외1필지","category":"일반휴게음식 - 일반한식"}]},{"lat":"37.531707954","long":"127.22387007","items":[{"name":"신동방주식회사","tel":"02-6022-4885","addr":"경기도 하남시 창우동 318-3번지","category":"신변잡화 - 기타잡화"}]},{"lat":"37.531736497","long":"127.22784122","items":[{"name":"신부광실리콘","tel":"031-795-6884","addr":"경기도 하남시 창우동 368-1번지","category":"건축자재 - 기타건축자재"},{"name":"웰컴도서","tel":"031-793-8360","addr":"경기도 하남시 창우동 368-1번지","category":"서적문구 - 기타서적문구"}]},{"lat":"37.53868252","long":"127.22337018","items":[{"name":"써니사이드업","tel":"","addr":"경기도 하남시 창우동 520번지 은행동부아파트 113동 402호","category":"의류 - 정장"}]},{"lat":"37.533845137","long":"127.22766653","items":[{"name":"아드레나인 컴퍼니","tel":"031-793-0923","addr":"경기도 하남시 창우동 293-8번지 2층","category":"레져용품 - 스포츠·레져용품"},{"name":"언제나 봄","tel":"070-8796-3371","addr":"경기도 하남시 창우동 293-8번지 1층","category":"일반휴게음식 - 서양음식"},{"name":"지오디바니 (하남점)","tel":"070-8830-1378","addr":"경기도 하남시 창우동 293-8번지 1,2층","category":"가구 - 일반가구"}]},{"lat":"37.528849199","long":"127.23000467","items":[{"name":"아이씨에스","tel":"031-791-2162","addr":"경기도 하남시 창우동 453-16번지","category":"의류 - 아동의류"}]},{"lat":"37.538876702","long":"127.22068918","items":[{"name":"에스엠 코리아 바스","tel":"","addr":"경기도 하남시 창우동 520번지 은행뉴서울아파트 103동 102호","category":"신변잡화 - 기타잡화"}]},{"lat":"37.533816555","long":"127.22848105","items":[{"name":"에스지","tel":"","addr":"경기도 하남시 창우동 289번지","category":"레져용품 - 스포츠·레져용품"}]},{"lat":"37.52782362","long":"127.22444689","items":[{"name":"에이주방몰","tel":"031-796-5018","addr":"경기도 하남시 창우동 408-1번지","category":"주방용구 - 주방용식기"}]},{"lat":"37.542795347","long":"127.22586033","items":[{"name":"에이플러스","tel":"031-793-9742","addr":"경기도 하남시 창우동 146-1번지","category":"가구 - 일반가구"}]},{"lat":"37.532428611","long":"127.22870314","items":[{"name":"영주집","tel":"02-1111-1111","addr":"경기도 하남시 창우동 375-10번지 1층","category":"일반휴게음식 - 일반한식"}]},{"lat":"37.538790664","long":"127.2328069","items":[{"name":"예스골프존","tel":"031-795-7992","addr":"경기도 하남시 창우동 245-1번지 2층","category":"회원제형태 - 레져업소"},{"name":"착한바다","tel":"031-794-8765","addr":"경기도 하남시 창우동 245-1번지 외2필지 (244-7.246-14)","category":"음료식품 - 정육점"},{"name":"착한쌈밥","tel":"031-795-3651","addr":"경기도 하남시 창우동 245-1번지 외2필지","category":"일반휴게음식 - 일반한식"}]},{"lat":"37.538321493","long":"127.2331449","items":[{"name":"옐로우스케일","tel":"031-792-5027","addr":"경기도 하남시 창우동 243-1번지","category":"일반휴게음식 - 서양음식"}]},{"lat":"37.543572047","long":"127.22961934","items":[{"name":"오산농원","tel":"031-792-8145","addr":"경기도 하남시 창우동 114-1 가동 15,16호","category":"문화.취미 - 화원"}]},{"lat":"37.537822926","long":"127.23005451","items":[{"name":"오천년코다리","tel":"031-794-1122","addr":"경기도 하남시 창우동 261번지 1층","category":"일반휴게음식 - 일반한식"}]},{"lat":"37.52734542","long":"127.22480749","items":[{"name":"와이비메디컬","tel":"031-793-0802","addr":"경기도 하남시 창우동 416-4번지 2층","category":"약국 - 제약회사"},{"name":"하남행복주간보호센터","tel":"031-792-9780","addr":"경기도 하남시 창우동 416-4번지 1층","category":"기타의료기관 - 기타의료기관 및 기타"}]},{"lat":"37.534790046","long":"127.2282577","items":[{"name":"왕비성","tel":"031-792-7488","addr":"경기도 하남시 창우동 286-1번지 1,2층","category":"일반휴게음식 - 중국식"}]},{"lat":"37.53532143","long":"127.22836112","items":[{"name":"우리메밀막국수","tel":"031-796-5356","addr":"경기도 하남시 창우동 278-1번지 1층","category":"일반휴게음식 - 일반한식"}]},{"lat":"37.533513236","long":"127.2268962","items":[{"name":"워시베이","tel":"031-794-5959","addr":"경기도 하남시 창우동 302-2번지","category":"자동차정비 유지 - 세차장"}]},{"lat":"37.535014773","long":"127.22852991","items":[{"name":"웨더(weather)","tel":"070-7792-6186","addr":"경기도 하남시 창우동 287-1번지","category":"일반휴게음식 - 서양음식"}]},{"lat":"37.53729065","long":"127.23041496","items":[{"name":"위너상사","tel":"031-792-8285","addr":"경기도 하남시 창우동 260-6번지 가동","category":"자동차정비 유지 - 자동차부품"},{"name":"하남대장 리퍼브샵","tel":"031-795-0355","addr":"경기도 하남시 창우동 260-6번지 나동","category":"신변잡화 - 기타잡화"}]},{"lat":"37.531873965","long":"127.22661977","items":[{"name":"유영","tel":"031-795-1560","addr":"경기도 하남시 창우동 365-3번지 2호","category":"음료식품 - 기타음료식품"}]},{"lat":"37.527515094","long":"127.22561121","items":[{"name":"윤씨","tel":"031-792-2531","addr":"경기도 하남시 창우동 415-3번지","category":"일반휴게음식 - 일반한식"},{"name":"윤씨슈퍼","tel":"031-792-2531","addr":"경기도 하남시 창우동 415-3번지","category":"유통업 영리 - 슈퍼마켓"}]},{"lat":"37.532928862","long":"127.22622694","items":[{"name":"이화수전통육개장 창우점","tel":"031-796-8002","addr":"경기도 하남시 창우동 312-4번지 1층","category":"일반휴게음식 - 일반한식"}]},{"lat":"37.539321801","long":"127.23303483","items":[{"name":"자동차복지정비소","tel":"031-792-5102","addr":"경기도 하남시 창우동 22-2번지","category":"자동차정비 유지 - 자동차정비"}]},{"lat":"37.542848765","long":"127.22619995","items":[{"name":"전일유통","tel":"031-795-5353","addr":"경기도 하남시 창우동 110-11번지","category":"유통업 영리 - 기타유통업"}]},{"lat":"37.541037416","long":"127.23572175","items":[{"name":"제이에스에이치(JSH)","tel":"070-8854-0022","addr":"경기도 하남시 창우동 19-1번지 1층","category":"레져용품 - 스포츠·레져용품"}]},{"lat":"37.540121307","long":"127.23424797","items":[{"name":"주식회사 가이아","tel":"031-796-3123","addr":"경기도 하남시 창우동 20-21번지","category":"레져용품 - 스포츠·레져용품"}]},{"lat":"37.531905195","long":"127.22439108","items":[{"name":"주식회사 씨앤씨","tel":"02-1544-5664","addr":"경기도 하남시 창우동 318-1번지","category":"회원제형태 - 기타3"}]},{"lat":"37.526738133","long":"127.22672887","items":[{"name":"주식회사 한마음렌탈","tel":"031-794-6661","addr":"경기도 하남시 창우동 442-8번지","category":"가구 - 기타가구"}]},{"lat":"37.53376351","long":"127.22794913","items":[{"name":"지오디바니","tel":"070-8830-1378","addr":"경기도 하남시 창우동 293-9번지","category":"가구 - 일반가구"}]},{"lat":"37.534096031","long":"127.22839138","items":[{"name":"참숯화로왕갈비","tel":"031-792-1351","addr":"경기도 하남시 창우동 288-2번지 1층","category":"일반휴게음식 - 일반한식"}]},{"lat":"37.539267433","long":"127.23319307","items":[{"name":"창모루","tel":"031-792-9700","addr":"경기도 하남시 창우동 237번지 1,2층","category":"일반휴게음식 - 일반한식"}]},{"lat":"37.543516552","long":"127.23036599","items":[{"name":"창우농원","tel":"031-796-0332","addr":"경기도 하남시 창우동 83-1","category":"문화.취미 - 화원"}]},{"lat":"37.541455656","long":"127.2291377","items":[{"name":"창우농자재","tel":"031-796-0482","addr":"경기도 하남시 창우동 88-5번지","category":"농업 - 기타농업관련"}]},{"lat":"37.534401933","long":"127.22861858","items":[{"name":"채널스튜디오","tel":"031-795-8471","addr":"경기도 하남시 창우동 288-5번지","category":"용역 서비스 - 종합용역"}]},{"lat":"37.534571016","long":"127.22497598","items":[{"name":"청솔돌오리구이","tel":"031-793-5295","addr":"경기도 하남시 창우동 198-3번지","category":"일반휴게음식 - 일반한식"}]},{"lat":"37.541649367","long":"127.23608574","items":[{"name":"청솔장어구이전문점","tel":"031-793-7622","addr":"경기도 하남시 창우동 37-2번지","category":"일반휴게음식 - 일반한식"}]},{"lat":"37.542792816","long":"127.23189134","items":[{"name":"청암공예","tel":"031-795-5582","addr":"경기도 하남시 창우동 61-7번지","category":"건축자재 - 인테리어전문"}]},{"lat":"37.541958329","long":"127.23475151","items":[{"name":"캘러웨이하남골프마켓","tel":"031-793-1088","addr":"경기도 하남시 창우동 47-2번지 1층","category":"레져용품 - 스포츠·레져용품"},{"name":"캘러웨이하남스크린골프클럽","tel":"031-793-1088","addr":"경기도 하남시 창우동 47-2번지","category":"회원제형태 - 레져업소"}]},{"lat":"37.534150306","long":"127.2282784","items":[{"name":"캠프라인 하남검단산점","tel":"031-791-3516","addr":"경기도 하남시 창우동 288-1번지","category":"레져용품 - 스포츠·레져용품"},{"name":"태원주차관리(주)","tel":"031-796-0834","addr":"경기도 하남시 창우동 288-1번지 2층","category":"자동차정비 유지 - 주차장"},{"name":"하남아동복","tel":"031-792-5453","addr":"경기도 하남시 창우동 288-1번지","category":"의류 - 아동의류"}]},{"lat":"37.543676895","long":"127.22660977","items":[{"name":"케이블헌터","tel":"02-565-2850","addr":"경기도 하남시 창우동 146-4번지 1층","category":"자동차정비 유지 - 자동차부품"},{"name":"티앤씨 (T&C)","tel":"031-795-9599","addr":"경기도 하남시 창우동 146-4번지","category":"서적문구 - 완구점"}]},{"lat":"37.542267642","long":"127.22856308","items":[{"name":"코코농원","tel":"031-792-7914","addr":"경기도 하남시 창우동 106-3","category":"문화.취미 - 화원"}]},{"lat":"37.532933701","long":"127.22842182","items":[{"name":"콜핑하남검단산점","tel":"031-795-3393","addr":"경기도 하남시 창우동 290-8번지","category":"레져용품 - 스포츠·레져용품"}]},{"lat":"37.541652107","long":"127.23469399","items":[{"name":"큰집곳간에 뻥소리","tel":"070-4153-9300","addr":"경기도 하남시 창우동 51-78번지","category":"기타 - 기계공구"}]},{"lat":"37.537795199","long":"127.23041649","items":[{"name":"탐앤탐스","tel":"031-794-1903","addr":"경기도 하남시 창우동 249-8번지 1층","category":"일반휴게음식 - 서양음식"},{"name":"태극이네정육점","tel":"031-796-9291","addr":"경기도 하남시 창우동 249-8번지","category":"음료식품 - 정육점"}]},{"lat":"37.54065222","long":"127.23458906","items":[{"name":"태강","tel":"","addr":"경기도 하남시 창우동 24-2번지 1층 1호","category":"용역 서비스 - 가례서비스업"}]},{"lat":"37.542460006","long":"127.24072749","items":[{"name":"털보집","tel":"031-792-3815","addr":"경기도 하남시 창우동 516-4번지 1층","category":"일반휴게음식 - 일반한식"}]},{"lat":"37.531240226","long":"127.2234501","items":[{"name":"토탈쇼핑케이","tel":"031-8027-9585","addr":"경기도 하남시 창우동 320-1번지","category":"신변잡화 - 기타잡화"}]},{"lat":"37.541322326","long":"127.23744252","items":[{"name":"팔당원조칼제비,칼국수","tel":"031-792-4566","addr":"경기도 하남시 창우동 4-9번지 2층 201호","category":"일반휴게음식 - 일반한식"},{"name":"팔당포장마차","tel":"031-794-1080","addr":"경기도 하남시 창우동 4-9번지 1층","category":"일반휴게음식 - 일반한식"}]},{"lat":"37.541292736","long":"127.23417239","items":[{"name":"포레스툴(forestool)","tel":"031-795-8011","addr":"경기도 하남시 창우동 34번지 1층","category":"기타 - 기계공구"}]},{"lat":"37.538457411","long":"127.23274931","items":[{"name":"하남 GDR골프연습장","tel":"031-791-8414","addr":"경기도 하남시 창우동 245-5번지 2층","category":"레저업소 - 스크린골프"}]},{"lat":"37.538039683","long":"127.22978362","items":[{"name":"하남명품알찜&코다리","tel":"031-796-1998","addr":"경기도 하남시 창우동 219-5번지","category":"일반휴게음식 - 일반한식"}]},{"lat":"37.537791698","long":"127.2322268","items":[{"name":"하남상회","tel":"031-795-6744","addr":"경기도 하남시 창우동 250-3번지","category":"일반휴게음식 - 일반한식"}]},{"lat":"37.53945747","long":"127.22809071","items":[{"name":"하남장 돼지집","tel":"031-796-9232","addr":"경기도 하남시 창우동 100-19번지","category":"일반휴게음식 - 일반한식"}]},{"lat":"37.541315334","long":"127.23642415","items":[{"name":"한강집","tel":"031-792-5336","addr":"경기도 하남시 창우동 17-1번지 1층","category":"일반휴게음식 - 일반한식"}]},{"lat":"37.539930042","long":"127.2306719","items":[{"name":"한양건재","tel":"031-794-3525","addr":"경기도 하남시 창우동 57-1번지","category":"건축자재 - 기타건축자재"}]},{"lat":"37.527208227","long":"127.22589312","items":[{"name":"해비치LED","tel":"031-796-8205","addr":"경기도 하남시 창우동 418-1번지 1층 상가","category":"건축자재 - 조명기구"},{"name":"황민아스킨앤바디케어","tel":"031-791-0738","addr":"경기도 하남시 창우동 418-1번지 2동","category":"보건위생 - 피부미용실"}]},{"lat":"37.533961899","long":"127.22785922","items":[{"name":"화승스퀘어 (하남 검단산점)","tel":"031-796-0129","addr":"경기도 하남시 창우동 293-2번지","category":"레져용품 - 스포츠·레져용품"}]},{"lat":"37.535039787","long":"127.22958219","items":[{"name":"희당도서관","tel":"031-699-7613","addr":"경기도 하남시 창우동 272-10번지","category":"학원 - 독서실"}]}]