[{"lat":"37.397887906","long":"126.93198174","imageIndex":17,"items":[{"name":"(사)학원연합회안양시분회","tel":"031-444-6780","addr":"경기도 안양시 동안구 비산동 557-34번지","indutype":"기타 - 비영리/대상","category":"other"},{"name":"안양시학원연합회정보통신","tel":"031-444-6781","addr":"경기도 안양시 동안구 비산동 557-34번지","indutype":"사무통신 - 통신기기","category":"other"},{"name":"오케이뮤직 주식회사(OK MUSIC)","tel":"031-466-7277","addr":"경기도 안양시 동안구 비산동 557-34번지","indutype":"레져용품 - 악기점","category":"other"},{"name":"창미사","tel":"031-443-5145","addr":"경기도 안양시 동안구 비산동 557-34번지","indutype":"문화.취미 - 화방·표구점","category":"other"}]},{"lat":"37.390725081","long":"126.94950295","imageIndex":17,"items":[{"name":"(주) 봉화알엠씨","tel":"031-382-8810","addr":"경기도 안양시 동안구 비산동 1107-1번지","indutype":"용역 서비스 - 사무서비스","category":"other"},{"name":"(주)블루스타","tel":"","addr":"경기도 안양시 동안구 비산동 1107-1번지","indutype":"용역 서비스 - 소프트웨어","category":"other"},{"name":"NEOTECH(네오테크)","tel":"031-440-8969","addr":"경기도 안양시 동안구 비산동 1107-1번지","indutype":"사무통신 - 컴퓨터","category":"other"},{"name":"골드#","tel":"031-440-8836","addr":"경기도 안양시 동안구 비산동","indutype":"신변잡화 - 귀금속","category":"other"},{"name":"골드모아","tel":"031-440-8808","addr":"경기도 안양시 동안구 비산동 1107-1번지","indutype":"신변잡화 - 귀금속","category":"other"},{"name":"골드블렛","tel":"031-440-8815","addr":"경기도 안양시 동안구 비산동","indutype":"신변잡화 - 귀금속","category":"other"},{"name":"그로스진","tel":"","addr":"경기도 안양시 동안구 비산동 1107-1번지","indutype":"용역 서비스 - 사무서비스","category":"other"},{"name":"노블","tel":"031-440-8820","addr":"경기도 안양시 동안구 비산동 1107-1번지","indutype":"신변잡화 - 귀금속","category":"other"},{"name":"라라","tel":"070-7423-6603","addr":"경기도 안양시 동안구 비산동 1107-1번지","indutype":"신변잡화 - 귀금속","category":"other"},{"name":"명금","tel":"031-440-8806","addr":"경기도 안양시 동안구 비산동 1107-1번지","indutype":"신변잡화 - 귀금속","category":"other"},{"name":"미노","tel":"031-440-8803","addr":"경기도 안양시 동안구 비산동","indutype":"신변잡화 - 액세서리","category":"other"},{"name":"보떼","tel":"031-440-8866","addr":"경기도 안양시 동안구 비산동","indutype":"신변잡화 - 귀금속","category":"other"},{"name":"뷰티C","tel":"031-440-8811","addr":"경기도 안양시 동안구 비산동","indutype":"신변잡화 - 귀금속","category":"other"},{"name":"브레인올","tel":"031-1599-8810","addr":"경기도 안양시 동안구 비산동 1107-1번지","indutype":"서적문구 - 일반서적","category":"other"},{"name":"비쥬","tel":"031-440-8110","addr":"경기도 안양시 동안구 비산동 1107-1번지","indutype":"신변잡화 - 귀금속","category":"other"},{"name":"아방안양범계점","tel":"031-380-6866","addr":"경기도 안양시 동안구 비산동 1107-1번지","indutype":"회원제형태 - 기타4","category":"other"},{"name":"아이픽스존","tel":"031-440-8191","addr":"경기도 안양시 동안구 비산동 1107-1번지","indutype":"수리서비스 - 사무·통신기기수리","category":"other"},{"name":"이브","tel":"031-440-8817","addr":"경기도 안양시 동안구 비산동","indutype":"신변잡화 - 귀금속","category":"other"},{"name":"젠","tel":"031-387-7914","addr":"경기도 안양시 동안구 비산동","indutype":"신변잡화 - 액세서리","category":"other"},{"name":"주식회사 유니셀","tel":"031-440-8882","addr":"경기도 안양시 동안구 비산동 1107-1번지","indutype":"전기제품 - 가전제품","category":"other"},{"name":"주식회사브레인씨크릿","tel":"031-1599-8810","addr":"경기도 안양시 동안구 비산동 1107-1번지","indutype":"용역 서비스 - 소프트웨어","category":"other"},{"name":"주식회사투씨여행","tel":"031-385-7600","addr":"경기도 안양시 동안구 비산동 1107-1번지","indutype":"여행 - 관광여행","category":"other"},{"name":"피트인드레스한복 평촌점","tel":"031-381-2382","addr":"경기도 안양시 동안구 비산동 1107-1번지","indutype":"의류 - 맞춤복점","category":"other"},{"name":"해피","tel":"031-440-8949","addr":"경기도 안양시 동안구 비산동 1107-1번지","indutype":"신변잡화 - 귀금속","category":"other"}]},{"lat":"37.39252908","long":"126.95408648","imageIndex":17,"items":[{"name":"(주)굳앤쑈","tel":"031-399-2232","addr":"경기도 안양시 동안구 비산동 1115번지","indutype":"사무통신 - 통신기기","category":"other"},{"name":"(주)성실한사람들","tel":"070-8875-3213","addr":"경기도 안양시 동안구 비산동 1115번지","indutype":"회원제형태 - 기타4","category":"other"},{"name":"(주)아이맷/원격지","tel":"070-8254-0124","addr":"경기도 안양시 동안구 비산동 1115번지","indutype":"기타 - 기타 전문점","category":"other"},{"name":"(주)트리이텍반도체","tel":"031-381-1293","addr":"경기도 안양시 동안구 비산동 1115번지","indutype":"기타 - 기타 전문점","category":"other"},{"name":"더로즈 안양점","tel":"070-2429-4192","addr":"경기도 안양시 동안구 비산동 1115번지","indutype":"용역 서비스 - 종합용역","category":"other"},{"name":"더케이뷰티사이언스주식회사","tel":"031-689-3070","addr":"경기도 안양시 동안구 비산동 1115번지","indutype":"서적문구 - 출판 및 인쇄물","category":"other"},{"name":"무림조경","tel":"031-382-7926","addr":"경기도 안양시 동안구 비산동 1115번지","indutype":"문화.취미 - 화원","category":"other"},{"name":"법무법인 현산(안양분사무소)","tel":"070-4367-3279","addr":"경기도 안양시 동안구 비산동 1115번지","indutype":"용역 서비스 - 법률회계서비스(법인)","category":"other"},{"name":"법무사 임종명사무소","tel":"031-388-1633","addr":"경기도 안양시 동안구 비산동 1115번지","indutype":"용역 서비스 - 법률회계서비스(개인)","category":"other"},{"name":"법무사김재윤사무소","tel":"031-384-3034","addr":"경기도 안양시 동안구 비산동 1115번지","indutype":"용역 서비스 - 법률회계서비스(개인)","category":"other"},{"name":"법무사김정문사무소","tel":"031-385-1235","addr":"경기도 안양시 동안구 비산동 1115번지","indutype":"용역 서비스 - 법률회계서비스(개인)","category":"other"},{"name":"블론디플라워","tel":"","addr":"경기도 안양시 동안구 비산동 1115번지","indutype":"문화.취미 - 화원","category":"other"},{"name":"세화코퍼레이션","tel":"031-388-6622","addr":"경기도 안양시 동안구 비산동 1115번지","indutype":"기타 - 기타 전문점","category":"other"},{"name":"아셈","tel":"070-7518-3886","addr":"경기도 안양시 동안구 비산동 1115번지","indutype":"광학제품 - 카메라","category":"other"},{"name":"알에프에스텍","tel":"031-341-4339","addr":"경기도 안양시 동안구 비산동 1115번지","indutype":"용역 서비스 - 기타용역서비스","category":"other"},{"name":"에코월드방역(주)","tel":"02-3297-0034","addr":"경기도 안양시 동안구 비산동 1115번지","indutype":"용역 서비스 - 종합용역","category":"other"},{"name":"엘리스빌 (Ellisvill)","tel":"031-388-5579","addr":"경기도 안양시 동안구 비산동 1115번지","indutype":"신변잡화 - 기타잡화","category":"other"},{"name":"엘리스빌(Ellisvill)","tel":"031-388-5579","addr":"경기도 안양시 동안구 비산동 1115번지","indutype":"의류 - 정장","category":"other"},{"name":"오티엔텍","tel":"031-386-1500","addr":"경기도 안양시 동안구 비산동 1115번지","indutype":"서적문구 - 과학기자재","category":"other"},{"name":"우정문화기획","tel":"031-384-1184","addr":"경기도 안양시 동안구 비산동 1115번지","indutype":"서적문구 - 출판 및 인쇄물","category":"other"},{"name":"정관장가맹점협회","tel":"031-381-2303","addr":"경기도 안양시 동안구 비산동 1115번지","indutype":"기타 - 비영리/비대상","category":"other"},{"name":"주식회사 굿투비","tel":"031-385-1945","addr":"경기도 안양시 동안구 비산동 1115번지","indutype":"전기제품 - 가전제품","category":"other"},{"name":"주식회사 글로벌코넷","tel":"031-388-8236","addr":"경기도 안양시 동안구 비산동 1115번지","indutype":"사무통신 - 통신기기","category":"other"},{"name":"주식회사 아이맷","tel":"070-8254-0124","addr":"경기도 안양시 동안구 비산동 1115번지","indutype":"기타 - 기계공구","category":"other"},{"name":"주식회사 엔에프씨앤씨","tel":"031-341-6868","addr":"경기도 안양시 동안구 비산동 1115번지","indutype":"전기제품 - 가전제품","category":"other"},{"name":"주식회사 참누리","tel":"070-7727-8033","addr":"경기도 안양시 동안구 비산동 1115번지","indutype":"서적문구 - 기타서적문구","category":"other"},{"name":"지에스티","tel":"031-476-7300","addr":"경기도 안양시 동안구 비산동 1115번지","indutype":"전기제품 - 기타전기제품","category":"other"},{"name":"케이투에너지(J2 ENERGY)","tel":"031-388-0748","addr":"경기도 안양시 동안구 비산동 1115번지","indutype":"전기제품 - 기타전기제품","category":"other"},{"name":"큐윈도우안양점","tel":"031-388-8413","addr":"경기도 안양시 동안구 비산동 1115번지","indutype":"건축자재 - 기타건축자재","category":"other"},{"name":"푸른세무회계사무소","tel":"031-381-0806","addr":"경기도 안양시 동안구 비산동 1115번지","indutype":"용역 서비스 - 법률회계서비스(개인)","category":"other"},{"name":"피앤텍코리아","tel":"02-561-0193","addr":"경기도 안양시 동안구 비산동 1115번지","indutype":"사무통신 - 컴퓨터","category":"other"},{"name":"하오  여행사","tel":"031-383-2112","addr":"경기도 안양시 동안구 비산동 1115번지","indutype":"여행 - 관광여행","category":"other"},{"name":"한울세무회계","tel":"031-476-2300","addr":"경기도 안양시 동안구 비산동 1115번지","indutype":"용역 서비스 - 법률회계서비스(개인)","category":"other"}]},{"lat":"37.399079207","long":"126.93534612","imageIndex":17,"items":[{"name":"(주)두레비즈온","tel":"031-223-8311","addr":"경기도 안양시 동안구 비산동 550-1번지","indutype":"용역 서비스 - 사무서비스","category":"other"},{"name":"글로벌","tel":"02-507-8677","addr":"경기도 안양시 동안구 비산동 550-1번지","indutype":"사무통신 - 통신기기","category":"other"},{"name":"르하임스터디카페","tel":"031-223-8311","addr":"경기도 안양시 동안구 비산동 550-1번지","indutype":"용역 서비스 - 사무서비스","category":"other"},{"name":"슈퍼윙스 키즈카페 안양점","tel":"031-443-0085","addr":"경기도 안양시 동안구 비산동 550-1번지","indutype":"서적문구 - 완구점","category":"other"},{"name":"신원전자","tel":"031-456-0292","addr":"경기도 안양시 동안구 비산동 550-1번지","indutype":"전기제품 - 가전제품","category":"other"},{"name":"지니텔레콤 안양점","tel":"031-441-8677","addr":"경기도 안양시 동안구 비산동 550-1번지","indutype":"사무통신 - 통신기기","category":"other"},{"name":"펫하우스(jenny's Pet house)","tel":"031-469-0976","addr":"경기도 안양시 동안구 비산동 550-1번지","indutype":"문화.취미 - 애완동물","category":"other"},{"name":"하우스터디 안양비산센터 모임공간","tel":"031-388-3382","addr":"경기도 안양시 동안구 비산동 550-1번지","indutype":"용역 서비스 - 사무서비스","category":"other"}]},{"lat":"37.391085698","long":"126.94997697","imageIndex":17,"items":[{"name":"(주)로보로보안양지사","tel":"031-381-7797","addr":"경기도 안양시 동안구 비산동","indutype":"서적문구 - 기타서적문구","category":"other"},{"name":"(주)은성인터내셔널","tel":"02-1566-7892","addr":"경기도 안양시 동안구 비산동 1108번지","indutype":"회원제형태 - 기타4","category":"other"},{"name":"(주)혜성여행사","tel":"031-382-6622","addr":"경기도 안양시 동안구 비산동 1108번지","indutype":"여행 - 관광여행","category":"other"},{"name":"POS(포스)","tel":"031-388-4999","addr":"경기도 안양시 동안구 비산동 1108번지","indutype":"전기제품 - 기타전기제품","category":"other"},{"name":"강백진의사진공간","tel":"031-387-3771","addr":"경기도 안양시 동안구 비산동 1108번지","indutype":"광학제품 - 사진관","category":"other"},{"name":"다윈(DAWIN)","tel":"031-386-4111","addr":"경기도 안양시 동안구 비산동 1108번지","indutype":"전기제품 - 기타전기제품","category":"other"},{"name":"다인에스테틱","tel":"031-388-0202","addr":"경기도 안양시 동안구 비산동 1108번지","indutype":"회원제형태 - 기타1","category":"other"},{"name":"마르지않는샘 출판사","tel":"070-7803-7844","addr":"경기도 안양시 동안구 비산동 1108번지","indutype":"서적문구 - 출판 및 인쇄물","category":"other"},{"name":"메가통신","tel":"031-348-4061","addr":"경기도 안양시 동안구 비산동 1108번지","indutype":"사무통신 - 통신기기","category":"other"},{"name":"메바테(mebate)","tel":"031-344-1008","addr":"경기도 안양시 동안구 비산동 1108번지","indutype":"문화.취미 - 화원","category":"other"},{"name":"미에스테틱","tel":"031-388-9783","addr":"경기도 안양시 동안구 비산동 1108번지","indutype":"회원제형태 - 기타4","category":"other"},{"name":"범계하얀스튜디오","tel":"031-383-6622","addr":"경기도 안양시 동안구 비산동 1108번지","indutype":"광학제품 - 사진관","category":"other"},{"name":"베데스다","tel":"031-386-8657","addr":"경기도 안양시 동안구 비산동 1108번지","indutype":"신변잡화 - 기타잡화","category":"other"},{"name":"베틀한복안양평촌점","tel":"031-389-1788","addr":"경기도 안양시 동안구 비산동 1108번지","indutype":"의류 - 맞춤복점","category":"other"},{"name":"뷰티플&럭셔리샵","tel":"070-6280-1041","addr":"경기도 안양시 동안구 비산동 1108번지","indutype":"의류 - 정장","category":"other"},{"name":"아이비웹","tel":"031-385-6119","addr":"경기도 안양시 동안구 비산동","indutype":"사무통신 - 컴퓨터","category":"other"},{"name":"안양 아이폰수리센터 폰사요몰 착한 아이폰","tel":"031-466-8444","addr":"경기도 안양시 동안구 비산동 1108번지","indutype":"수리서비스 - 사무·통신기기수리","category":"other"},{"name":"안양미디어","tel":"031-386-5451","addr":"경기도 안양시 동안구 비산동 1108번지","indutype":"용역 서비스 - 종합용역","category":"other"},{"name":"알파범계역점","tel":"031-383-0093","addr":"경기도 안양시 동안구 비산동 1108번지","indutype":"서적문구 - 문구용품","category":"other"},{"name":"애플박사","tel":"","addr":"경기도 안양시 동안구 비산동 1108번지","indutype":"사무통신 - 통신기기","category":"other"},{"name":"양키캔들 평촌범계점","tel":"031-385-3004","addr":"경기도 안양시 동안구 비산동 1108번지","indutype":"신변잡화 - 기타잡화","category":"other"},{"name":"여행나라","tel":"031-382-2626","addr":"경기도 안양시 동안구 비산동 1108번지","indutype":"여행 - 관광여행","category":"other"},{"name":"유토피아애완용품","tel":"","addr":"경기도 안양시 동안구 비산동 1108번지","indutype":"문화.취미 - 애완동물","category":"other"},{"name":"유한회사톰메디","tel":"031-476-8116","addr":"경기도 안양시 동안구 비산동 1108번지","indutype":"회원제형태 - 기타4","category":"other"},{"name":"이근장세무회계사무소","tel":"031-468-4441","addr":"경기도 안양시 동안구 비산동 1108번지","indutype":"용역 서비스 - 법률회계서비스(개인)","category":"other"},{"name":"인터캐드(INTERCAD)","tel":"031-387-0320","addr":"경기도 안양시 동안구 비산동 1108번지","indutype":"전기제품 - 기타전기제품","category":"other"},{"name":"인터캐드/원격지","tel":"031-387-0330","addr":"경기도 안양시 동안구 비산동 1108번지","indutype":"기타 - 기타 전문점","category":"other"},{"name":"정상식세무회계사무소","tel":"031-385-2777","addr":"경기도 안양시 동안구 비산동 1108번지","indutype":"용역 서비스 - 법률회계서비스(개인)","category":"other"},{"name":"주식회사 대한비즈플랫폼","tel":"070-8666-6980","addr":"경기도 안양시 동안구 비산동 1108번지","indutype":"사무통신 - 기타 사무용품","category":"other"},{"name":"주식회사 이오에스공조시스템","tel":"031-388-8514","addr":"경기도 안양시 동안구 비산동 1108번지","indutype":"수리서비스 - 가정용품수리","category":"other"},{"name":"주식회사 힉스코리아","tel":"031-687-8771","addr":"경기도 안양시 동안구 비산동 1108번지","indutype":"신변잡화 - 기타잡화","category":"other"},{"name":"주식회사미조엘에이치엠","tel":"031-381-3161","addr":"경기도 안양시 동안구 비산동 1108번지","indutype":"용역 서비스 - 사무서비스","category":"other"},{"name":"주식회사안양미디어","tel":"031-389-0991","addr":"경기도 안양시 동안구 비산동 1108번지","indutype":"서적문구 - 정기간행물","category":"other"},{"name":"진호테크(주)","tel":"031-476-1140","addr":"경기도 안양시 동안구 비산동 1108번지","indutype":"전기제품 - 기타전기제품","category":"other"},{"name":"진호테크(주)/원격지","tel":"031-476-1140","addr":"경기도 안양시 동안구 비산동 1108번지","indutype":"기타 - 기타 전문점","category":"other"},{"name":"케이에스트레이딩","tel":"031-386-3244","addr":"경기도 안양시 동안구 비산동 1108번지","indutype":"건축자재 - 기타건축자재","category":"other"},{"name":"퀼트마을협동조합","tel":"031-389-1040","addr":"경기도 안양시 동안구 비산동 1108번지","indutype":"직물 - 침구·수예점","category":"other"},{"name":"키다리영어샵","tel":"031-389-0509","addr":"경기도 안양시 동안구 비산동 1108번지","indutype":"서적문구 - 일반서적","category":"other"},{"name":"황금단","tel":"031-381-3434","addr":"경기도 안양시 동안구 비산동 1108번지","indutype":"의류 - 맞춤복점","category":"other"},{"name":"휴먼씽크(주)","tel":"031-382-3474","addr":"경기도 안양시 동안구 비산동 1108번지","indutype":"용역 서비스 - 소프트웨어","category":"other"}]},{"lat":"37.391248056","long":"126.9503721","imageIndex":17,"items":[{"name":"(주)브이아이피여행센터","tel":"031-387-5666","addr":"경기도 안양시 동안구 비산동 1108-1번지","indutype":"여행 - 관광여행","category":"other"},{"name":"(주)삼보미래정보","tel":"031-388-3999","addr":"경기도 안양시 동안구 비산동 1108-1번지","indutype":"사무통신 - 컴퓨터","category":"other"},{"name":"강해원기획","tel":"031-385-9011","addr":"경기도 안양시 동안구 비산동 1108-1번지","indutype":"서적문구 - 출판 및 인쇄물","category":"other"},{"name":"마인드스터디카페","tel":"","addr":"경기도 안양시 동안구 비산동 1108-1번지","indutype":"용역 서비스 - 사무서비스","category":"other"},{"name":"몸이편안한세상","tel":"031-387-8285","addr":"경기도 안양시 동안구 비산동 1108-1번지","indutype":"회원제형태 - 레져업소","category":"other"},{"name":"법무사사무소 한택","tel":"031-387-5200","addr":"경기도 안양시 동안구 비산동 1108-1번지","indutype":"용역 서비스 - 법률회계서비스(개인)","category":"other"},{"name":"법무사차상용사무소","tel":"031-381-2500","addr":"경기도 안양시 동안구 비산동 1108-1번지","indutype":"용역 서비스 - 법률회계서비스(개인)","category":"other"},{"name":"서생민세무회계사무소","tel":"031-386-8304","addr":"경기도 안양시 동안구 비산동 1108-1번지","indutype":"용역 서비스 - 법률회계서비스(개인)","category":"other"},{"name":"이브비즈(EVEBEADS)","tel":"031-381-1142","addr":"경기도 안양시 동안구 비산동 1108-1번지","indutype":"신변잡화 - 액세서리","category":"other"},{"name":"제이앤씨 커뮤니케이션","tel":"070-7808-6222","addr":"경기도 안양시 동안구 비산동 1108-1번지","indutype":"사무통신 - 통신기기","category":"other"},{"name":"존스킨에스테틱","tel":"031-381-1070","addr":"경기도 안양시 동안구 비산동 1108-1번지","indutype":"회원제형태 - 기타1","category":"other"},{"name":"주연에듀","tel":"","addr":"경기도 안양시 동안구 비산동 1108-1번지","indutype":"용역 서비스 - 사무서비스","category":"other"},{"name":"청실홍실","tel":"031-381-2468","addr":"경기도 안양시 동안구 비산동 1108-1번지","indutype":"의류 - 맞춤복점","category":"other"},{"name":"풀잎문화센터","tel":"031-386-5578","addr":"경기도 안양시 동안구 비산동 1108-1번지","indutype":"기타 - 비영리/대상","category":"other"}]},{"lat":"37.406276855","long":"126.95031643","imageIndex":17,"items":[{"name":"(주)비알에스","tel":"031-383-9033","addr":"경기도 안양시 동안구 비산동 1029-8번지","indutype":"전기제품 - 가전제품","category":"other"}]},{"lat":"37.397557283","long":"126.93672528","imageIndex":17,"items":[{"name":"(주)빅터아이엔디- 안양점","tel":"","addr":"경기도 안양시 동안구 비산동 412-7번지","indutype":"레져용품 - 스포츠·레져용품","category":"other"},{"name":"엔젤유통","tel":"031-388-0079","addr":"경기도 안양시 동안구 비산동 412-7번지","indutype":"문화.취미 - 애완동물","category":"other"},{"name":"원창미싱상사","tel":"031-388-9833","addr":"경기도 안양시 동안구 비산동 412-7번지","indutype":"기타 - 기계공구","category":"other"},{"name":"피엔씨","tel":"031-476-6040","addr":"경기도 안양시 동안구 비산동 412-7번지","indutype":"레져용품 - 스포츠·레져용품","category":"other"}]},{"lat":"37.39616218","long":"126.9393917","imageIndex":17,"items":[{"name":"(주)샘아쿠아펫츠","tel":"070-8822-9460","addr":"경기도 안양시 동안구 비산동 422-10번지","indutype":"문화.취미 - 수족관","category":"other"},{"name":"대양통신","tel":"031-476-2700","addr":"경기도 안양시 동안구 비산동 422-10번지","indutype":"전기제품 - 가전제품","category":"other"},{"name":"샘아쿠아라인","tel":"070-8822-9460","addr":"경기도 안양시 동안구 비산동 422-10번지","indutype":"문화.취미 - 수족관","category":"other"}]},{"lat":"37.405723611","long":"126.94270424","imageIndex":17,"items":[{"name":"(주)스킹키","tel":"031-348-3943","addr":"경기도 안양시 동안구 비산동 306-7번지","indutype":"서적문구 - 문구용품","category":"other"},{"name":"미미피엔씨","tel":"031-381-8453","addr":"경기도 안양시 동안구 비산동 306-7번지","indutype":"수리서비스 - 세탁소","category":"other"}]},{"lat":"37.39169011","long":"126.95164784","imageIndex":17,"items":[{"name":"(주)아멕스코리아","tel":"031-383-1741","addr":"경기도 안양시 동안구 비산동 1112-1번지","indutype":"여행 - 관광여행","category":"other"},{"name":"(주)아이비여행","tel":"031-384-0926","addr":"경기도 안양시 동안구 비산동 1112-1번지","indutype":"여행 - 관광여행","category":"other"},{"name":"The Zen Pilates","tel":"031-440-9300","addr":"경기도 안양시 동안구 비산동 1112-1번지","indutype":"회원제형태 - 레져업소","category":"other"},{"name":"나도명품","tel":"031-385-5950","addr":"경기도 안양시 동안구 비산동 1112-1번지","indutype":"신변잡화 - 가방","category":"other"},{"name":"네츄럴페이스 피부관리실","tel":"031-387-9993","addr":"경기도 안양시 동안구 비산동 1112-1번지","indutype":"회원제형태 - 기타4","category":"other"},{"name":"바커스틱코리아","tel":"02-2649-0369","addr":"경기도 안양시 동안구 비산동 1112-1번지","indutype":"용역 서비스 - 종합용역","category":"other"},{"name":"봄빛병원부설 산후조리원1관","tel":"031-380-7300","addr":"경기도 안양시 동안구 비산동 1112-1번지","indutype":"기타의료기관 - 산후조리원","category":"other"},{"name":"오르다코리아안양지사","tel":"031-381-0040","addr":"경기도 안양시 동안구 비산동 1112-1번지","indutype":"서적문구 - 일반서적","category":"other"},{"name":"올디","tel":"031-388-8858","addr":"경기도 안양시 동안구 비산동 1112-1번지","indutype":"신변잡화 - 신발","category":"other"},{"name":"우리수족관","tel":"031-476-9595","addr":"경기도 안양시 동안구 비산동 1112-1번지","indutype":"문화.취미 - 애완동물","category":"other"},{"name":"인베스트데이타 주식회사","tel":"070-7729-6039","addr":"경기도 안양시 동안구 비산동 1112-1번지","indutype":"사무통신 - 통신기기","category":"other"},{"name":"주식회사 인슐텍","tel":"031-385-7944","addr":"경기도 안양시 동안구 비산동 1112-1번지","indutype":"용역 서비스 - 사무서비스","category":"other"},{"name":"주식회사 일성인터내셔널","tel":"031-386-8718","addr":"경기도 안양시 동안구 비산동 1112-1번지","indutype":"서적문구 - 출판 및 인쇄물","category":"other"},{"name":"주식회사아이플랜","tel":"031-476-1133","addr":"경기도 안양시 동안구 비산동 1112-1번지","indutype":"회원제형태 - 기타4","category":"other"},{"name":"지엠비씨","tel":"","addr":"경기도 안양시 동안구 비산동 1112-1번지","indutype":"용역 서비스 - 사무서비스","category":"other"},{"name":"찰리펫샵","tel":"031-381-7716","addr":"경기도 안양시 동안구 비산동 1112-1번지","indutype":"문화.취미 - 애완동물","category":"other"},{"name":"테힐라 한복대여 맞춤(안양점)","tel":"","addr":"경기도 안양시 동안구 비산동 1112-1번지","indutype":"의류 - 맞춤복점","category":"other"},{"name":"피비글로벌(주)","tel":"031-386-8999","addr":"경기도 안양시 동안구 비산동 1112-1번지","indutype":"용역 서비스 - 보관및 창고업","category":"other"}]},{"lat":"37.390418563","long":"126.94911923","imageIndex":17,"items":[{"name":"(주)에이엠솔루션즈/원격지","tel":"070-8811-0425","addr":"경기도 안양시 동안구 비산동 1107번지","indutype":"기타 - 기타 전문점","category":"other"},{"name":"(주)티이피","tel":"031-383-2233","addr":"경기도 안양시 동안구 비산동 1107번지","indutype":"서적문구 - 기타서적문구","category":"other"},{"name":"DMB정보통신","tel":"031-440-8074","addr":"경기도 안양시 동안구 비산동 1107번지","indutype":"사무통신 - 통신기기","category":"other"},{"name":"게임 도리","tel":"","addr":"경기도 안양시 동안구 비산동 1107번지","indutype":"서적문구 - 완구점","category":"other"},{"name":"김현수법무사사무소","tel":"031-388-9585","addr":"경기도 안양시 동안구 비산동 1107번지","indutype":"용역 서비스 - 법률회계서비스(개인)","category":"other"},{"name":"디딤돌정보통신","tel":"031-440-8171","addr":"경기도 안양시 동안구 비산동 1107번지","indutype":"사무통신 - 통신기기","category":"other"},{"name":"디자인3(Design3)","tel":"070-4732-5677","addr":"경기도 안양시 동안구 비산동 1107번지","indutype":"신변잡화 - 기념품점","category":"other"},{"name":"러브앤땡스(Love&Thanks)","tel":"070-8871-8891","addr":"경기도 안양시 동안구 비산동 1107번지","indutype":"신변잡화 - 기타잡화","category":"other"},{"name":"믿음세무회계사무소","tel":"031-385-0097","addr":"경기도 안양시 동안구 비산동","indutype":"용역 서비스 - 법률회계서비스(개인)","category":"other"},{"name":"법무사이찬희사무소","tel":"031-389-1440","addr":"경기도 안양시 동안구 비산동 1107번지","indutype":"용역 서비스 - 법률회계서비스(개인)","category":"other"},{"name":"사단법인 한국산업경영시스템학회","tel":"","addr":"경기도 안양시 동안구 비산동 1107번지","indutype":"용역 서비스 - 사무서비스","category":"other"},{"name":"세탁기에어컨청소나라본점","tel":"","addr":"경기도 안양시 동안구 비산동 1107번지","indutype":"용역 서비스 - 종합용역","category":"other"},{"name":"시앤엠인터내셔날(C&M International)","tel":"070-7783-3808","addr":"경기도 안양시 동안구 비산동","indutype":"전기제품 - 가전제품","category":"other"},{"name":"신영데이터","tel":"031-381-1152","addr":"경기도 안양시 동안구 비산동 1107번지","indutype":"용역 서비스 - 사무서비스","category":"other"},{"name":"아웃벡(OUTVAC)","tel":"031-476-3115","addr":"경기도 안양시 동안구 비산동 1107번지","indutype":"기타 - 기계공구","category":"other"},{"name":"아이픽스","tel":"070-7755-6153","addr":"경기도 안양시 동안구 비산동 1107번지","indutype":"수리서비스 - 사무·통신기기수리","category":"other"},{"name":"안양아이폰수리 아이픽스 맥북수리 중고폰","tel":"","addr":"경기도 안양시 동안구 비산동 1107번지","indutype":"신변잡화 - 기타잡화","category":"other"},{"name":"안양중고폰 매입아프리카폰","tel":"031-384-7989","addr":"경기도 안양시 동안구 비산동 1107번지","indutype":"사무통신 - 통신기기","category":"other"},{"name":"에버문화여행","tel":"031-468-8585","addr":"경기도 안양시 동안구 비산동 1107번지","indutype":"여행 - 관광여행","category":"other"},{"name":"엠아이케이 (MIK)","tel":"031-381-7773","addr":"경기도 안양시 동안구 비산동 1107번지","indutype":"신변잡화 - 기타잡화","category":"other"},{"name":"온누리","tel":"031-380-4277","addr":"경기도 안양시 동안구 비산동 1107번지","indutype":"사무통신 - 통신기기","category":"other"},{"name":"워터윈코리아","tel":"031-569-8180","addr":"경기도 안양시 동안구 비산동 1107번지","indutype":"기타 - 기계공구","category":"other"},{"name":"이니스","tel":"070-4205-8751","addr":"경기도 안양시 동안구 비산동 1107번지","indutype":"레져용품 - 스포츠·레져용품","category":"other"},{"name":"이정엽행정사사무소","tel":"070-8253-9172","addr":"경기도 안양시 동안구 비산동 1107번지","indutype":"용역 서비스 - 법률회계서비스(개인)","category":"other"},{"name":"정민텔레콤","tel":"031-380-6855","addr":"경기도 안양시 동안구 비산동 1107번지","indutype":"사무통신 - 통신기기","category":"other"},{"name":"제이에이치 (JH)모바일","tel":"070-4150-5894","addr":"경기도 안양시 동안구 비산동 1107번지","indutype":"수리서비스 - 사무·통신기기수리","category":"other"},{"name":"주식회사 오썸투어","tel":"031-361-6210","addr":"경기도 안양시 동안구 비산동 1107번지","indutype":"여행 - 관광여행","category":"other"},{"name":"주식회사주원화학","tel":"031-381-1626","addr":"경기도 안양시 동안구 비산동 1107번지","indutype":"서적문구 - 과학기자재","category":"other"},{"name":"진성정보통신","tel":"031-380-4267","addr":"경기도 안양시 동안구 비산동 1107번지","indutype":"사무통신 - 통신기기","category":"other"},{"name":"패트리아기술번역센터","tel":"031-382-7581","addr":"경기도 안양시 동안구 비산동 1107번지","indutype":"용역 서비스 - 사무서비스","category":"other"},{"name":"한국산업전람(주)","tel":"031-380-6806","addr":"경기도 안양시 동안구 비산동","indutype":"용역 서비스 - 종합용역","category":"other"}]},{"lat":"37.400667319","long":"126.9395686","imageIndex":17,"items":[{"name":"(주)에이치존","tel":"02-567-6070","addr":"경기도 안양시 동안구 비산동","indutype":"문화.취미 - 화랑","category":"other"},{"name":"PSYCHE(프시케)","tel":"031-464-7700","addr":"경기도 안양시 동안구 비산동","indutype":"신변잡화 - 귀금속","category":"other"},{"name":"꼬메뜨스킨케어","tel":"031-442-4472","addr":"경기도 안양시 동안구 비산동","indutype":"회원제형태 - 기타4","category":"other"},{"name":"니콜","tel":"031-346-7677","addr":"경기도 안양시 동안구 비산동 425번지 비산삼성래미안","indutype":"수리서비스 - 신변잡화수리","category":"other"},{"name":"라나케이","tel":"031-465-8457","addr":"경기도 안양시 동안구 비산동 425번지","indutype":"의류 - 정장","category":"other"},{"name":"래미안세탁","tel":"031-477-7773","addr":"경기도 안양시 동안구 비산동 425번지 비산삼성래미안","indutype":"수리서비스 - 세탁소","category":"other"},{"name":"래미안인테리어","tel":"031-465-7704","addr":"경기도 안양시 동안구 비산동 425번지 비산삼성래미안","indutype":"용역 서비스 - 기타용역서비스","category":"other"},{"name":"삼성DESIGN","tel":"031-442-4760","addr":"경기도 안양시 동안구 비산동 425번지 비산삼성래미안","indutype":"건축자재 - 인테리어전문","category":"other"},{"name":"삼성세탁소","tel":"031-442-0344","addr":"경기도 안양시 동안구 비산동 425번지 비산삼성래미안","indutype":"수리서비스 - 세탁소","category":"other"},{"name":"수","tel":"031-468-8856","addr":"경기도 안양시 동안구 비산동 425번지","indutype":"회원제형태 - 기타4","category":"other"},{"name":"엠디1098","tel":"","addr":"경기도 안양시 동안구 비산동 425번지","indutype":"의류 - 정장","category":"other"},{"name":"엠브이엠","tel":"031-1668-1101","addr":"경기도 안양시 동안구 비산동 425번지","indutype":"레져용품 - 스포츠·레져용품","category":"other"},{"name":"오페라","tel":"","addr":"경기도 안양시 동안구 비산동 425번지","indutype":"의류 - 정장","category":"other"},{"name":"올라(HOLA)","tel":"","addr":"경기도 안양시 동안구 비산동 425번지","indutype":"서적문구 - 완구점","category":"other"},{"name":"우림","tel":"031-473-5661","addr":"경기도 안양시 동안구 비산동 425번지","indutype":"의류 - 정장","category":"other"},{"name":"토리","tel":"031-465-5770","addr":"경기도 안양시 동안구 비산동 425번지","indutype":"의류 - 정장","category":"other"}]},{"lat":"37.401772958","long":"126.95295108","imageIndex":17,"items":[{"name":"(주)예원티엠씨","tel":"031-385-0912","addr":"경기도 안양시 동안구 비산동 1059번지","indutype":"용역 서비스 - 종합용역","category":"other"},{"name":"삼한","tel":"031-383-5799","addr":"경기도 안양시 동안구 비산동 1059번지","indutype":"의류 - 정장","category":"other"},{"name":"샤이닝샵(Shining Sarp)","tel":"031-382-6244","addr":"경기도 안양시 동안구 비산동 1059번지","indutype":"신변잡화 - 액세서리","category":"other"},{"name":"엠제이스타일(MJ STYLE)","tel":"","addr":"경기도 안양시 동안구 비산동 1059번지","indutype":"의류 - 기타의류","category":"other"},{"name":"예사풍기인견","tel":"","addr":"경기도 안양시 동안구 비산동 1059번지","indutype":"의류 - 정장","category":"other"},{"name":"예은타일","tel":"031-382-6695","addr":"경기도 안양시 동안구 비산동 1059번지","indutype":"건축자재 - 건축용 요업제품","category":"other"},{"name":"포시즌아울렛","tel":"031-476-7500","addr":"경기도 안양시 동안구 비산동 1059번지","indutype":"의류 - 정장","category":"other"}]},{"lat":"37.393222698","long":"126.95370208","imageIndex":17,"items":[{"name":"(주)친구사이","tel":"031-469-7942","addr":"경기도 안양시 동안구 비산동 1110-2번지","indutype":"사무통신 - 통신기기","category":"other"}]},{"lat":"37.406556192","long":"126.95037271","imageIndex":17,"items":[{"name":"(주)코리아트","tel":"031-386-3288","addr":"경기도 안양시 동안구 비산동 1029-10번지","indutype":"문화.취미 - 민예·공예품","category":"other"}]},{"lat":"37.403554492","long":"126.94742699","imageIndex":17,"items":[{"name":"(주)하나관광여행사","tel":"031-448-8900","addr":"경기도 안양시 동안구 비산동 255-3번지","indutype":"여행 - 관광여행","category":"other"},{"name":"하늘교육","tel":"031-385-3389","addr":"경기도 안양시 동안구 비산동 255-3번지","indutype":"서적문구 - 전문서적","category":"other"}]},{"lat":"37.401022723","long":"126.94756439","imageIndex":17,"items":[{"name":"(주)하나로여행사","tel":"031-388-2100","addr":"경기도 안양시 동안구 비산동 246-3번지","indutype":"여행 - 관광여행","category":"other"}]},{"lat":"37.392744861","long":"126.95297966","imageIndex":17,"items":[{"name":"1층197호","tel":"031-1-1","addr":"경기도 안양시 동안구 비산동 1110-1번지","indutype":"의류 - 정장","category":"other"},{"name":"1층222호","tel":"","addr":"경기도 안양시 동안구 비산동 1110-1번지","indutype":"신변잡화 - 신발","category":"other"},{"name":"1층238호","tel":"031-345-6338","addr":"경기도 안양시 동안구 비산동 1110-1번지","indutype":"신변잡화 - 액세서리","category":"other"},{"name":"1층241호","tel":"031-387-7663","addr":"경기도 안양시 동안구 비산동 1110-1번지","indutype":"의류 - 정장","category":"other"},{"name":"1층251호","tel":"031-387-7663","addr":"경기도 안양시 동안구 비산동 1110-1번지","indutype":"의류 - 정장","category":"other"},{"name":"1층260호","tel":"031-1-1","addr":"경기도 안양시 동안구 비산동 1110-1번지","indutype":"신변잡화 - 액세서리","category":"other"},{"name":"1층271","tel":"031-387-7663","addr":"경기도 안양시 동안구 비산동","indutype":"의류 - 정장","category":"other"},{"name":"2층144호","tel":"031-1-1","addr":"경기도 안양시 동안구 비산동","indutype":"의류 - 정장","category":"other"},{"name":"2층159호","tel":"031-1-1","addr":"경기도 안양시 동안구 비산동 1110-1번지","indutype":"의류 - 정장","category":"other"},{"name":"2층161호","tel":"031-1-1","addr":"경기도 안양시 동안구 비산동 1110-1번지","indutype":"의류 - 정장","category":"other"},{"name":"2층195호","tel":"031-345-6595","addr":"경기도 안양시 동안구 비산동 1110-1번지","indutype":"의류 - 정장","category":"other"},{"name":"2층220호","tel":"031-387-5764","addr":"경기도 안양시 동안구 비산동 1110-1번지","indutype":"의류 - 정장","category":"other"},{"name":"914E","tel":"031-387-7663","addr":"경기도 안양시 동안구 비산동 1110-1번지","indutype":"의류 - 정장","category":"other"},{"name":"가라미매트","tel":"031-344-4918","addr":"경기도 안양시 동안구 비산동 1110-1번지","indutype":"신변잡화 - 기타잡화","category":"other"},{"name":"국제열쇠공사","tel":"031-385-1304","addr":"경기도 안양시 동안구 비산동","indutype":"건축자재 - 목재·석재·철물","category":"other"},{"name":"기분좋은날","tel":"031-388-9080","addr":"경기도 안양시 동안구 비산동 1110-1번지","indutype":"의류 - 정장","category":"other"},{"name":"나드리 공방","tel":"031-1899-3272","addr":"경기도 안양시 동안구 비산동 1110-1번지","indutype":"문화.취미 - 문화취미기타","category":"other"},{"name":"느낌(feel)","tel":"031-383-1702","addr":"경기도 안양시 동안구 비산동 1110-1번지","indutype":"의류 - 정장","category":"other"},{"name":"데이터코어","tel":"031-384-1107","addr":"경기도 안양시 동안구 비산동 1110-1번지","indutype":"수리서비스 - 사무·통신기기수리","category":"other"},{"name":"럭셔리","tel":"031-388-9134","addr":"경기도 안양시 동안구 비산동 1110-1번지","indutype":"의류 - 정장","category":"other"},{"name":"마일스톤","tel":"031-384-7911","addr":"경기도 안양시 동안구 비산동 1110-1번지","indutype":"신변잡화 - 가방","category":"other"},{"name":"바이올렛","tel":"031-385-6648","addr":"경기도 안양시 동안구 비산동 1110-1번지","indutype":"의류 - 기타의류","category":"other"},{"name":"빨간풍차","tel":"031-345-6245","addr":"경기도 안양시 동안구 비산동 1110-1번지","indutype":"의류 - 기타의류","category":"other"},{"name":"샤크존","tel":"031-345-6278","addr":"경기도 안양시 동안구 비산동","indutype":"의류 - 기타의류","category":"other"},{"name":"스웨이","tel":"070-4251-2389","addr":"경기도 안양시 동안구 비산동 1110-1번지","indutype":"의류 - 정장","category":"other"},{"name":"아기별플라워","tel":"031-385-6414","addr":"경기도 안양시 동안구 비산동 1110-1번지","indutype":"문화.취미 - 화원","category":"other"},{"name":"아로마샤크존점","tel":"031-387-7667","addr":"경기도 안양시 동안구 비산동 1110-1번지","indutype":"신변잡화 - 기타잡화","category":"other"},{"name":"아로마월드","tel":"031-387-7663","addr":"경기도 안양시 동안구 비산동 1110-1번지","indutype":"신변잡화 - 기타잡화","category":"other"},{"name":"알레마나(평촌)","tel":"031-388-4749","addr":"경기도 안양시 동안구 비산동 1110-1번지","indutype":"의류 - 정장","category":"other"},{"name":"애플","tel":"031-387-7667","addr":"경기도 안양시 동안구 비산동 1110-1번지","indutype":"의류 - 정장","category":"other"},{"name":"양장맞춤전문아름다운옷수선","tel":"031-382-6630","addr":"경기도 안양시 동안구 비산동","indutype":"수리서비스 - 세탁소","category":"other"},{"name":"언니야","tel":"","addr":"경기도 안양시 동안구 비산동 1110-1번지","indutype":"신변잡화 - 액세서리","category":"other"},{"name":"에스케이엠비(SKMB)","tel":"031-381-6457","addr":"경기도 안양시 동안구 비산동 1110-1번지","indutype":"사무통신 - 통신기기","category":"other"},{"name":"엘지화장품","tel":"031-458-5696","addr":"경기도 안양시 동안구 비산동 1110-1번지","indutype":"회원제형태 - 기타1","category":"other"},{"name":"영","tel":"031-345-6279","addr":"경기도 안양시 동안구 비산동 1110-1번지","indutype":"의류 - 정장","category":"other"},{"name":"예스 모바일","tel":"031-382-6998","addr":"경기도 안양시 동안구 비산동 1110-1번지","indutype":"사무통신 - 통신기기","category":"other"},{"name":"오렌지","tel":"031-398-6104","addr":"경기도 안양시 동안구 비산동 1110-1번지","indutype":"의류 - 정장","category":"other"},{"name":"올리브","tel":"031-384-4672","addr":"경기도 안양시 동안구 비산동 1110-1번지","indutype":"의류 - 내의판매","category":"other"},{"name":"우선멈춤","tel":"031-387-7663","addr":"경기도 안양시 동안구 비산동 1110-1번지","indutype":"의류 - 정장","category":"other"},{"name":"유니콘","tel":"02-1577-0000","addr":"경기도 안양시 동안구 비산동 1110-1번지","indutype":"의류 - 정장","category":"other"},{"name":"주식회사 에이스디자인","tel":"031-383-7885","addr":"경기도 안양시 동안구 비산동 1110-1번지","indutype":"건축자재 - 인테리어전문","category":"other"},{"name":"지하109호","tel":"031-1-1","addr":"경기도 안양시 동안구 비산동 1110-1번지","indutype":"의류 - 정장","category":"other"},{"name":"지하139","tel":"031-387-7663","addr":"경기도 안양시 동안구 비산동 1110-1번지","indutype":"의류 - 정장","category":"other"},{"name":"지하148호","tel":"031-1-1","addr":"경기도 안양시 동안구 비산동 1110-1번지","indutype":"의류 - 아동의류","category":"other"},{"name":"코디","tel":"031-3698-0385","addr":"경기도 안양시 동안구 비산동 1110-1번지","indutype":"의류 - 정장","category":"other"},{"name":"탑시스템","tel":"","addr":"경기도 안양시 동안구 비산동 1110-1번지","indutype":"수리서비스 - 기타수리서비스","category":"other"},{"name":"티파니","tel":"031-345-6338","addr":"경기도 안양시 동안구 비산동 1110-1번지","indutype":"신변잡화 - 액세서리","category":"other"},{"name":"하트몽","tel":"","addr":"경기도 안양시 동안구 비산동 1110-1번지","indutype":"의류 - 정장","category":"other"},{"name":"행복찾기","tel":"031-345-6035","addr":"경기도 안양시 동안구 비산동 1110-1번지","indutype":"주방용구 - 주방용구","category":"other"}]},{"lat":"37.414025213","long":"126.94964456","imageIndex":17,"items":[{"name":"6950부대","tel":"031-381-6860","addr":"경기도 안양시 동안구 비산동 산11-1번지","indutype":"유통업 비영리 - 구내매점(국가기관","category":"other"},{"name":"6950부대","tel":"031-381-6860","addr":"경기도 안양시 동안구 비산동 산11-1번지","indutype":"유통업 비영리 - 구내매점(국가기관","category":"other"},{"name":"6950부대","tel":"031-386-6950","addr":"경기도 안양시 동안구 비산동 산11-1번지","indutype":"유통업 비영리 - 구내매점(국가기관","category":"other"}]},{"lat":"37.390525929","long":"126.94748176","imageIndex":17,"items":[{"name":"A6","tel":"031-385-8254","addr":"경기도 안양시 동안구 비산동 1104-1번지","indutype":"의류 - 내의판매","category":"other"},{"name":"나크나인","tel":"031-383-2033","addr":"경기도 안양시 동안구 비산동 1104-1번지","indutype":"의류 - 기타의류","category":"other"},{"name":"동네두바퀴","tel":"070-8876-2525","addr":"경기도 안양시 동안구 비산동 1104-1번지","indutype":"레져용품 - 스포츠·레져용품","category":"other"},{"name":"동양매직빌리미","tel":"031-386-7784","addr":"경기도 안양시 동안구 비산동 1104-1번지","indutype":"주방용구 - 정수기","category":"other"},{"name":"레지나(REGINA)플라워","tel":"031-381-1750","addr":"경기도 안양시 동안구 비산동 1104-1번지","indutype":"문화.취미 - 화원","category":"other"},{"name":"리프","tel":"031-385-1977","addr":"경기도 안양시 동안구 비산동 1104-1번지","indutype":"의류 - 기타의류","category":"other"},{"name":"버블 독(bubble dog)","tel":"031-384-4490","addr":"경기도 안양시 동안구 비산동 1104-1번지","indutype":"문화.취미 - 애완동물","category":"other"},{"name":"베이직어페럴","tel":"031-388-4763","addr":"경기도 안양시 동안구 비산동 1104-1번지","indutype":"의류 - 기타의류","category":"other"},{"name":"비엔나악기","tel":"031-385-7551","addr":"경기도 안양시 동안구 비산동 1104-1번지","indutype":"레져용품 - 악기점","category":"other"},{"name":"아큠","tel":"031-381-5880","addr":"경기도 안양시 동안구 비산동 1104-1번지","indutype":"의류 - 기타의류","category":"other"},{"name":"안양시소상공인연합회","tel":"031-383-0026","addr":"경기도 안양시 동안구 비산동 1104-1번지","indutype":"기타 - 비영리/비대상","category":"other"},{"name":"에스케이매직(SKMAGIC)","tel":"031-508-0007","addr":"경기도 안양시 동안구 비산동 1104-1번지","indutype":"전기제품 - 가전제품","category":"other"},{"name":"유지아이젯","tel":"031-383-2032","addr":"경기도 안양시 동안구 비산동 1104-1번지","indutype":"의류 - 기타의류","category":"other"},{"name":"주식회사 비티에스엘이디(BTSLED Co.,Ltd.)","tel":"031-459-0780","addr":"경기도 안양시 동안구 비산동 1104-1번지","indutype":"건축자재 - 조명기구","category":"other"},{"name":"탑드림","tel":"031-441-2929","addr":"경기도 안양시 동안구 비산동 1104-1번지","indutype":"신변잡화 - 신발","category":"other"},{"name":"펫트리","tel":"031-381-7790","addr":"경기도 안양시 동안구 비산동 1104-1번지","indutype":"문화.취미 - 애완동물","category":"other"},{"name":"핑크폭스","tel":"031-383-0026","addr":"경기도 안양시 동안구 비산동 1104-1번지","indutype":"용역 서비스 - 종합용역","category":"other"}]},{"lat":"37.405556931","long":"126.95233866","imageIndex":17,"items":[{"name":"ART에어컨공조","tel":"070-8744-0996","addr":"경기도 안양시 동안구 비산동 1045-12번지 유성빌리지","indutype":"용역 서비스 - 기타용역서비스","category":"other"}]},{"lat":"37.405078389","long":"126.9500349","imageIndex":17,"items":[{"name":"BAUER/주식회사 플라탄","tel":"031-387-2877","addr":"경기도 안양시 동안구 비산동 1030-5번지","indutype":"레져용품 - 스포츠·레져용품","category":"other"},{"name":"주식회사 더동행","tel":"02-1599-4681","addr":"경기도 안양시 동안구 비산동 1030-5번지","indutype":"용역 서비스 - 가례서비스업","category":"other"},{"name":"주식회사 플라탄","tel":"031-387-2877","addr":"경기도 안양시 동안구 비산동 1030-5번지","indutype":"레져용품 - 스포츠·레져용품","category":"other"}]},{"lat":"37.392334195","long":"126.94186801","imageIndex":17,"items":[{"name":"Edu-Info","tel":"031-304-7359","addr":"경기도 안양시 동안구 비산동 577-1번지 비산진흥A.P.T","indutype":"용역 서비스 - 사무서비스","category":"other"},{"name":"서울유리 샷시공사","tel":"031-388-3106","addr":"경기도 안양시 동안구 비산동 577-1번지","indutype":"건축자재 - 유리","category":"other"},{"name":"주식회사한국밴협회","tel":"031-447-6600","addr":"경기도 안양시 동안구 비산동","indutype":"사무통신 - 통신기기","category":"other"}]},{"lat":"37.407718355","long":"126.95006693","imageIndex":17,"items":[{"name":"HOBBYMATE","tel":"031-385-3987","addr":"경기도 안양시 동안구 비산동 1017-28번지","indutype":"서적문구 - 완구점","category":"other"},{"name":"비비컨츄리","tel":"031-348-3482","addr":"경기도 안양시 동안구 비산동 1017-28번지","indutype":"서적문구 - 완구점","category":"other"}]},{"lat":"37.407629509","long":"126.93488665","imageIndex":17,"items":[{"name":"HyewonIT","tel":"070-8258-7176","addr":"경기도 안양시 동안구 비산동 1155번지","indutype":"회원제형태 - 기타3","category":"other"},{"name":"딜레마코리아안양통합지사","tel":"031-448-2315","addr":"경기도 안양시 동안구 비산동 1151번지","indutype":"서적문구 - 기타서적문구","category":"other"},{"name":"애니플러스","tel":"031-466-0276","addr":"경기도 안양시 동안구 비산동 1151번지","indutype":"회원제형태 - 기타3","category":"other"}]},{"lat":"37.402466508","long":"126.9524198","imageIndex":17,"items":[{"name":"J.S상사","tel":"031-386-6438","addr":"경기도 안양시 동안구 비산동 1052-2번지","indutype":"직물 - 카페트,커튼,천막,지물","category":"other"},{"name":"주식회사유일렌트카","tel":"031-384-2266","addr":"경기도 안양시 동안구 비산동 1052-2번지","indutype":"여행 - 렌터카","category":"other"},{"name":"청화주단","tel":"031-387-9493","addr":"경기도 안양시 동안구 비산동 1052-2번지","indutype":"의류 - 맞춤복점","category":"other"}]},{"lat":"37.398410809","long":"126.94976854","imageIndex":17,"items":[{"name":"JH시스템에어컨","tel":"","addr":"경기도 안양시 동안구 비산동 1101-6번지 샛별한양아파트","indutype":"용역 서비스 - 기타용역서비스","category":"other"}]},{"lat":"37.402274062","long":"126.94533853","imageIndex":17,"items":[{"name":"P.G.A.골프클럽","tel":"031-381-0707","addr":"경기도 안양시 동안구 비산동 354-10번지 뉴타운삼호아파트","indutype":"회원제형태 - 레져업소","category":"other"},{"name":"삼호세탁소","tel":"031-385-6666","addr":"경기도 안양시 동안구 비산동","indutype":"수리서비스 - 세탁소","category":"other"},{"name":"삼호인테리어(삼호점)","tel":"031-385-8282","addr":"경기도 안양시 동안구 비산동 354-10번지 뉴타운아파트","indutype":"건축자재 - 인테리어전문","category":"other"},{"name":"스튜디오탈랜트","tel":"031-385-2616","addr":"경기도 안양시 동안구 비산동","indutype":"광학제품 - 사진관","category":"other"},{"name":"씨유안양비산삼호점","tel":"031-387-5603","addr":"경기도 안양시 동안구 비산동 354-10번지 뉴타운아파트","indutype":"유통업 영리 - 편 의 점","category":"other"},{"name":"이레","tel":"031-387-5828","addr":"경기도 안양시 동안구 비산동 354-10번지 뉴타운삼호아파트","indutype":"의류 - 정장","category":"other"},{"name":"충남보수.지.철물","tel":"031-385-9936","addr":"경기도 안양시 동안구 비산동 354-10번지 뉴타운삼호아파트","indutype":"직물 - 카페트,커튼,천막,지물","category":"other"},{"name":"키즈그라운드","tel":"031-382-0823","addr":"경기도 안양시 동안구 비산동 354-10번지 뉴타운아파트","indutype":"서적문구 - 완구점","category":"other"},{"name":"한화장식","tel":"031-384-3939","addr":"경기도 안양시 동안구 비산동 354-10번지 뉴타운아파트","indutype":"직물 - 카페트,커튼,천막,지물","category":"other"}]},{"lat":"37.408610423","long":"126.95022444","imageIndex":17,"items":[{"name":"Raonsports","tel":"031-383-0470","addr":"경기도 안양시 동안구 비산동 1017-7번지","indutype":"레져용품 - 스포츠·레져용품","category":"other"},{"name":"사단법인동국선원","tel":"031-382-6737","addr":"경기도 안양시 동안구 비산동 1017-7번지","indutype":"기타 - 비영리/대상","category":"other"},{"name":"이브이샵안양지점","tel":"031-341-6083","addr":"경기도 안양시 동안구 비산동 1017-7번지","indutype":"레져용품 - 스포츠·레져용품","category":"other"}]},{"lat":"37.392481777","long":"126.94890319","imageIndex":17,"items":[{"name":"SK건설","tel":"","addr":"경기도 안양시 동안구 비산동 1103-5번지 은하수한양아파트","indutype":"용역 서비스 - 기타용역서비스","category":"other"},{"name":"하수구365","tel":"070-7436-8700","addr":"경기도 안양시 동안구 비산동 1103-5번지 은하수한양아파트","indutype":"용역 서비스 - 기타용역서비스","category":"other"}]},{"lat":"37.40211171","long":"126.94498854","imageIndex":17,"items":[{"name":"S통신","tel":"02-587-6111","addr":"경기도 안양시 동안구 비산동 354-10번지 뉴타운삼호아파트","indutype":"사무통신 - 통신기기","category":"other"}]},{"lat":"37.399363386","long":"126.94448244","imageIndex":17,"items":[{"name":"young's뷰티","tel":"070-8727-5595","addr":"경기도 안양시 동안구 비산동 379-3번지 동양월드타워","indutype":"회원제형태 - 기타4","category":"other"},{"name":"가죽아저씨 안양점","tel":"031-242-2698","addr":"경기도 안양시 동안구 비산동 379-3번지 동양월드타워","indutype":"수리서비스 - 신변잡화수리","category":"other"},{"name":"꼬시베네","tel":"031-341-2245","addr":"경기도 안양시 동안구 비산동 379-3번지 동양월드타워","indutype":"가구 - 일반가구","category":"other"},{"name":"다나에프엔씨","tel":"031-381-3385","addr":"경기도 안양시 동안구 비산동","indutype":"가구 - 일반가구","category":"other"},{"name":"덴앤택","tel":"","addr":"경기도 안양시 동안구 비산동 379-3번지 동양월드타워","indutype":"사무통신 - 컴퓨터","category":"other"},{"name":"비엔비 (BNP)","tel":"","addr":"경기도 안양시 동안구 비산동 379-3번지 동양월드타워","indutype":"레져용품 - 스포츠·레져용품","category":"other"},{"name":"천연향기공방","tel":"031-395-2033","addr":"경기도 안양시 동안구 비산동 379-3번지 동양월드타워","indutype":"문화.취미 - 문화취미기타","category":"other"},{"name":"하우스인테리어","tel":"031-384-0434","addr":"경기도 안양시 동안구 비산동 379-3번지 동양월드타워","indutype":"건축자재 - 인테리어전문","category":"other"},{"name":"한국영상","tel":"031-476-2504","addr":"경기도 안양시 동안구 비산동 379-3번지 동양월드타워","indutype":"광학제품 - 사진관","category":"other"}]},{"lat":"37.396446217","long":"126.94890035","imageIndex":17,"items":[{"name":"가람","tel":"031-424-0320","addr":"경기도 안양시 동안구 비산동","indutype":"의류 - 기타의류","category":"other"},{"name":"대성철물보수","tel":"031-386-9653","addr":"경기도 안양시 동안구 비산동","indutype":"기타 - 기타 전문점","category":"other"},{"name":"블럭팡 평촌점","tel":"070-4103-7007","addr":"경기도 안양시 동안구 비산동 1101-2번지","indutype":"서적문구 - 완구점","category":"other"},{"name":"세종공인중개사사무소","tel":"031-383-9696","addr":"경기도 안양시 동안구 비산동","indutype":"용역 서비스 - 부동산 중개·임대","category":"other"},{"name":"스윔닥터 한양","tel":"031-385-2500","addr":"경기도 안양시 동안구 비산동 1101-2번지","indutype":"의류 - 스포츠의류","category":"other"},{"name":"엘지(LG)토탈홈크리닝","tel":"031-384-1236","addr":"경기도 안양시 동안구 비산동","indutype":"용역 서비스 - 기타용역서비스","category":"other"},{"name":"엠제이 엔터테인먼트","tel":"00-1566-1938","addr":"경기도 안양시 동안구 비산동 1101-2번지","indutype":"문화.취미 - 티켓","category":"other"},{"name":"카이블럭엔로봇","tel":"070-7878-6208","addr":"경기도 안양시 동안구 비산동 1101-2번지 샛별한양아파트","indutype":"서적문구 - 완구점","category":"other"},{"name":"크린토피아 한양스포츠센터점","tel":"031-386-4747","addr":"경기도 안양시 동안구 비산동 1101-2번지","indutype":"수리서비스 - 세탁소","category":"other"}]},{"lat":"37.410079532","long":"126.95128516","imageIndex":17,"items":[{"name":"가위바위보","tel":"031-381-3311","addr":"경기도 안양시 동안구 비산동 162-3번지","indutype":"문화.취미 - 문화취미기타","category":"other"}]},{"lat":"37.406917476","long":"126.95239422","imageIndex":17,"items":[{"name":"가치디자인","tel":"","addr":"경기도 안양시 동안구 비산동 1028-20번지 성원아파트","indutype":"용역 서비스 - 소프트웨어","category":"other"},{"name":"풍선천사","tel":"000-000-0000","addr":"경기도 안양시 동안구 비산동 1028-20번지 성원아파트","indutype":"신변잡화 - 기타잡화","category":"other"}]},{"lat":"37.394856062","long":"126.9400365","imageIndex":17,"items":[{"name":"강남도료","tel":"070-7007-5050","addr":"경기도 안양시 동안구 비산동 576번지","indutype":"건축자재 - 페인트","category":"other"},{"name":"강산낚시","tel":"031-441-6464","addr":"경기도 안양시 동안구 비산동 576번지","indutype":"레져용품 - 스포츠·레져용품","category":"other"}]},{"lat":"37.394982939","long":"126.94143672","imageIndex":17,"items":[{"name":"거성카피","tel":"031-383-3957","addr":"경기도 안양시 동안구 비산동 1102번지 관악아파트","indutype":"용역 서비스 - 사무서비스","category":"other"},{"name":"케이디알파테크","tel":"031-388-8616","addr":"경기도 안양시 동안구 비산동 1102번지 관악아파트","indutype":"수리서비스 - 가정용품수리","category":"other"}]},{"lat":"37.40291264","long":"126.94304532","imageIndex":17,"items":[{"name":"경기상사","tel":"031-385-4443","addr":"경기도 안양시 동안구 비산동 337-28번지 삼호그린빌","indutype":"회원제형태 - 기타4","category":"other"},{"name":"로얀악기","tel":"02-766-5572","addr":"경기도 안양시 동안구 비산동 337-28번지 삼호그린빌","indutype":"회원제형태 - 기타4","category":"other"}]},{"lat":"37.402996971","long":"126.93256423","imageIndex":17,"items":[{"name":"경기외벽방수","tel":"031-1688-2122","addr":"경기도 안양시 동안구 비산동 519-2번지","indutype":"용역 서비스 - 기타용역서비스","category":"other"}]},{"lat":"37.400606883","long":"126.94469605","imageIndex":17,"items":[{"name":"경원","tel":"","addr":"경기도 안양시 동안구 비산동 378-3번지","indutype":"건축자재 - 인테리어전문","category":"other"}]},{"lat":"37.394722606","long":"126.94331157","imageIndex":17,"items":[{"name":"경원아트플라워","tel":"031-387-2222","addr":"경기도 안양시 동안구 비산동 1102번지 관악아파트","indutype":"문화.취미 - 화원","category":"other"},{"name":"관악타운공인중개사","tel":"031-476-5678","addr":"경기도 안양시 동안구 비산동","indutype":"용역 서비스 - 부동산 중개·임대","category":"other"},{"name":"랜드 공인중개사사무소","tel":"031-388-5353","addr":"경기도 안양시 동안구 비산동","indutype":"용역 서비스 - 부동산 중개·임대","category":"other"},{"name":"어썸독 (AWESOME DOG)","tel":"031-465-4453","addr":"경기도 안양시 동안구 비산동 1102번지","indutype":"문화.취미 - 애완동물","category":"other"},{"name":"우리부동산중개","tel":"031-876-1122","addr":"경기도 안양시 동안구 비산동","indutype":"용역 서비스 - 부동산 중개·임대","category":"other"},{"name":"윤인테리어","tel":"031-386-7104","addr":"경기도 안양시 동안구 비산동","indutype":"건축자재 - 기타건축자재","category":"other"},{"name":"현준장식","tel":"031-388-5334","addr":"경기도 안양시 동안구 비산동","indutype":"직물 - 카페트,커튼,천막,지물","category":"other"}]},{"lat":"37.396915796","long":"126.95126031","imageIndex":17,"items":[{"name":"고아라피부관리실","tel":"031-388-6778","addr":"경기도 안양시 동안구 비산동","indutype":"회원제형태 - 기타4","category":"other"},{"name":"명품수선","tel":"031-381-2229","addr":"경기도 안양시 동안구 비산동 1101-8번지","indutype":"수리서비스 - 세탁소","category":"other"},{"name":"젠 인테리어","tel":"031-382-1882","addr":"경기도 안양시 동안구 비산동 1101-8번지","indutype":"건축자재 - 인테리어전문","category":"other"}]},{"lat":"37.399501589","long":"126.9334597","imageIndex":17,"items":[{"name":"골든옷수선","tel":"031-465-2772","addr":"경기도 안양시 동안구 비산동","indutype":"수리서비스 - 세탁소","category":"other"}]},{"lat":"37.392417879","long":"126.94711901","imageIndex":17,"items":[{"name":"공간창조","tel":"031-458-6000","addr":"경기도 안양시 동안구 비산동 1103번지","indutype":"주방용구 - 주방용구","category":"other"},{"name":"에제르","tel":"","addr":"경기도 안양시 동안구 비산동 1103번지","indutype":"문화.취미 - 문화취미기타","category":"other"},{"name":"윤스토리","tel":"031-444-6781","addr":"경기도 안양시 동안구 비산동 1103번지","indutype":"의류 - 정장","category":"other"},{"name":"큐어베스(CUREBATH)","tel":"070-8805-0704","addr":"경기도 안양시 동안구 비산동 1103번지","indutype":"신변잡화 - 기타잡화","category":"other"}]},{"lat":"37.397024999","long":"126.93550607","imageIndex":17,"items":[{"name":"공주의류점","tel":"031-69-2300","addr":"경기도 안양시 동안구 비산동 566-1번지","indutype":"의류 - 정장","category":"other"},{"name":"공주의류점","tel":"031-441-2485","addr":"경기도 안양시 동안구 비산동 566-1번지","indutype":"의류 - 정장","category":"other"},{"name":"한지공예","tel":"031-466-6980","addr":"경기도 안양시 동안구 비산동 566-1번지","indutype":"문화.취미 - 민예·공예품","category":"other"}]},{"lat":"37.39288388","long":"126.94200307","imageIndex":17,"items":[{"name":"과천유리","tel":"031-426-6282","addr":"경기도 안양시 동안구 비산동 580-14번지","indutype":"건축자재 - 유리","category":"other"},{"name":"캠핑박사","tel":"","addr":"경기도 안양시 동안구 비산동 580-14번지","indutype":"레져용품 - 스포츠·레져용품","category":"other"}]},{"lat":"37.396417492","long":"126.94530913","imageIndex":17,"items":[{"name":"관악부영세탁소","tel":"031-384-0808","addr":"경기도 안양시 동안구 비산동 1102-4번지","indutype":"수리서비스 - 세탁소","category":"other"},{"name":"마네자르마켓","tel":"","addr":"경기도 안양시 동안구 비산동 1102-4번지","indutype":"문화.취미 - 문화취미기타","category":"other"},{"name":"별 인테리어","tel":"031-388-0433","addr":"경기도 안양시 동안구 비산동 1102-4번지","indutype":"건축자재 - 인테리어전문","category":"other"},{"name":"즐겨찾기 컴퓨터","tel":"031-386-7119","addr":"경기도 안양시 동안구 비산동 1102-4번지","indutype":"사무통신 - 컴퓨터","category":"other"}]},{"lat":"37.39646722","long":"126.93700857","imageIndex":17,"items":[{"name":"교육정보","tel":"031-449-0021","addr":"경기도 안양시 동안구 비산동 466-4번지","indutype":"서적문구 - 전문서적","category":"other"},{"name":"교육정보","tel":"031-449-0021","addr":"경기도 안양시 동안구 비산동","indutype":"서적문구 - 전문서적","category":"other"}]},{"lat":"37.402303835","long":"126.9512792","imageIndex":17,"items":[{"name":"구두잘고치는집(신발마을)","tel":"031-387-3010","addr":"경기도 안양시 동안구 비산동 1034-10번지","indutype":"수리서비스 - 신변잡화수리","category":"other"}]},{"lat":"37.405826121","long":"126.932539","imageIndex":17,"items":[{"name":"군인몰","tel":"031-466-6724","addr":"경기도 안양시 동안구 비산동 1155번지","indutype":"신변잡화 - 기념품점","category":"other"},{"name":"그린빌세탁소","tel":"031-444-2111","addr":"경기도 안양시 동안구 비산동 1155번지","indutype":"수리서비스 - 세탁소","category":"other"},{"name":"아이디라인","tel":"031-465-9300","addr":"경기도 안양시 동안구 비산동 1155번지","indutype":"건축자재 - 인테리어전문","category":"other"},{"name":"이광혜의비누야놀자","tel":"031-465-6404","addr":"경기도 안양시 동안구 비산동 1155번지","indutype":"문화.취미 - 문화취미기타","category":"other"}]},{"lat":"37.394533371","long":"126.94326655","imageIndex":17,"items":[{"name":"굿데이플라워","tel":"031-360-2713","addr":"경기도 안양시 동안구 비산동 1102번지 관악아파트","indutype":"문화.취미 - 화원","category":"other"}]},{"lat":"37.404132662","long":"126.950781","imageIndex":17,"items":[{"name":"그린스토리","tel":"","addr":"경기도 안양시 동안구 비산동 1038-1번지","indutype":"서적문구 - 완구점","category":"other"}]},{"lat":"37.406771151","long":"126.94756016","imageIndex":17,"items":[{"name":"그린홈쇼핑","tel":"031-385-4182","addr":"경기도 안양시 동안구 비산동 1021-10번지","indutype":"기타 - 기타 전문점","category":"other"}]},{"lat":"37.398333865","long":"126.93986419","imageIndex":17,"items":[{"name":"글로벌 통신","tel":"031-385-0888","addr":"경기도 안양시 동안구 비산동 408번지 비산롯데캐슬","indutype":"사무통신 - 통신기기","category":"other"},{"name":"글로벌시스템","tel":"031-385-0881","addr":"경기도 안양시 동안구 비산동 408번지 비산롯데캐슬","indutype":"사무통신 - 통신기기","category":"other"},{"name":"한강인테리어","tel":"031-386-3688","addr":"경기도 안양시 동안구 비산동 408번지 비산롯데캐슬","indutype":"직물 - 카페트,커튼,천막,지물","category":"other"}]},{"lat":"37.406781749","long":"126.93348686","imageIndex":17,"items":[{"name":"금강보링","tel":"031-446-3222","addr":"경기도 안양시 동안구 비산동","indutype":"회원제형태 - 기타4","category":"other"}]},{"lat":"37.406025001","long":"126.95128795","imageIndex":17,"items":[{"name":"금파(    )","tel":"031-384-7285","addr":"경기도 안양시 동안구 비산동 1044-8번지","indutype":"기타 - 기계공구","category":"other"}]},{"lat":"37.400553698","long":"126.94650311","imageIndex":17,"items":[{"name":"김동우 짐(K.D.W Gym)","tel":"031-387-9717","addr":"경기도 안양시 동안구 비산동 360-8번지","indutype":"회원제형태 - 레져업소","category":"other"},{"name":"제니(jenny)","tel":"031-384-5606","addr":"경기도 안양시 동안구 비산동 360-8번지","indutype":"신변잡화 - 기타잡화","category":"other"},{"name":"카리스","tel":"","addr":"경기도 안양시 동안구 비산동 360-8번지","indutype":"의류 - 정장","category":"other"}]},{"lat":"37.398050992","long":"126.93350621","imageIndex":17,"items":[{"name":"김용운현악기","tel":"031-447-5683","addr":"경기도 안양시 동안구 비산동 571번지","indutype":"레져용품 - 악기점","category":"other"},{"name":"대한분묘개발공사","tel":"031-469-1357","addr":"경기도 안양시 동안구 비산동 571번지","indutype":"용역 서비스 - 가례서비스업","category":"other"},{"name":"사랑의운동본부","tel":"031-442-6657","addr":"경기도 안양시 동안구 비산동 571번지","indutype":"기타 - 비영리/대상","category":"other"},{"name":"산과자연여행사 (안양지점)","tel":"031-471-1989","addr":"경기도 안양시 동안구 비산동 571번지","indutype":"여행 - 관광여행","category":"other"},{"name":"수도미싱상사","tel":"031-45-0564","addr":"경기도 안양시 동안구 비산동 571번지","indutype":"기타 - 기계공구","category":"other"},{"name":"신한목공","tel":"031-469-0465","addr":"경기도 안양시 동안구 비산동 571번지","indutype":"주방용구 - 주방용구","category":"other"},{"name":"옷방","tel":"031-429-7567","addr":"경기도 안양시 동안구 비산동 571번지","indutype":"의류 - 기타의류","category":"other"},{"name":"조인에스","tel":"031-446-9720","addr":"경기도 안양시 동안구 비산동 571번지","indutype":"신변잡화 - 기타잡화","category":"other"},{"name":"주식회사 모두여행사","tel":"031-444-5088","addr":"경기도 안양시 동안구 비산동 571번지","indutype":"여행 - 관광여행","category":"other"}]},{"lat":"37.398389796","long":"126.94347807","imageIndex":17,"items":[{"name":"꼭두 (KOKDU)","tel":"070-7783-9919","addr":"경기도 안양시 동안구 비산동 406번지 미륭아파트","indutype":"신변잡화 - 액세서리","category":"other"}]},{"lat":"37.397195887","long":"126.93497513","imageIndex":17,"items":[{"name":"꿈에그린 인테리어","tel":"031-466-1680","addr":"경기도 안양시 동안구 비산동 570-8번지 대명맨션","indutype":"건축자재 - 인테리어전문","category":"other"},{"name":"로봇메이트","tel":"031-385-4236","addr":"경기도 안양시 동안구 비산동 570-8번지 대명맨션","indutype":"서적문구 - 과학기자재","category":"other"}]},{"lat":"37.405165026","long":"126.94278375","imageIndex":17,"items":[{"name":"나래설비","tel":"031-382-5207","addr":"경기도 안양시 동안구 비산동 305-82번지","indutype":"용역 서비스 - 기타용역서비스","category":"other"}]},{"lat":"37.398248955","long":"126.95050273","imageIndex":17,"items":[{"name":"나무와마중물","tel":"031-384-9378","addr":"경기도 안양시 동안구 비산동 1101-6번지","indutype":"서적문구 - 문구용품","category":"other"},{"name":"대종문화사","tel":"02-2277-8802","addr":"경기도 안양시 동안구 비산동 1101-6번지","indutype":"서적문구 - 출판 및 인쇄물","category":"other"},{"name":"바른디자인","tel":"031-384-5030","addr":"경기도 안양시 동안구 비산동 1101-6번지","indutype":"건축자재 - 인테리어전문","category":"other"},{"name":"서로연","tel":"","addr":"경기도 안양시 동안구 비산동 1101-6번지","indutype":"회원제형태 - 기타4","category":"other"},{"name":"케어존","tel":"","addr":"경기도 안양시 동안구 비산동 1101-6번지","indutype":"용역 서비스 - 종합용역","category":"other"},{"name":"케이피엠","tel":"031-387-7888","addr":"경기도 안양시 동안구 비산동","indutype":"용역 서비스 - 종합용역","category":"other"}]},{"lat":"37.394307619","long":"126.94228424","imageIndex":17,"items":[{"name":"나연","tel":"031-381-6212","addr":"경기도 안양시 동안구 비산동 1102번지","indutype":"의류 - 정장","category":"other"}]},{"lat":"37.400078001","long":"126.93306388","imageIndex":17,"items":[{"name":"남운부동산","tel":"031-441-0122","addr":"경기도 안양시 동안구 비산동","indutype":"용역 서비스 - 부동산 중개·임대","category":"other"}]},{"lat":"37.406717312","long":"126.94803458","imageIndex":17,"items":[{"name":"노비타 경기 서부대리점","tel":"031-386-2999","addr":"경기도 안양시 동안구 비산동 1020-9번지","indutype":"전기제품 - 기타전기제품","category":"other"}]},{"lat":"37.399208029","long":"126.94021356","imageIndex":17,"items":[{"name":"노스베이","tel":"031-452-5011","addr":"경기도 안양시 동안구 비산동","indutype":"회원제형태 - 기타4","category":"other"}]},{"lat":"37.395723716","long":"126.94530966","imageIndex":17,"items":[{"name":"뉴로네이드1국","tel":"031-386-8763","addr":"경기도 안양시 동안구 비산동 1102-4번지 관악부영아파트","indutype":"회원제형태 - 기타1","category":"other"}]},{"lat":"37.400896338","long":"126.94704496","imageIndex":17,"items":[{"name":"다래공인중개사사무소","tel":"031-385-8989","addr":"경기도 안양시 동안구 비산동","indutype":"용역 서비스 - 부동산 중개·임대","category":"other"},{"name":"백성세탁","tel":"031-385-4619","addr":"경기도 안양시 동안구 비산동","indutype":"수리서비스 - 세탁소","category":"other"}]},{"lat":"37.408195935","long":"126.95016825","imageIndex":17,"items":[{"name":"다해죠","tel":"02-1577-0000","addr":"경기도 안양시 동안구 비산동 1017-21번지","indutype":"용역 서비스 - 종합용역","category":"other"}]},{"lat":"37.401271139","long":"126.93983914","imageIndex":17,"items":[{"name":"단오의 정원(Dano's garden)","tel":"","addr":"경기도 안양시 동안구 비산동 425번지 비산삼성래미안","indutype":"문화.취미 - 화원","category":"other"}]},{"lat":"37.405006096","long":"126.93235905","imageIndex":17,"items":[{"name":"달콤하루","tel":"","addr":"경기도 안양시 동안구 비산동 1155번지","indutype":"문화.취미 - 문화취미기타","category":"other"}]},{"lat":"37.403771903","long":"126.94997935","imageIndex":17,"items":[{"name":"담아서 (DAMASEO)","tel":"031-425-2018","addr":"경기도 안양시 동안구 비산동 1032-3번지 대흥빌라드","indutype":"문화.취미 - 문화취미기타","category":"other"},{"name":"아람종합장식","tel":"031-388-4244","addr":"경기도 안양시 동안구 비산동 1032-3번지 대흥빌라드","indutype":"직물 - 카페트,커튼,천막,지물","category":"other"},{"name":"케이엘스포츠산업","tel":"031-381-9777","addr":"경기도 안양시 동안구 비산동 1032-3번지 대흥빌라드","indutype":"레져용품 - 스포츠·레져용품","category":"other"}]},{"lat":"37.400163778","long":"126.94151155","imageIndex":17,"items":[{"name":"대광특수벨트","tel":"031-464-4817","addr":"경기도 안양시 동안구 비산동 1165번지 비산이-편한세상","indutype":"회원제형태 - 기타4","category":"other"}]},{"lat":"37.40183392","long":"126.93131168","imageIndex":17,"items":[{"name":"대길문구","tel":"031-441-3162","addr":"경기도 안양시 동안구 비산동 1162번지","indutype":"서적문구 - 문구용품","category":"other"},{"name":"동심에듀","tel":"031-388-0071","addr":"경기도 안양시 동안구 비산동 1162번지 임곡휴먼시아아파트","indutype":"서적문구 - 일반서적","category":"other"},{"name":"사과나무공인중개사사무소","tel":"031-445-3338","addr":"경기도 안양시 동안구 비산동 1162번지","indutype":"용역 서비스 - 부동산 중개·임대","category":"other"}]},{"lat":"37.399029387","long":"126.9432291","imageIndex":17,"items":[{"name":"대림e편한부동산공인중개사사무소","tel":"031-388-9995","addr":"경기도 안양시 동안구 비산동 421-87번지","indutype":"용역 서비스 - 부동산 중개·임대","category":"other"},{"name":"이레","tel":"070-8834-2646","addr":"경기도 안양시 동안구 비산동 421-87번지","indutype":"사무통신 - 기타 사무용품","category":"other"},{"name":"조민호의 사진여행","tel":"031-388-4779","addr":"경기도 안양시 동안구 비산동 421-87번지","indutype":"광학제품 - 사진관","category":"other"},{"name":"한국조명전기","tel":"031-422-8934","addr":"경기도 안양시 동안구 비산동 421-87번지","indutype":"건축자재 - 조명기구","category":"other"}]},{"lat":"37.399830906","long":"126.94248308","imageIndex":17,"items":[{"name":"대림광고","tel":"031-382-8959","addr":"경기도 안양시 동안구 비산동 1165번지 비산이-편한세상","indutype":"서적문구 - 출판 및 인쇄물","category":"other"},{"name":"미스킨케어","tel":"031-388-8815","addr":"경기도 안양시 동안구 비산동 1165번지 비산이-편한세상","indutype":"회원제형태 - 기타4","category":"other"},{"name":"삼성방문간호센터","tel":"031-382-8119","addr":"경기도 안양시 동안구 비산동 1165번지","indutype":"기타의료기관 - 기타의료기관 및 기타","category":"other"},{"name":"예원플라워","tel":"031-385-2032","addr":"경기도 안양시 동안구 비산동 1165번지","indutype":"문화.취미 - 화원","category":"other"},{"name":"오토사이트","tel":"031-341-8677","addr":"경기도 안양시 동안구 비산동 1165번지","indutype":"레져용품 - 스포츠·레져용품","category":"other"},{"name":"이-편한 컨설팅","tel":"031-388-1919","addr":"경기도 안양시 동안구 비산동 1165번지","indutype":"용역 서비스 - 사무서비스","category":"other"}]},{"lat":"37.403581247","long":"126.93028224","imageIndex":17,"items":[{"name":"대림대학구내서점","tel":"031-446-0224","addr":"경기도 안양시 동안구 비산동 526-7번지","indutype":"서적문구 - 일반서적","category":"other"}]},{"lat":"37.397087394","long":"126.93433151","imageIndex":17,"items":[{"name":"대명공조","tel":"031-465-7810","addr":"경기도 안양시 동안구 비산동 572번지 비산한화꿈에그린아파트","indutype":"용역 서비스 - 기타용역서비스","category":"other"}]},{"lat":"37.397717699","long":"126.93364204","imageIndex":17,"items":[{"name":"대명기획","tel":"031-533-2117","addr":"경기도 안양시 동안구 비산동 571-28번지","indutype":"용역 서비스 - 종합용역","category":"other"},{"name":"샘갤러리","tel":"031-383-8855","addr":"경기도 안양시 동안구 비산동 571-28번지","indutype":"문화.취미 - 화랑","category":"other"}]},{"lat":"37.399967322","long":"126.94501277","imageIndex":17,"items":[{"name":"대선금속공업","tel":"031-385-5843","addr":"경기도 안양시 동안구 비산동 377-6번지","indutype":"건축자재 - 보일러·펌프·샷시","category":"other"},{"name":"로렌 미즈","tel":"031-388-5479","addr":"경기도 안양시 동안구 비산동 377-6번지","indutype":"의류 - 정장","category":"other"}]},{"lat":"37.393856193","long":"126.94051163","imageIndex":17,"items":[{"name":"대성네트워크","tel":"031-386-1130","addr":"경기도 안양시 동안구 비산동 576-7번지 비산힐스테이트아파트","indutype":"사무통신 - 통신기기","category":"other"},{"name":"대성시스템","tel":"031-452-5760","addr":"경기도 안양시 동안구 비산동 576-7번지 비산힐스테이트아파트","indutype":"사무통신 - 통신기기","category":"other"},{"name":"수정인테리어","tel":"031-3448-0611","addr":"경기도 안양시 동안구 비산동 576-7번지 비산힐스테이트아파트","indutype":"건축자재 - 인테리어전문","category":"other"}]},{"lat":"37.402330367","long":"126.95014977","imageIndex":17,"items":[{"name":"덕일이앤티(주)","tel":"070-7508-8000","addr":"경기도 안양시 동안구 비산동 1033-8번지","indutype":"사무통신 - 통신기기","category":"other"}]},{"lat":"37.393446738","long":"126.95086744","imageIndex":17,"items":[{"name":"데코플라워","tel":"031-476-9779","addr":"경기도 안양시 동안구 비산동","indutype":"문화.취미 - 화원","category":"other"}]},{"lat":"37.405276636","long":"126.95009124","imageIndex":17,"items":[{"name":"돌스포츠","tel":"031-386-8654","addr":"경기도 안양시 동안구 비산동 1030-6번지","indutype":"레져용품 - 스포츠·레져용품","category":"other"},{"name":"신진철물건재","tel":"031-388-5194","addr":"경기도 안양시 동안구 비산동 1030-6번지","indutype":"건축자재 - 기타건축자재","category":"other"},{"name":"언더피아","tel":"031-385-7931","addr":"경기도 안양시 동안구 비산동 1030-6번지","indutype":"의류 - 기타의류","category":"other"}]},{"lat":"37.400355492","long":"126.94653714","imageIndex":17,"items":[{"name":"동아장식","tel":"031-86-8921","addr":"경기도 안양시 동안구 비산동 360-17번지","indutype":"직물 - 카페트,커튼,천막,지물","category":"other"},{"name":"한양공인중개사","tel":"031-387-6000","addr":"경기도 안양시 동안구 비산동 360-17번지","indutype":"용역 서비스 - 부동산 중개·임대","category":"other"}]},{"lat":"37.395220266","long":"126.9476477","imageIndex":17,"items":[{"name":"동안스킨케어","tel":"031-386-6300","addr":"경기도 안양시 동안구 비산동 1102-9번지","indutype":"회원제형태 - 기타4","category":"other"},{"name":"샛별전자","tel":"031-381-3292","addr":"경기도 안양시 동안구 비산동","indutype":"수리서비스 - 가정용품수리","category":"other"},{"name":"테라스크린","tel":"031-384-2280","addr":"경기도 안양시 동안구 비산동 1102-9번지 관악주공아파트","indutype":"수리서비스 - 세탁소","category":"other"},{"name":"한솔인테리어","tel":"031-384-3847","addr":"경기도 안양시 동안구 비산동 1102-9번지","indutype":"건축자재 - 인테리어전문","category":"other"}]},{"lat":"37.407303816","long":"126.9498978","imageIndex":17,"items":[{"name":"둥근작업실","tel":"031-346-9463","addr":"경기도 안양시 동안구 비산동 1018-3번지","indutype":"가구 - 일반가구","category":"other"}]},{"lat":"37.40020636","long":"126.93692624","imageIndex":17,"items":[{"name":"등산복아울렛","tel":"032-667-4563","addr":"경기도 안양시 동안구 비산동 455번지 비산삼성래미안","indutype":"의류 - 스포츠의류","category":"other"}]},{"lat":"37.398473758","long":"126.9323087","imageIndex":17,"items":[{"name":"디에스시스템","tel":"","addr":"경기도 안양시 동안구 비산동 557-3번지 블루오션","indutype":"사무통신 - 컴퓨터","category":"other"},{"name":"비비드링","tel":"070-8822-9515","addr":"경기도 안양시 동안구 비산동 557-3번지 블루오션","indutype":"신변잡화 - 액세서리","category":"other"}]},{"lat":"37.394345018","long":"126.94499451","imageIndex":17,"items":[{"name":"디자인 다함","tel":"031-342-4611","addr":"경기도 안양시 동안구 비산동 1102번지 관악아파트","indutype":"서적문구 - 출판 및 인쇄물","category":"other"}]},{"lat":"37.40041339","long":"126.93656465","imageIndex":17,"items":[{"name":"디자인Zip","tel":"031-443-6888","addr":"경기도 안양시 동안구 비산동 455번지 비산삼성래미안","indutype":"건축자재 - 인테리어전문","category":"other"}]},{"lat":"37.398362555","long":"126.94306023","imageIndex":17,"items":[{"name":"디자인그리다","tel":"031-381-2242","addr":"경기도 안양시 동안구 비산동 406번지 미륭아파트","indutype":"건축자재 - 인테리어전문","category":"other"},{"name":"삼천리동안양대리점","tel":"031-385-3002","addr":"경기도 안양시 동안구 비산동 406번지","indutype":"레져용품 - 스포츠·레져용품","category":"other"},{"name":"신우상사","tel":"031-384-0922","addr":"경기도 안양시 동안구 비산동 406번지 미륭아파트","indutype":"회원제형태 - 기타3","category":"other"}]},{"lat":"37.396828481","long":"126.93856672","imageIndex":17,"items":[{"name":"디자인웍스","tel":"031-349-9600","addr":"경기도 안양시 동안구 비산동 422-13번지","indutype":"용역 서비스 - 종합용역","category":"other"},{"name":"보람건설","tel":"031-385-4191","addr":"경기도 안양시 동안구 비산동 422-13번지","indutype":"건축자재 - 인테리어전문","category":"other"}]},{"lat":"37.405746002","long":"126.95201099","imageIndex":17,"items":[{"name":"라온디자인","tel":"031-386-6432","addr":"경기도 안양시 동안구 비산동 1045번지","indutype":"건축자재 - 인테리어전문","category":"other"}]},{"lat":"37.392168224","long":"126.95300262","imageIndex":17,"items":[{"name":"레누스주식회사(LENUS)","tel":"031-384-2295","addr":"경기도 안양시 동안구 비산동 1114번지","indutype":"전기제품 - 가전제품","category":"other"},{"name":"엘스랜드","tel":"031-476-0379","addr":"경기도 안양시 동안구 비산동 1114번지","indutype":"서적문구 - 문구용품","category":"other"}]},{"lat":"37.404029809","long":"126.94288631","imageIndex":17,"items":[{"name":"레드박스","tel":"070-4649-1101","addr":"경기도 안양시 동안구 비산동 325번지 동화빌라","indutype":"유통업 영리 - 기타유통업","category":"other"}]},{"lat":"37.394522808","long":"126.94026263","imageIndex":17,"items":[{"name":"로얄제시카 산후조리원","tel":"031-448-0083","addr":"경기도 안양시 동안구 비산동 576-8번지","indutype":"기타의료기관 - 산후조리원","category":"other"}]},{"lat":"37.394108164","long":"126.93992419","imageIndex":17,"items":[{"name":"루루컴퓨터","tel":"","addr":"경기도 안양시 동안구 비산동 576-7번지 비산힐스테이트아파트","indutype":"사무통신 - 컴퓨터","category":"other"}]},{"lat":"37.394932921","long":"126.94978229","imageIndex":17,"items":[{"name":"루시아","tel":"070-2699-0807","addr":"경기도 안양시 동안구 비산동 1109번지 샛별한양아파트","indutype":"의류 - 내의판매","category":"other"},{"name":"에이치텍","tel":"070-7019-5183","addr":"경기도 안양시 동안구 비산동 1109번지 샛별한양아파트","indutype":"사무통신 - 컴퓨터","category":"other"}]},{"lat":"37.396636645","long":"126.95163318","imageIndex":17,"items":[{"name":"뤼에르캔들","tel":"","addr":"경기도 안양시 동안구 비산동 1101-8번지 샛별한양아파트","indutype":"문화.취미 - 문화취미기타","category":"other"},{"name":"안양콜밴","tel":"","addr":"경기도 안양시 동안구 비산동 1101-8번지 샛별한양아파트","indutype":"여행 - 기타교통수단","category":"other"}]},{"lat":"37.405556229","long":"126.95072354","imageIndex":17,"items":[{"name":"리더스","tel":"032-328-6428","addr":"경기도 안양시 동안구 비산동 1042-14번지 청운빌라","indutype":"의류 - 내의판매","category":"other"}]},{"lat":"37.404664612","long":"126.95159383","imageIndex":17,"items":[{"name":"리더타일도기상사","tel":"031-382-0745","addr":"경기도 안양시 동안구 비산동 1040-7번지 라임하우스","indutype":"건축자재 - 건축용 요업제품","category":"other"}]},{"lat":"37.392388935","long":"126.94320049","imageIndex":17,"items":[{"name":"리드낚시","tel":"031-466-2277","addr":"경기도 안양시 동안구 비산동 580-7번지","indutype":"레져용품 - 스포츠·레져용품","category":"other"}]},{"lat":"37.393217283","long":"126.94205927","imageIndex":17,"items":[{"name":"리빙워터","tel":"031-444-1277","addr":"경기도 안양시 동안구 비산동 580-2번지","indutype":"주방용구 - 정수기","category":"other"},{"name":"신앤미에스테틱","tel":"031-446-5349","addr":"경기도 안양시 동안구 비산동 580-2번지","indutype":"회원제형태 - 기타4","category":"other"},{"name":"안양컴퓨터프린터","tel":"070-7772-4989","addr":"경기도 안양시 동안구 비산동 580-2번지","indutype":"사무통신 - 컴퓨터","category":"other"}]},{"lat":"37.391552459","long":"126.94617108","imageIndex":17,"items":[{"name":"리빙인테리어","tel":"031-387-9886","addr":"경기도 안양시 동안구 비산동","indutype":"건축자재 - 인테리어전문","category":"other"},{"name":"쎈북","tel":"070-8621-6275","addr":"경기도 안양시 동안구 비산동 1104번지","indutype":"서적문구 - 일반서적","category":"other"},{"name":"조앤쥬얼리","tel":"","addr":"경기도 안양시 동안구 비산동 1104번지","indutype":"신변잡화 - 액세서리","category":"other"},{"name":"지니스","tel":"","addr":"경기도 안양시 동안구 비산동 1104번지 은하수청구아파트","indutype":"의류 - 정장","category":"other"},{"name":"화이니스학생복","tel":"031-385-6116","addr":"경기도 안양시 동안구 비산동","indutype":"의류 - 기타의류","category":"other"}]},{"lat":"37.405529298","long":"126.95094945","imageIndex":17,"items":[{"name":"리빙포인트","tel":"031-381-3901","addr":"경기도 안양시 동안구 비산동 1042-9번지 골든클래스","indutype":"주방용구 - 주방용구","category":"other"}]},{"lat":"37.400634414","long":"126.94572377","imageIndex":17,"items":[{"name":"릴리아","tel":"031-375-7361","addr":"경기도 안양시 동안구 비산동 361번지 뉴타운아파트","indutype":"문화.취미 - 문화취미기타","category":"other"}]},{"lat":"37.395760643","long":"126.9471617","imageIndex":17,"items":[{"name":"마이올제인","tel":"02-363-6954","addr":"경기도 안양시 동안구 비산동 1102-7번지 관악성원아파트","indutype":"의류 - 정장","category":"other"}]},{"lat":"37.403943451","long":"126.95078113","imageIndex":17,"items":[{"name":"맘에든다","tel":"031-8029-9080","addr":"경기도 안양시 동안구 비산동 1038-17번지","indutype":"의류 - 아동의류","category":"other"},{"name":"한샘꾸민집","tel":"031-476-9131","addr":"경기도 안양시 동안구 비산동 1038-17번지","indutype":"주방용구 - 주방용구","category":"other"}]},{"lat":"37.398942811","long":"126.93320046","imageIndex":17,"items":[{"name":"명작플레이스","tel":"031-689-5072","addr":"경기도 안양시 동안구 비산동 554-16번지","indutype":"용역 서비스 - 사무서비스","category":"other"},{"name":"에이스침대비산점","tel":"031-446-6255","addr":"경기도 안양시 동안구 비산동 554-16번지","indutype":"가구 - 일반가구","category":"other"}]},{"lat":"37.402222586","long":"126.95091785","imageIndex":17,"items":[{"name":"명품엔틱갤러리","tel":"031-388-2002","addr":"경기도 안양시 동안구 비산동 1034-14번지","indutype":"가구 - 일반가구","category":"other"}]},{"lat":"37.405438827","long":"126.95011371","imageIndex":17,"items":[{"name":"무예나라닷컴","tel":"031-384-6684","addr":"경기도 안양시 동안구 비산동 1030-7번지 에코하임","indutype":"레져용품 - 스포츠·레져용품","category":"other"},{"name":"발리 쥬얼리","tel":"","addr":"경기도 안양시 동안구 비산동 1030-7번지 에코하임","indutype":"의류 - 정장","category":"other"}]},{"lat":"37.39261669","long":"126.94838363","imageIndex":17,"items":[{"name":"문화공동체 히응","tel":"","addr":"경기도 안양시 동안구 비산동 1103-5번지 은하수한양아파트","indutype":"용역 서비스 - 종합용역","category":"other"}]},{"lat":"37.396912074","long":"126.94334372","imageIndex":17,"items":[{"name":"미래정보통신","tel":"031-476-5568","addr":"경기도 안양시 동안구 비산동","indutype":"사무통신 - 통신기기","category":"other"}]},{"lat":"37.402249521","long":"126.95070324","imageIndex":17,"items":[{"name":"미림물산","tel":"031-388-6951","addr":"경기도 안양시 동안구 비산동 1034-15번지","indutype":"직물 - 기타직물","category":"other"},{"name":"선일ENG","tel":"031-386-8841","addr":"경기도 안양시 동안구 비산동 1034-15번지","indutype":"용역 서비스 - 기타용역서비스","category":"other"},{"name":"스튜디오꿈에","tel":"031-386-5666","addr":"경기도 안양시 동안구 비산동 1034-15번지","indutype":"광학제품 - 사진관","category":"other"}]},{"lat":"37.408114662","long":"126.94976169","imageIndex":17,"items":[{"name":"미소크린","tel":"","addr":"경기도 안양시 동안구 비산동 1017-41번지 화남빌라","indutype":"용역 서비스 - 종합용역","category":"other"}]},{"lat":"37.404034382","long":"126.95270111","imageIndex":17,"items":[{"name":"미효","tel":"031-477-2882","addr":"경기도 안양시 동안구 비산동 1049-25번지 상일타운","indutype":"레져용품 - 스포츠·레져용품","category":"other"}]},{"lat":"37.399231406","long":"126.93366323","imageIndex":17,"items":[{"name":"민우공조","tel":"070-4235-6333","addr":"경기도 안양시 동안구 비산동 554-36번지 서안빌라","indutype":"용역 서비스 - 기타용역서비스","category":"other"}]},{"lat":"37.406636919","long":"126.94955943","imageIndex":17,"items":[{"name":"밀알컨설팅부동산중개인사무소","tel":"031-381-3377","addr":"경기도 안양시 동안구 비산동 1018-17번지","indutype":"용역 서비스 - 부동산 중개·임대","category":"other"}]},{"lat":"37.397359325","long":"126.93719977","imageIndex":17,"items":[{"name":"바이네르 평촌아울렛점","tel":"031-386-2091","addr":"경기도 안양시 동안구 비산동 413-14번지","indutype":"레져용품 - 스포츠·레져용품","category":"other"},{"name":"스마트ENG","tel":"031-422-5508","addr":"경기도 안양시 동안구 비산동 413-14번지","indutype":"전기제품 - 가전제품","category":"other"}]},{"lat":"37.405275074","long":"126.94670287","imageIndex":17,"items":[{"name":"바이크매니아","tel":"031-348-1012","addr":"경기도 안양시 동안구 비산동 1023번지","indutype":"레져용품 - 스포츠·레져용품","category":"other"},{"name":"빙상장/안양시시설관리공단","tel":"031-389-5278","addr":"경기도 안양시 동안구 비산동 1023번지","indutype":"용역 서비스 - 종합용역","category":"other"},{"name":"안양시 복싱협회","tel":"031-388-0674","addr":"경기도 안양시 동안구 비산동 1023번지","indutype":"회원제형태 - 레져업소","category":"other"},{"name":"안양시설관리공단/빙상장","tel":"031-389-5278","addr":"경기도 안양시 동안구 비산동 1023번지","indutype":"용역 서비스 - 종합용역","category":"other"},{"name":"안양시시설관리공단","tel":"031-389-5210","addr":"경기도 안양시 동안구 비산동 1023번지","indutype":"기타 - 비영리/대상","category":"other"},{"name":"안양시시설관리공단","tel":"031-389-5371","addr":"경기도 안양시 동안구 비산동 1023번지","indutype":"용역 서비스 - 종합용역","category":"other"},{"name":"안양시시설관리공단","tel":"031-389-5210","addr":"경기도 안양시 동안구 비산동 1023번지","indutype":"기타 - 비영리/대상","category":"other"},{"name":"안양시시설관리공단/롤러경기장","tel":"031-389-5278","addr":"경기도 안양시 동안구 비산동 1023번지","indutype":"문화.취미 - 문화취미기타","category":"other"},{"name":"안양시시설관리공단/빙상장","tel":"031-389-5278","addr":"경기도 안양시 동안구 비산동 1023번지","indutype":"용역 서비스 - 종합용역","category":"other"},{"name":"위너스포츠","tel":"031-381-8060","addr":"경기도 안양시 동안구 비산동 1023번지","indutype":"레져용품 - 스포츠·레져용품","category":"other"}]},{"lat":"37.397439191","long":"126.93503138","imageIndex":17,"items":[{"name":"버디스 스크린골프 아카데미","tel":"031-444-1872","addr":"경기도 안양시 동안구 비산동 570-6번지","indutype":"레져용품 - 골프용품 전문점","category":"other"},{"name":"산동할인프라자","tel":"031-442-3070","addr":"경기도 안양시 동안구 비산동 570-6번지","indutype":"의류 - 정장","category":"other"},{"name":"장수돌침대","tel":"031-441-9664","addr":"경기도 안양시 동안구 비산동 570-6번지","indutype":"가구 - 일반가구","category":"other"}]},{"lat":"37.406466553","long":"126.95142318","imageIndex":17,"items":[{"name":"벅시양복점","tel":"031-383-2278","addr":"경기도 안양시 동안구 비산동 1044-1번지","indutype":"의류 - 정장","category":"other"}]},{"lat":"37.406717375","long":"126.94817012","imageIndex":17,"items":[{"name":"법무사오형호사무소","tel":"031-381-9345","addr":"경기도 안양시 동안구 비산동 1020-8번지","indutype":"용역 서비스 - 법률회계서비스(개인)","category":"other"}]},{"lat":"37.400527416","long":"126.94809556","imageIndex":17,"items":[{"name":"벨리&폴댄스","tel":"031-448-2635","addr":"경기도 안양시 동안구 비산동 1053번지","indutype":"회원제형태 - 레져업소","category":"other"},{"name":"세현인더스트리","tel":"032-881-5663","addr":"경기도 안양시 동안구 비산동 1053번지","indutype":"기타 - 기계공구","category":"other"}]},{"lat":"37.400647898","long":"126.93700491","imageIndex":17,"items":[{"name":"보그(vogue)","tel":"031-449-0683","addr":"경기도 안양시 동안구 비산동 455번지 비산삼성래미안","indutype":"의류 - 기타의류","category":"other"}]},{"lat":"37.398332981","long":"126.93822663","imageIndex":17,"items":[{"name":"보금당","tel":"031-385-3477","addr":"경기도 안양시 동안구 비산동 409번지","indutype":"신변잡화 - 귀금속","category":"other"}]},{"lat":"37.399527971","long":"126.93236418","imageIndex":17,"items":[{"name":"봉쥬르뚜뚜(Bonjour TOUTOU)","tel":"","addr":"경기도 안양시 동안구 비산동 1167번지 대광로제비앙","indutype":"문화.취미 - 애완동물","category":"other"},{"name":"홈앤하우징디밸럽(Home&Housing Develop)","tel":"070-4922-1261","addr":"경기도 안양시 동안구 비산동 1167번지 대광로제비앙","indutype":"건축자재 - 인테리어전문","category":"other"}]},{"lat":"37.39717607","long":"126.94897888","imageIndex":17,"items":[{"name":"부림SH유통","tel":"02-2615-5555","addr":"경기도 안양시 동안구 비산동 1101-2번지 샛별한양아파트","indutype":"회원제형태 - 기타1","category":"other"}]},{"lat":"37.402915931","long":"126.94994607","imageIndex":17,"items":[{"name":"부부사랑 로타리클럽","tel":"031-476-6666","addr":"경기도 안양시 동안구 비산동 1032-14번지","indutype":"기타 - 비영리/비대상","category":"other"},{"name":"아모레카운셀러","tel":"031-382-6930","addr":"경기도 안양시 동안구 비산동 1032-14번지","indutype":"회원제형태 - 기타1","category":"other"},{"name":"안양관악로타리클럽","tel":"031-476-6666","addr":"경기도 안양시 동안구 비산동 1032-14번지","indutype":"기타 - 비영리/대상","category":"other"}]},{"lat":"37.407196039","long":"126.93319282","imageIndex":17,"items":[{"name":"부활메디","tel":"","addr":"경기도 안양시 동안구 비산동 1155번지","indutype":"레져용품 - 스포츠·레져용품","category":"other"}]},{"lat":"37.396403226","long":"126.93537111","imageIndex":17,"items":[{"name":"뷰티","tel":"031-574-2039","addr":"경기도 안양시 동안구 비산동 572번지 비산한화꿈에그린아파트","indutype":"회원제형태 - 기타1","category":"other"}]},{"lat":"37.395348148","long":"126.95150983","imageIndex":17,"items":[{"name":"뷰티밸리","tel":"031-382-3250","addr":"경기도 안양시 동안구 비산동 1109-4번지 샛별한양아파트","indutype":"회원제형태 - 기타1","category":"other"}]},{"lat":"37.399771838","long":"126.9333691","imageIndex":17,"items":[{"name":"비산1동주민자치위원회","tel":"031-389-4600","addr":"경기도 안양시 동안구 비산동","indutype":"문화.취미 - 문화취미기타","category":"other"}]},{"lat":"37.39600012","long":"126.9396177","imageIndex":17,"items":[{"name":"비산2동주민자치위원회","tel":"031-8045-4614","addr":"경기도 안양시 동안구 비산동 422-9번지","indutype":"문화.취미 - 문화취미기타","category":"other"}]},{"lat":"37.400113043","long":"126.93139237","imageIndex":17,"items":[{"name":"비산MTB","tel":"031-443-8253","addr":"경기도 안양시 동안구 비산동 547-18번지","indutype":"레져용품 - 스포츠·레져용품","category":"other"},{"name":"비산자이아이파크 공인중개사사무소","tel":"031-444-8899","addr":"경기도 안양시 동안구 비산동 547-18번지","indutype":"용역 서비스 - 부동산 중개·임대","category":"other"}]},{"lat":"37.403745094","long":"126.95047632","imageIndex":17,"items":[{"name":"비산열쇠","tel":"031-386-4140","addr":"경기도 안양시 동안구 비산동 1032-6번지","indutype":"건축자재 - 목재·석재·철물","category":"other"},{"name":"신화컴퓨터","tel":"031-383-9615","addr":"경기도 안양시 동안구 비산동 1032-6번지","indutype":"수리서비스 - 사무·통신기기수리","category":"other"}]},{"lat":"37.405772486","long":"126.95075727","imageIndex":17,"items":[{"name":"사랑미캘리공방","tel":"","addr":"경기도 안양시 동안구 비산동 1042번지 동호주택","indutype":"문화.취미 - 문화취미기타","category":"other"},{"name":"성원인테리어","tel":"031-387-6683","addr":"경기도 안양시 동안구 비산동 1042번지 동호주택","indutype":"건축자재 - 인테리어전문","category":"other"}]},{"lat":"37.396221796","long":"126.95075259","imageIndex":17,"items":[{"name":"사진포토사진","tel":"031-387-8667","addr":"경기도 안양시 동안구 비산동 1101-9번지","indutype":"광학제품 - 사진관","category":"other"}]},{"lat":"37.407745295","long":"126.94986361","imageIndex":17,"items":[{"name":"산마루","tel":"031-392-2683","addr":"경기도 안양시 동안구 비산동 1017-30번지","indutype":"회원제형태 - 기타4","category":"other"}]},{"lat":"37.404205688","long":"126.95297206","imageIndex":17,"items":[{"name":"삼성정보통신","tel":"070-4223-3795","addr":"경기도 안양시 동안구 비산동 1049번지 교보타운","indutype":"회원제형태 - 기타4","category":"other"}]},{"lat":"37.403744409","long":"126.94895159","imageIndex":17,"items":[{"name":"삼흥기획","tel":"031-384-1516","addr":"경기도 안양시 동안구 비산동 1026-14번지","indutype":"용역 서비스 - 종합용역","category":"other"}]},{"lat":"37.404358402","long":"126.95189899","imageIndex":17,"items":[{"name":"상미피복","tel":"031-446-9935","addr":"경기도 안양시 동안구 비산동 1048-1번지","indutype":"의류 - 기타의류","category":"other"}]},{"lat":"37.398022956","long":"126.94884275","imageIndex":17,"items":[{"name":"샤크존골프월드","tel":"031-381-2323","addr":"경기도 안양시 동안구 비산동 1101-1번지","indutype":"회원제형태 - 레져업소","category":"other"}]},{"lat":"37.406690677","long":"126.948893","imageIndex":17,"items":[{"name":"서강","tel":"","addr":"경기도 안양시 동안구 비산동 1019-29번지","indutype":"신변잡화 - 기타잡화","category":"other"},{"name":"초롱수영복","tel":"031-384-0217","addr":"경기도 안양시 동안구 비산동 1019-29번지","indutype":"의류 - 스포츠의류","category":"other"},{"name":"한양전자","tel":"070-8183-1265","addr":"경기도 안양시 동안구 비산동 1019-29번지","indutype":"건축자재 - 목재·석재·철물","category":"other"}]},{"lat":"37.402272695","long":"126.94259406","imageIndex":17,"items":[{"name":"서비스플라워","tel":"02-1599-1009","addr":"경기도 안양시 동안구 비산동 338번지 삼호그린아파트","indutype":"문화.취미 - 화원","category":"other"}]},{"lat":"37.400499723","long":"126.94668385","imageIndex":17,"items":[{"name":"서울씨아이에스","tel":"031-382-5379","addr":"경기도 안양시 동안구 비산동 360-17번지","indutype":"사무통신 - 컴퓨터","category":"other"},{"name":"오케이포스터(그림과액자)","tel":"031-384-2469","addr":"경기도 안양시 동안구 비산동 360-17번지","indutype":"문화.취미 - 화방·표구점","category":"other"}]},{"lat":"37.403718149","long":"126.95066834","imageIndex":17,"items":[{"name":"서한지물포","tel":"031-383-1032","addr":"경기도 안양시 동안구 비산동 1032-21번지","indutype":"직물 - 카페트,커튼,천막,지물","category":"other"}]},{"lat":"37.40574521","long":"126.95020385","imageIndex":17,"items":[{"name":"석림산업개발주식회사","tel":"031-388-2077","addr":"경기도 안양시 동안구 비산동 1030번지","indutype":"용역 서비스 - 기타용역서비스","category":"other"}]},{"lat":"37.399083011","long":"126.94237075","imageIndex":17,"items":[{"name":"선민정보통신","tel":"031-383-9722","addr":"경기도 안양시 동안구 비산동 405-23번지","indutype":"사무통신 - 통신기기","category":"other"}]},{"lat":"37.396665536","long":"126.93717779","imageIndex":17,"items":[{"name":"선진씨엠세라믹","tel":"031-441-5770","addr":"경기도 안양시 동안구 비산동","indutype":"건축자재 - 건축용 요업제품","category":"other"},{"name":"쿠첸안양서비스","tel":"031-441-0910","addr":"경기도 안양시 동안구 비산동 466-2번지","indutype":"수리서비스 - 가정용품수리","category":"other"}]},{"lat":"37.397303003","long":"126.93324715","imageIndex":17,"items":[{"name":"성심냉열","tel":"","addr":"경기도 안양시 동안구 비산동 571-10번지 동산아파트","indutype":"용역 서비스 - 기타용역서비스","category":"other"}]},{"lat":"37.400219671","long":"126.94514811","imageIndex":17,"items":[{"name":"성진컴테크","tel":"031-465-4119","addr":"경기도 안양시 동안구 비산동 377-20번지","indutype":"사무통신 - 컴퓨터","category":"other"}]},{"lat":"37.404354513","long":"126.94356372","imageIndex":17,"items":[{"name":"성화열쇠전문점","tel":"031-387-1382","addr":"경기도 안양시 동안구 비산동 318-5번지","indutype":"건축자재 - 목재·석재·철물","category":"other"},{"name":"아이리스 피부관리실","tel":"031-344-6233","addr":"경기도 안양시 동안구 비산동 318-5번지","indutype":"회원제형태 - 기타4","category":"other"},{"name":"핑크판다","tel":"","addr":"경기도 안양시 동안구 비산동 318-5번지","indutype":"의류 - 정장","category":"other"}]},{"lat":"37.394515601","long":"126.94376345","imageIndex":17,"items":[{"name":"세뇨하우스","tel":"","addr":"경기도 안양시 동안구 비산동 1102번지 관악아파트","indutype":"용역 서비스 - 종합용역","category":"other"}]},{"lat":"37.39715941","long":"126.95205068","imageIndex":17,"items":[{"name":"세진농산","tel":"031-342-5960","addr":"경기도 안양시 동안구 비산동 1101-8번지 샛별한양아파트","indutype":"회원제형태 - 기타1","category":"other"}]},{"lat":"37.399834595","long":"126.93283823","imageIndex":17,"items":[{"name":"쉐르빌","tel":"031-469-1988","addr":"경기도 안양시 동안구 비산동 554-21번지","indutype":"직물 - 침구·수예점","category":"other"}]},{"lat":"37.402472251","long":"126.94527061","imageIndex":17,"items":[{"name":"스놉&소품딜리버리","tel":"","addr":"경기도 안양시 동안구 비산동 354-10번지 뉴타운삼호아파트","indutype":"가구 - 기타가구","category":"other"},{"name":"영하유통","tel":"031-442-5067","addr":"경기도 안양시 동안구 비산동 354-10번지 뉴타운삼호아파트","indutype":"회원제형태 - 기타1","category":"other"}]},{"lat":"37.40615049","long":"126.93254999","imageIndex":17,"items":[{"name":"스마트스포츠","tel":"031-445-3653","addr":"경기도 안양시 동안구 비산동 1155번지","indutype":"용역 서비스 - 기타용역서비스","category":"other"}]},{"lat":"37.404997399","long":"126.95026085","imageIndex":17,"items":[{"name":"스윔닥터","tel":"031-385-5058","addr":"경기도 안양시 동안구 비산동 1030-4번지","indutype":"유통업 영리 - 통신판매업2","category":"other"}]},{"lat":"37.404772642","long":"126.9337259","imageIndex":17,"items":[{"name":"스카이 에듀","tel":"031-445-3112","addr":"경기도 안양시 동안구 비산동 514번지","indutype":"서적문구 - 기타서적문구","category":"other"},{"name":"이브미스킨케어","tel":"031-441-0070","addr":"경기도 안양시 동안구 비산동 514번지","indutype":"회원제형태 - 기타4","category":"other"}]},{"lat":"37.3961388","long":"126.94659676","imageIndex":17,"items":[{"name":"스타캐스팅","tel":"","addr":"경기도 안양시 동안구 비산동 1102-7번지 관악성원아파트","indutype":"문화.취미 - 티켓","category":"other"}]},{"lat":"37.403799821","long":"126.95200101","imageIndex":17,"items":[{"name":"스튜디오 오와이이(OYE)","tel":"","addr":"경기도 안양시 동안구 비산동 1049-16번지","indutype":"용역 서비스 - 사무서비스","category":"other"}]},{"lat":"37.405326669","long":"126.94173323","imageIndex":17,"items":[{"name":"스튜디오스킹키","tel":"031-348-3943","addr":"경기도 안양시 동안구 비산동 305-25번지 지송하이츠","indutype":"회원제형태 - 기타1","category":"other"}]},{"lat":"37.40691597","long":"126.9489832","imageIndex":17,"items":[{"name":"스포츠스테이션","tel":"031-381-5472","addr":"경기도 안양시 동안구 비산동 1019-14번지","indutype":"의류 - 정장","category":"other"}]},{"lat":"37.405605981","long":"126.941733","imageIndex":17,"items":[{"name":"시베리아 냉동기술","tel":"","addr":"경기도 안양시 동안구 비산동 305-101번지 다상하이츠빌라","indutype":"수리서비스 - 가정용품수리","category":"other"}]},{"lat":"37.395800341","long":"126.936772","imageIndex":17,"items":[{"name":"시티컨설팅","tel":"02-599-4010","addr":"경기도 안양시 동안구 비산동 572번지 비산한화꿈에그린아파트","indutype":"용역 서비스 - 사무서비스","category":"other"}]},{"lat":"37.400193818","long":"126.93087278","imageIndex":17,"items":[{"name":"신비산지업사","tel":"031-441-2190","addr":"경기도 안양시 동안구 비산동 547-14번지","indutype":"직물 - 카페트,커튼,천막,지물","category":"other"}]},{"lat":"37.403970386","long":"126.95056652","imageIndex":17,"items":[{"name":"신성종합공사","tel":"031-383-0400","addr":"경기도 안양시 동안구 비산동 1038-32번지","indutype":"용역 서비스 - 기타용역서비스","category":"other"}]},{"lat":"37.394135785","long":"126.94104217","imageIndex":17,"items":[{"name":"신우전자서비스","tel":"031-443-3212","addr":"경기도 안양시 동안구 비산동 576-7번지 비산힐스테이트아파트","indutype":"회원제형태 - 기타4","category":"other"}]},{"lat":"37.400670866","long":"126.94658208","imageIndex":17,"items":[{"name":"신원산업","tel":"031-386-9976","addr":"경기도 안양시 동안구 비산동 360-8번지","indutype":"주방용구 - 주방용구","category":"other"},{"name":"에덴","tel":"031-382-7093","addr":"경기도 안양시 동안구 비산동 360-8번지","indutype":"의류 - 정장","category":"other"},{"name":"에덴","tel":"031-382-7093","addr":"경기도 안양시 동안구 비산동 360-8번지","indutype":"의류 - 정장","category":"other"}]},{"lat":"37.407535012","long":"126.94344826","imageIndex":17,"items":[{"name":"신클리어","tel":"031-384-9338","addr":"경기도 안양시 동안구 비산동 280-1번지 창신마이빌","indutype":"용역 서비스 - 종합용역","category":"other"}]},{"lat":"37.403493657","long":"126.95241911","imageIndex":17,"items":[{"name":"실버사랑재가주야간보호센터","tel":"031-382-8825","addr":"경기도 안양시 동안구 비산동 1050-10번지","indutype":"기타의료기관 - 기타의료기관 및 기타","category":"other"}]},{"lat":"37.392940007","long":"126.94615874","imageIndex":17,"items":[{"name":"씨투맨","tel":"031-388-7482","addr":"경기도 안양시 동안구 비산동 1103번지 은하수벽산아파트","indutype":"용역 서비스 - 종합용역","category":"other"}]},{"lat":"37.405552246","long":"126.94236554","imageIndex":17,"items":[{"name":"아담스콧","tel":"031-528-0813","addr":"경기도 안양시 동안구 비산동","indutype":"의류 - 기타의류","category":"other"}]},{"lat":"37.403528192","long":"126.94900821","imageIndex":17,"items":[{"name":"아델정보","tel":"031-385-0095","addr":"경기도 안양시 동안구 비산동 1026-13번지","indutype":"사무통신 - 컴퓨터","category":"other"}]},{"lat":"37.393135659","long":"126.94103169","imageIndex":17,"items":[{"name":"아림꽃화원","tel":"02-897-3884","addr":"경기도 안양시 동안구 비산동 576-7번지 비산힐스테이트아파트","indutype":"문화.취미 - 화원","category":"other"}]},{"lat":"37.396919167","long":"126.9396508","imageIndex":17,"items":[{"name":"아모스(AMOS)","tel":"031-388-3893","addr":"경기도 안양시 동안구 비산동","indutype":"직물 - 기타직물","category":"other"}]},{"lat":"37.408168152","long":"126.94850791","imageIndex":17,"items":[{"name":"아이엠스포츠","tel":"031-386-9192","addr":"경기도 안양시 동안구 비산동","indutype":"회원제형태 - 기타4","category":"other"}]},{"lat":"37.397664125","long":"126.9344778","imageIndex":17,"items":[{"name":"아이원국제특허법률사무소","tel":"031-432-7448","addr":"경기도 안양시 동안구 비산동 570-4번지","indutype":"용역 서비스 - 법률회계서비스(개인)","category":"other"},{"name":"주식회사 미미","tel":"031-388-6661","addr":"경기도 안양시 동안구 비산동 570-4번지","indutype":"용역 서비스 - 종합용역","category":"other"}]},{"lat":"37.400929264","long":"126.94079941","imageIndex":17,"items":[{"name":"아쿠아월드","tel":"031-381-1808","addr":"경기도 안양시 동안구 비산동 425번지 비산삼성래미안","indutype":"회원제형태 - 기타3","category":"other"}]},{"lat":"37.406051638","long":"126.95039565","imageIndex":17,"items":[{"name":"아트엔럭셔리","tel":"031-382-9998","addr":"경기도 안양시 동안구 비산동 1029-16번지","indutype":"의류 - 기타의류","category":"other"}]},{"lat":"37.397780444","long":"126.9330886","imageIndex":17,"items":[{"name":"안양농협 하나로마트 비산점","tel":"031-466-0550","addr":"경기도 안양시 동안구 비산동 571-1번지","indutype":"유통업 비영리 - 농,축협 직영매장","category":"other"}]},{"lat":"37.409583186","long":"126.94950086","imageIndex":17,"items":[{"name":"안양시시설관리공단/롤러경기장","tel":"031-389-5280","addr":"경기도 안양시 동안구 비산동 156-1번지","indutype":"문화.취미 - 문화취미기타","category":"other"}]},{"lat":"37.397889101","long":"126.93400327","imageIndex":17,"items":[{"name":"안양제일금거래소","tel":"031-446-5500","addr":"경기도 안양시 동안구 비산동 570번지","indutype":"신변잡화 - 귀금속","category":"other"},{"name":"한아름유통","tel":"031-388-1890","addr":"경기도 안양시 동안구 비산동 570번지","indutype":"의류 - 정장","category":"other"}]},{"lat":"37.406771942","long":"126.93214279","imageIndex":17,"items":[{"name":"알투엠 (AL2M)","tel":"","addr":"경기도 안양시 동안구 비산동 1155번지","indutype":"서적문구 - 출판 및 인쇄물","category":"other"},{"name":"와이즈","tel":"031-448-4600","addr":"경기도 안양시 동안구 비산동 1155번지","indutype":"문화.취미 - 수족관","category":"other"}]},{"lat":"37.404583653","long":"126.95189883","imageIndex":17,"items":[{"name":"애나크","tel":"","addr":"경기도 안양시 동안구 비산동 1047-16번지","indutype":"의류 - 정장","category":"other"},{"name":"제일종합인테리어","tel":"031-476-3340","addr":"경기도 안양시 동안구 비산동 1047-16번지","indutype":"건축자재 - 목재·석재·철물","category":"other"}]},{"lat":"37.403331131","long":"126.95161733","imageIndex":17,"items":[{"name":"어썸인테리어","tel":"","addr":"경기도 안양시 동안구 비산동 1037-3번지","indutype":"건축자재 - 인테리어전문","category":"other"}]},{"lat":"37.403771169","long":"126.94836426","imageIndex":17,"items":[{"name":"에덴","tel":"031-383-3469","addr":"경기도 안양시 동안구 비산동 1026-5번지","indutype":"회원제형태 - 기타4","category":"other"}]},{"lat":"37.396708395","long":"126.95087648","imageIndex":17,"items":[{"name":"에스.텐더(S.tender)","tel":"070-7791-7975","addr":"경기도 안양시 동안구 비산동 1101-8번지 샛별한양아파트","indutype":"의류 - 정장","category":"other"}]},{"lat":"37.406529781","long":"126.95178457","imageIndex":17,"items":[{"name":"에스엠에스(S.M.S)공조","tel":"031-479-5655","addr":"경기도 안양시 동안구 비산동 1044-41번지 정우빌라","indutype":"회원제형태 - 기타4","category":"other"}]},{"lat":"37.406859063","long":"126.94306477","imageIndex":17,"items":[{"name":"에어컨 월드","tel":"","addr":"경기도 안양시 동안구 비산동 280-4번지","indutype":"용역 서비스 - 기타용역서비스","category":"other"}]},{"lat":"37.405444224","long":"126.94255764","imageIndex":17,"items":[{"name":"에프앤티홀딩스","tel":"070-4120-9900","addr":"경기도 안양시 동안구 비산동 305번지","indutype":"회원제형태 - 기타4","category":"other"}]},{"lat":"37.399661101","long":"126.94526147","imageIndex":17,"items":[{"name":"에피인테리어","tel":"031-476-2586","addr":"경기도 안양시 동안구 비산동 374번지 안양비산대주파크빌","indutype":"건축자재 - 인테리어전문","category":"other"}]},{"lat":"37.400942357","long":"126.9491343","imageIndex":17,"items":[{"name":"엔게디쥬얼리(engedijewelry)","tel":"031-421-1889","addr":"경기도 안양시 동안구 비산동 1054-1번지 전원빌라","indutype":"회원제형태 - 기타4","category":"other"}]},{"lat":"37.391363295","long":"126.94627285","imageIndex":17,"items":[{"name":"엘라 레이디스(ELRA LADY'S)","tel":"","addr":"경기도 안양시 동안구 비산동 1104번지 은하수청구아파트","indutype":"전기제품 - 기타전기제품","category":"other"}]},{"lat":"37.400996611","long":"126.94956343","imageIndex":17,"items":[{"name":"엘지전자(주) 안양서비스센터","tel":"031-388-8828","addr":"경기도 안양시 동안구 비산동 1054-6번지","indutype":"수리서비스 - 가정용품수리","category":"other"}]},{"lat":"37.407084033","long":"126.94251114","imageIndex":17,"items":[{"name":"연출이벤트기획","tel":"031-456-5242","addr":"경기도 안양시 동안구 비산동 292-3번지","indutype":"용역 서비스 - 종합용역","category":"other"}]},{"lat":"37.404078185","long":"126.9498436","imageIndex":17,"items":[{"name":"영훈사","tel":"031-384-0909","addr":"경기도 안양시 동안구 비산동 1031-7번지","indutype":"용역 서비스 - 종합용역","category":"other"}]},{"lat":"37.405606168","long":"126.94209443","imageIndex":17,"items":[{"name":"오피스토탈","tel":"031-388-1191","addr":"경기도 안양시 동안구 비산동","indutype":"회원제형태 - 기타4","category":"other"}]},{"lat":"37.398377332","long":"126.93696172","imageIndex":17,"items":[{"name":"오하이오","tel":"","addr":"경기도 안양시 동안구 비산동 410번지 비산롯데캐슬","indutype":"용역 서비스 - 사무서비스","category":"other"}]},{"lat":"37.402610732","long":"126.95256653","imageIndex":17,"items":[{"name":"우드세이","tel":"031-383-2452","addr":"경기도 안양시 동안구 비산동 1052-3번지","indutype":"레져용품 - 악기점","category":"other"}]},{"lat":"37.406916864","long":"126.95098237","imageIndex":17,"items":[{"name":"우리세탁소","tel":"031-388-7681","addr":"경기도 안양시 동안구 비산동 1043번지","indutype":"수리서비스 - 세탁소","category":"other"}]},{"lat":"37.399720669","long":"126.9384739","imageIndex":17,"items":[{"name":"우림","tel":"031-442-5662","addr":"경기도 안양시 동안구 비산동 425번지 비산삼성래미안","indutype":"의류 - 기타의류","category":"other"}]},{"lat":"37.397528718","long":"126.93403748","imageIndex":17,"items":[{"name":"우림 (Urim)","tel":"031-447-3811","addr":"경기도 안양시 동안구 비산동 570-11번지","indutype":"용역 서비스 - 종합용역","category":"other"},{"name":"진갑바이크","tel":"070-4063-9071","addr":"경기도 안양시 동안구 비산동 570-11번지","indutype":"레져용품 - 스포츠·레져용품","category":"other"},{"name":"혜창기획","tel":"031-446-0467","addr":"경기도 안양시 동안구 비산동 570-11번지","indutype":"건축자재 - 인테리어전문","category":"other"}]},{"lat":"37.393141209","long":"126.95275354","imageIndex":17,"items":[{"name":"우체국포장센터","tel":"","addr":"경기도 안양시 동안구 비산동 1110번지","indutype":"용역 서비스 - 종합용역","category":"other"}]},{"lat":"37.402501533","long":"126.95009318","imageIndex":17,"items":[{"name":"운동장자전거","tel":"031-86-1333","addr":"경기도 안양시 동안구 비산동 1033-1번지","indutype":"레져용품 - 스포츠·레져용품","category":"other"},{"name":"평촌엠티비(MTB)","tel":"031-386-1631","addr":"경기도 안양시 동안구 비산동 1033-1번지","indutype":"레져용품 - 스포츠·레져용품","category":"other"}]},{"lat":"37.396689944","long":"126.94990528","imageIndex":17,"items":[{"name":"유니","tel":"","addr":"경기도 안양시 동안구 비산동 1101-2번지 샛별한양아파트","indutype":"의류 - 정장","category":"other"}]},{"lat":"37.397717126","long":"126.9326708","imageIndex":17,"items":[{"name":"유니넷pc존","tel":"031-555-2580","addr":"경기도 안양시 동안구 비산동 559번지","indutype":"수리서비스 - 사무·통신기기수리","category":"other"}]},{"lat":"37.396971424","long":"126.93636441","imageIndex":17,"items":[{"name":"유니미니 안양평촌","tel":"031-449-5521","addr":"경기도 안양시 동안구 비산동 566-6번지","indutype":"광학제품 - 사진관","category":"other"}]},{"lat":"37.39675447","long":"126.93511105","imageIndex":17,"items":[{"name":"유리나빛나(Yurinabinna)","tel":"031-443-1405","addr":"경기도 안양시 동안구 비산동 572번지 비산한화꿈에그린아파트","indutype":"회원제형태 - 기타4","category":"other"}]},{"lat":"37.398531833","long":"126.9393897","imageIndex":17,"items":[{"name":"유앤씨코체","tel":"031-347-9018","addr":"경기도 안양시 동안구 비산동 408번지 비산롯데캐슬","indutype":"회원제형태 - 기타4","category":"other"}]},{"lat":"37.407525607","long":"126.94266892","imageIndex":17,"items":[{"name":"윤수영 갤러리","tel":"","addr":"경기도 안양시 동안구 비산동 292-1번지","indutype":"문화.취미 - 화랑","category":"other"}]},{"lat":"37.406439061","long":"126.95037279","imageIndex":17,"items":[{"name":"윤종합설비","tel":"031-383-4434","addr":"경기도 안양시 동안구 비산동 1029-9번지","indutype":"용역 서비스 - 기타용역서비스","category":"other"},{"name":"태양금속","tel":"031-386-0728","addr":"경기도 안양시 동안구 비산동 1029-9번지","indutype":"건축자재 - 보일러·펌프·샷시","category":"other"}]},{"lat":"37.407312316","long":"126.93175826","imageIndex":17,"items":[{"name":"이룸에듀","tel":"031-349-7958","addr":"경기도 안양시 동안구 비산동 1155번지","indutype":"회원제형태 - 서적","category":"other"}]},{"lat":"37.39511043","long":"126.94409048","imageIndex":17,"items":[{"name":"이쁘개 안양점","tel":"031-1644-4833","addr":"경기도 안양시 동안구 비산동 1102번지 관악아파트","indutype":"문화.취미 - 애완동물","category":"other"}]},{"lat":"37.403028913","long":"126.94137368","imageIndex":17,"items":[{"name":"이수엠엔씨주식회사","tel":"","addr":"경기도 안양시 동안구 비산동 332-13번지 대원하이츠","indutype":"용역 서비스 - 기타용역서비스","category":"other"}]},{"lat":"37.405772336","long":"126.95041843","imageIndex":17,"items":[{"name":"이야기공방 첫장","tel":"","addr":"경기도 안양시 동안구 비산동 1030-1번지","indutype":"문화.취미 - 문화취미기타","category":"other"}]},{"lat":"37.401106962","long":"126.93620264","imageIndex":17,"items":[{"name":"이지페이카드밴","tel":"031-7004-4367","addr":"경기도 안양시 동안구 비산동 455번지 비산삼성래미안","indutype":"회원제형태 - 기타1","category":"other"}]},{"lat":"37.400946986","long":"126.9402347","imageIndex":17,"items":[{"name":"이화청기와상사","tel":"031-486-8881","addr":"경기도 안양시 동안구 비산동 425번지 비산삼성래미안","indutype":"건축자재 - 기타건축자재","category":"other"}]},{"lat":"37.399167689","long":"126.93256781","imageIndex":17,"items":[{"name":"이화청기와상사","tel":"031-446-0432","addr":"경기도 안양시 동안구 비산동 554-13번지","indutype":"건축자재 - 기타건축자재","category":"other"},{"name":"컴퓨터수리","tel":"070-4735-0056","addr":"경기도 안양시 동안구 비산동 554-13번지","indutype":"수리서비스 - 사무·통신기기수리","category":"other"}]},{"lat":"37.400608596","long":"126.9482875","imageIndex":17,"items":[{"name":"정갤러리","tel":"031-689-5503","addr":"경기도 안양시 동안구 비산동 1053-1번지","indutype":"가구 - 일반가구","category":"other"}]},{"lat":"37.406471117","long":"126.94205985","imageIndex":17,"items":[{"name":"정일홈케어","tel":"031-347-2700","addr":"경기도 안양시 동안구 비산동 294-6번지 두산빌라","indutype":"주방용구 - 주방용구","category":"other"}]},{"lat":"37.402734303","long":"126.94685159","imageIndex":17,"items":[{"name":"제이니","tel":"031-388-3566","addr":"경기도 안양시 동안구 비산동 245번지 뉴타운삼호아파트","indutype":"의류 - 정장","category":"other"}]},{"lat":"37.407745158","long":"126.94955864","imageIndex":17,"items":[{"name":"제이와이인터내셔널","tel":"031-382-6859","addr":"경기도 안양시 동안구 비산동 1017-50번지 쌍봉빌라","indutype":"레져용품 - 스포츠·레져용품","category":"other"}]},{"lat":"37.396761044","long":"126.9477595","imageIndex":17,"items":[{"name":"제이유시스템 (JU SYSTEM)","tel":"031-471-7711","addr":"경기도 안양시 동안구 비산동 1101-2번지 샛별한양아파트","indutype":"사무통신 - 사무용 OA기기","category":"other"}]},{"lat":"37.398716583","long":"126.9315631","imageIndex":17,"items":[{"name":"제이크로버","tel":"031-242-8384","addr":"경기도 안양시 동안구 비산동 1166번지","indutype":"유통업 영리 - 기타유통업","category":"other"},{"name":"주식회사 처서","tel":"031-689-5505","addr":"경기도 안양시 동안구 비산동 1166번지","indutype":"사무통신 - 컴퓨터","category":"other"},{"name":"커즈펫 비산점","tel":"031-348-0099","addr":"경기도 안양시 동안구 비산동 1166번지","indutype":"문화.취미 - 애완동물","category":"other"},{"name":"큐브인테리어","tel":"031-466-7086","addr":"경기도 안양시 동안구 비산동 1166번지","indutype":"건축자재 - 인테리어전문","category":"other"},{"name":"헤펠레목공방 비산점","tel":"031-466-6470","addr":"경기도 안양시 동안구 비산동 1166번지","indutype":"문화.취미 - 문화취미기타","category":"other"}]},{"lat":"37.404862976","long":"126.95192123","imageIndex":17,"items":[{"name":"제일아쿠아정수기","tel":"031-456-3053","addr":"경기도 안양시 동안구 비산동 1047번지","indutype":"주방용구 - 정수기","category":"other"}]},{"lat":"37.402330953","long":"126.95148248","imageIndex":17,"items":[{"name":"젠코리아서비스","tel":"031-341-8511","addr":"경기도 안양시 동안구 비산동 1034-8번지","indutype":"용역 서비스 - 사무서비스","category":"other"}]},{"lat":"37.398131138","long":"126.93191375","imageIndex":17,"items":[{"name":"종이배","tel":"051-852-9118","addr":"경기도 안양시 동안구 비산동 557-9번지 장미아파트","indutype":"서적문구 - 문구용품","category":"other"}]},{"lat":"37.399023802","long":"126.93303098","imageIndex":17,"items":[{"name":"좋은이웃협동조합","tel":"031-421-4167","addr":"경기도 안양시 동안구 비산동 554-15번지","indutype":"신변잡화 - 기타잡화","category":"other"}]},{"lat":"37.40305072","long":"126.94914408","imageIndex":17,"items":[{"name":"주식회사 거성테니스프라자","tel":"031-385-3737","addr":"경기도 안양시 동안구 비산동 1027-1번지","indutype":"레져용품 - 스포츠·레져용품","category":"other"}]},{"lat":"37.406690615","long":"126.94875746","imageIndex":17,"items":[{"name":"주식회사 산지","tel":"031-381-0389","addr":"경기도 안양시 동안구 비산동 1019-17번지","indutype":"용역 서비스 - 기타용역서비스","category":"other"}]},{"lat":"37.404826803","long":"126.95161631","imageIndex":17,"items":[{"name":"주식회사 케포스","tel":"031-386-2906","addr":"경기도 안양시 동안구 비산동 1040-13번지","indutype":"주방용구 - 주방용구","category":"other"}]},{"lat":"37.403273219","long":"126.94339515","imageIndex":17,"items":[{"name":"주식회사 휘슬러쿠킹","tel":"02-507-1207","addr":"경기도 안양시 동안구 비산동 343-23번지","indutype":"주방용구 - 주방용구","category":"other"},{"name":"하우스월드","tel":"031-381-2205","addr":"경기도 안양시 동안구 비산동 343-23번지","indutype":"주방용구 - 주방용구","category":"other"}]},{"lat":"37.403584017","long":"126.95302894","imageIndex":17,"items":[{"name":"주식회사진보이엔씨","tel":"031-426-7895","addr":"경기도 안양시 동안구 비산동 1050-5번지","indutype":"용역 서비스 - 기타용역서비스","category":"other"}]},{"lat":"37.407518876","long":"126.94732242","imageIndex":17,"items":[{"name":"지구촌광고기획","tel":"031-444-4003","addr":"경기도 안양시 동안구 비산동 1022번지 박가맨션","indutype":"용역 서비스 - 종합용역","category":"other"}]},{"lat":"37.397580845","long":"126.94751045","imageIndex":17,"items":[{"name":"지수통신","tel":"031-381-1414","addr":"경기도 안양시 동안구 비산동 1101번지","indutype":"사무통신 - 통신기기","category":"other"}]},{"lat":"37.400647448","long":"126.93620305","imageIndex":17,"items":[{"name":"지스","tel":"","addr":"경기도 안양시 동안구 비산동 455번지 비산삼성래미안","indutype":"신변잡화 - 기타잡화","category":"other"}]},{"lat":"37.404212906","long":"126.93185155","imageIndex":17,"items":[{"name":"진로석수/가나유통","tel":"031-384-7588","addr":"경기도 안양시 동안구 비산동 1155번지","indutype":"유통업 영리 - 기타유통업","category":"other"}]},{"lat":"37.39908261","long":"126.94159149","imageIndex":17,"items":[{"name":"창가에공인중개사사무소","tel":"031-386-0088","addr":"경기도 안양시 동안구 비산동 405-10번지","indutype":"용역 서비스 - 부동산 중개·임대","category":"other"}]},{"lat":"37.394222387","long":"126.95267377","imageIndex":17,"items":[{"name":"철학전기철물","tel":"031-381-9999","addr":"경기도 안양시 동안구 비산동 1109-6번지 샛별한양아파트","indutype":"전기제품 - 기타전기제품","category":"other"}]},{"lat":"37.398191823","long":"126.94397514","imageIndex":17,"items":[{"name":"청원금속배관","tel":"031-385-7677","addr":"경기도 안양시 동안구 비산동 387-1번지","indutype":"건축자재 - 기타건축자재","category":"other"}]},{"lat":"37.404583712","long":"126.95203437","imageIndex":17,"items":[{"name":"칠성냉열산업","tel":"031-384-8301","addr":"경기도 안양시 동안구 비산동 1047-15번지","indutype":"용역 서비스 - 기타용역서비스","category":"other"}]},{"lat":"37.399222402","long":"126.93367453","imageIndex":17,"items":[{"name":"카라","tel":"031-443-2192","addr":"경기도 안양시 동안구 비산동 554-37번지 서안빌라","indutype":"의류 - 정장","category":"other"},{"name":"햇살가득사진관","tel":"","addr":"경기도 안양시 동안구 비산동 554-37번지 서안빌라","indutype":"광학제품 - 사진관","category":"other"}]},{"lat":"37.397893062","long":"126.9411746","imageIndex":17,"items":[{"name":"칼렛츠(K.allets)","tel":"031-384-2660","addr":"경기도 안양시 동안구 비산동 406번지 미륭아파트","indutype":"신변잡화 - 액세서리","category":"other"}]},{"lat":"37.403970797","long":"126.95150395","imageIndex":17,"items":[{"name":"컴&닥터119","tel":"031-424-7041","addr":"경기도 안양시 동안구 비산동","indutype":"사무통신 - 컴퓨터","category":"other"}]},{"lat":"37.399442075","long":"126.93980679","imageIndex":17,"items":[{"name":"케익앤조이(Cake&Joy)","tel":"070-4082-9412","addr":"경기도 안양시 동안구 비산동 425번지 비산삼성래미안","indutype":"문화.취미 - 문화취미기타","category":"other"}]},{"lat":"37.405633847","long":"126.9433707","imageIndex":17,"items":[{"name":"콩스튜디오","tel":"070-5022-4846","addr":"경기도 안양시 동안구 비산동 316번지","indutype":"광학제품 - 사진관","category":"other"}]},{"lat":"37.403943914","long":"126.9518428","imageIndex":17,"items":[{"name":"태영공조시스템","tel":"02-517-1553","addr":"경기도 안양시 동안구 비산동 1049-14번지","indutype":"전기제품 - 냉열기기","category":"other"}]},{"lat":"37.403744305","long":"126.9487257","imageIndex":17,"items":[{"name":"태영타일도기","tel":"031-384-2070","addr":"경기도 안양시 동안구 비산동 1026-11번지","indutype":"건축자재 - 건축용 요업제품","category":"other"}]},{"lat":"37.396141183","long":"126.95184809","imageIndex":17,"items":[{"name":"태화전기","tel":"02-2263-7138","addr":"경기도 안양시 동안구 비산동 1109-4번지 샛별한양아파트","indutype":"전기제품 - 기타전기제품","category":"other"}]},{"lat":"37.399137757","long":"126.94372594","imageIndex":17,"items":[{"name":"토즈멤버십라운지 비산센터","tel":"031-384-0901","addr":"경기도 안양시 동안구 비산동 424-165번지","indutype":"용역 서비스 - 사무서비스","category":"other"}]},{"lat":"37.396543584","long":"126.94520739","imageIndex":17,"items":[{"name":"트랜스에듀(Trans Edu)","tel":"070-4809-3800","addr":"경기도 안양시 동안구 비산동 1102-4번지 관악부영아파트","indutype":"용역 서비스 - 소프트웨어","category":"other"}]},{"lat":"37.404173444","long":"126.94185841","imageIndex":17,"items":[{"name":"파이브지티 (5GT)","tel":"","addr":"경기도 안양시 동안구 비산동 329-1번지 파크아파트","indutype":"용역 서비스 - 소프트웨어","category":"other"}]},{"lat":"37.39801509","long":"126.95140637","imageIndex":17,"items":[{"name":"팔팔하수도공사","tel":"02-566-8804","addr":"경기도 안양시 동안구 비산동 1101-6번지 샛별한양아파트","indutype":"용역 서비스 - 기타용역서비스","category":"other"}]},{"lat":"37.404084364","long":"126.94386888","imageIndex":17,"items":[{"name":"펫토피아남부대리점","tel":"031-382-2252","addr":"경기도 안양시 동안구 비산동","indutype":"문화.취미 - 애완동물","category":"other"}]},{"lat":"37.40216821","long":"126.95020636","imageIndex":17,"items":[{"name":"포레스트동물병원","tel":"031-388-3889","addr":"경기도 안양시 동안구 비산동 1033-2번지","indutype":"문화.취미 - 애완동물","category":"other"}]},{"lat":"37.406770928","long":"126.94708578","imageIndex":17,"items":[{"name":"푸른커뮤니케이션","tel":"031-382-3044","addr":"경기도 안양시 동안구 비산동 1022-4번지","indutype":"용역 서비스 - 종합용역","category":"other"}]},{"lat":"37.403966715","long":"126.94284118","imageIndex":17,"items":[{"name":"프레젠트포미","tel":"031-882-7106","addr":"경기도 안양시 동안구 비산동 325번지 동화빌라","indutype":"신변잡화 - 액세서리","category":"other"}]},{"lat":"37.399051918","long":"126.9348944","imageIndex":17,"items":[{"name":"프리피아과천","tel":"031-441-3345","addr":"경기도 안양시 동안구 비산동 550-7번지","indutype":"사무통신 - 통신기기","category":"other"}]},{"lat":"37.406723573","long":"126.94239849","imageIndex":17,"items":[{"name":"하늘기획","tel":"031-441-8111","addr":"경기도 안양시 동안구 비산동 293-1번지 비산동휴먼블루","indutype":"용역 서비스 - 종합용역","category":"other"}]},{"lat":"37.400716184","long":"126.94714674","imageIndex":17,"items":[{"name":"하얀뜰꽃","tel":"031-381-1136","addr":"경기도 안양시 동안구 비산동 363-13번지","indutype":"문화.취미 - 화원","category":"other"}]},{"lat":"37.396773158","long":"126.93628553","imageIndex":17,"items":[{"name":"하이어라키 디자인 스튜디오","tel":"","addr":"경기도 안양시 동안구 비산동 566-10번지","indutype":"용역 서비스 - 사무서비스","category":"other"}]},{"lat":"37.403502096","long":"126.95109767","imageIndex":17,"items":[{"name":"하이젠 에어콘","tel":"","addr":"경기도 안양시 동안구 비산동 1037-13번지 월드빌라","indutype":"용역 서비스 - 기타용역서비스","category":"other"}]},{"lat":"37.407754086","long":"126.93222094","imageIndex":17,"items":[{"name":"한땀이야기","tel":"031-348-8920","addr":"경기도 안양시 동안구 비산동 1155번지","indutype":"회원제형태 - 기타4","category":"other"}]},{"lat":"37.406471447","long":"126.94270365","imageIndex":17,"items":[{"name":"한빛샷시유리","tel":"031-381-7090","addr":"경기도 안양시 동안구 비산동 306-38번지","indutype":"건축자재 - 유리","category":"other"}]},{"lat":"37.40322302","long":"126.95163999","imageIndex":17,"items":[{"name":"한솔디자인","tel":"031-388-0004","addr":"경기도 안양시 동안구 비산동 1037-4번지","indutype":"건축자재 - 인테리어전문","category":"other"}]},{"lat":"37.392725019","long":"126.94883526","imageIndex":17,"items":[{"name":"한양은하수세탁","tel":"031-385-0884","addr":"경기도 안양시 동안구 비산동","indutype":"수리서비스 - 세탁소","category":"other"}]},{"lat":"37.403997301","long":"126.95030673","imageIndex":17,"items":[{"name":"한일종합","tel":"031-388-4882","addr":"경기도 안양시 동안구 비산동 1038-34번지","indutype":"건축자재 - 목재·석재·철물","category":"other"}]},{"lat":"37.403773209","long":"126.95298364","imageIndex":17,"items":[{"name":"핸네모바일","tel":"031-381-5858","addr":"경기도 안양시 동안구 비산동 1049-8번지","indutype":"신변잡화 - 기타잡화","category":"other"}]},{"lat":"37.401304723","long":"126.95364032","imageIndex":17,"items":[{"name":"향기뜰공방","tel":"","addr":"경기도 안양시 동안구 비산동 1058-6번지 석화빌라","indutype":"신변잡화 - 기타잡화","category":"other"}]},{"lat":"37.403345801","long":"126.94440029","imageIndex":17,"items":[{"name":"허브","tel":"070-2699-0807","addr":"경기도 안양시 동안구 비산동 354-10번지 뉴타운삼호아파트","indutype":"의류 - 내의판매","category":"other"}]},{"lat":"37.402552219","long":"126.94301172","imageIndex":17,"items":[{"name":"형제세탁소","tel":"031-388-0248","addr":"경기도 안양시 동안구 비산동","indutype":"수리서비스 - 세탁소","category":"other"}]},{"lat":"37.402966791","long":"126.94322598","imageIndex":17,"items":[{"name":"혜기상사","tel":"031-8091-5598","addr":"경기도 안양시 동안구 비산동 343-6번지","indutype":"의류 - 정장","category":"other"}]},{"lat":"37.399141278","long":"126.93361814","imageIndex":17,"items":[{"name":"홈타이랜드","tel":"","addr":"경기도 안양시 동안구 비산동 554-36번지 서안빌라","indutype":"용역 서비스 - 종합용역","category":"other"}]},{"lat":"37.402358028","long":"126.95158411","imageIndex":17,"items":[{"name":"화성전자","tel":"031-388-7577","addr":"경기도 안양시 동안구 비산동 1034-19번지","indutype":"전기제품 - 가전제품","category":"other"}]},{"lat":"37.393082207","long":"126.94220618","imageIndex":17,"items":[{"name":"휘트니스 헬스프라자","tel":"031-465-0634","addr":"경기도 안양시 동안구 비산동 580-11번지","indutype":"레져용품 - 스포츠·레져용품","category":"other"}]}]