[{"lat":"37.35797505","long":"126.82926964","items":[{"name":"(주)티비지세라믹스","tel":"031-494-1919","addr":"경기도 안산시 단원구 화정동 115-1번지","category":"건축자재 - 건축용 요업제품"},{"name":"신도씽크","tel":"031-414-2910","addr":"경기도 안산시 단원구 화정동 115-1번지","category":"가구 - 일반가구"}]},{"lat":"37.357942665","long":"126.81974312","items":[{"name":"MS탁송","tel":"031-1688-8250","addr":"경기도 안산시 단원구 화정동 580-1번지","category":"용역 서비스 - 사무서비스"},{"name":"랩터","tel":"031-475-5673","addr":"경기도 안산시 단원구 화정동 580-1번지 1층","category":"용역 서비스 - 종합용역"}]},{"lat":"37.358421368","long":"126.82049822","items":[{"name":"강원제일유통","tel":"031-414-6020","addr":"경기도 안산시 단원구 화정동 597-3번지 1층","category":"음료식품 - 기타음료식품"}]},{"lat":"37.358336232","long":"126.82979932","items":[{"name":"거원","tel":"031-413-7584","addr":"경기도 안산시 단원구 화정동 102번지","category":"기타 - 기타 전문점"}]},{"lat":"37.357524743","long":"126.82940613","items":[{"name":"고릴라캠핑","tel":"031-411-3101","addr":"경기도 안산시 단원구 화정동 97번지","category":"레져용품 - 스포츠·레져용품"}]},{"lat":"37.357810087","long":"126.82141398","items":[{"name":"공방카페 깔롱","tel":"","addr":"경기도 안산시 단원구 화정동 600-1번지 1층","category":"일반휴게음식 - 서양음식"}]},{"lat":"37.349195015","long":"126.82052054","items":[{"name":"금강산 가든","tel":"031-482-9595","addr":"경기도 안산시 단원구 화정동 315-5번지 ,1,2층","category":"일반휴게음식 - 일반한식"}]},{"lat":"37.3491950151","long":"126.8205205406","items":[{"name":"금강산가든","tel":"031-411-3833","addr":"경기도 안산시 단원구 화정동 315-5번지","category":"숙박 및 음식점업 - 한식"}]},{"lat":"37.3578942264","long":"126.8234116530","items":[{"name":"꽃우물 오리","tel":"031-403-0851","addr":"경기도 안산시 단원구 화정동 475-4번지","category":"숙박 및 음식점업 - 한식"}]},{"lat":"37.357894226","long":"126.82341165","items":[{"name":"꽃우물오리","tel":"031-403-0851","addr":"경기도 안산시 단원구 화정동 475-4번지 1층","category":"일반휴게음식 - 일반한식"},{"name":"꽃우물오리","tel":"031-403-0851","addr":"경기도 안산시 단원구 화정동 475-4번지","category":"일반휴게음식 - 일반한식"}]},{"lat":"37.35797518","long":"126.82332116","items":[{"name":"꿈이있는카페","tel":"031-403-0851","addr":"경기도 안산시 단원구 화정동 475-2번지 1층","category":"일반휴게음식 - 서양음식"}]},{"lat":"37.3579751803","long":"126.8233211607","items":[{"name":"꿈이있는카페","tel":"031-403-0851","addr":"경기도 안산시 단원구 화정동 475-2번지","category":"숙박 및 음식점업 - 기타음식"}]},{"lat":"37.348944224","long":"126.82149175","items":[{"name":"너비울","tel":"031-482-2066","addr":"경기도 안산시 단원구 화정동 404번지 , 1,2층","category":"일반휴게음식 - 일반한식"}]},{"lat":"37.351837715","long":"126.82229742","items":[{"name":"다온다육","tel":"031-439-6825","addr":"경기도 안산시 단원구 화정동 423-5","category":"음료식품 - 정육점"},{"name":"민들레야생화","tel":"031-480-0480","addr":"경기도 안산시 단원구 화정동 423-5","category":"문화.취미 - 화원"},{"name":"숨디자인카페","tel":"031-411-3629","addr":"경기도 안산시 단원구 화정동 423-5번지 하우스","category":"서적문구 - 출판 및 인쇄물"},{"name":"탑플라워","tel":"031-411-0236","addr":"경기도 안산시 단원구 화정동 423-5","category":"문화.취미 - 화원"}]},{"lat":"37.357637938","long":"126.82674204","items":[{"name":"다육라라","tel":"031-411-3367","addr":"경기도 안산시 단원구 화정동 153-2번지","category":"문화.취미 - 화원"}]},{"lat":"37.3489709947","long":"126.8213223951","items":[{"name":"대동강","tel":"031-482-2066","addr":"경기도 안산시 단원구 화정동 404번지","category":"숙박 및 음식점업 - 한식"}]},{"lat":"37.348889019","long":"126.820747","items":[{"name":"대운농산","tel":"031-446-5751","addr":"경기도 안산시 단원구 화정동 405-2","category":"건강식품 - 인삼제품"},{"name":"더 베스트 푸른화원","tel":"031-413-7759","addr":"경기도 안산시 단원구 화정동 405-2번지","category":"문화.취미 - 화원"},{"name":"큐티플라워","tel":"00-1644-9551","addr":"경기도 안산시 단원구 화정동 405-2번지","category":"문화.취미 - 화원"}]},{"lat":"37.35839143","long":"126.83057804","items":[{"name":"대원창호","tel":"031-401-1147","addr":"경기도 안산시 단원구 화정동 93-1","category":"건축자재 - 기타건축자재"}]},{"lat":"37.3580527188","long":"126.8209957603","items":[{"name":"대장골 낙지","tel":"031-405-9293","addr":"경기도 안산시 단원구 화정동 598번지","category":"숙박 및 음식점업 - 한식"}]},{"lat":"37.3525889275","long":"126.8245190873","items":[{"name":"덕 카페","tel":"031-403-5757","addr":"경기도 안산시 단원구 화정동 293-1번지","category":"숙박 및 음식점업 - 카페"}]},{"lat":"37.352588928","long":"126.82451909","items":[{"name":"덕까페(DUCK CAFE)","tel":"031-403-5757","addr":"경기도 안산시 단원구 화정동 293-1번지","category":"일반휴게음식 - 일반한식"},{"name":"두꺼비칼국수","tel":"031-480-6100","addr":"경기도 안산시 단원구 화정동 293-1번지 1층","category":"일반휴게음식 - 일반한식"}]},{"lat":"37.348810935","long":"126.82271097","items":[{"name":"두메산골","tel":"031-402-5557","addr":"경기도 안산시 단원구 화정동 320-1번지","category":"일반휴게음식 - 일반한식"}]},{"lat":"37.3488109349","long":"126.8227109673","items":[{"name":"두메산골","tel":"031-402-5557","addr":"경기도 안산시 단원구 화정동 320-1번지","category":"숙박 및 음식점업 - 한식"},{"name":"두메산골","tel":"031-402-5557","addr":"경기도 안산시 단원구 화정동 320-1번지","category":"숙박 및 음식점업 - 일반음식"}]},{"lat":"37.358224466","long":"126.82135655","items":[{"name":"맥스이엔씨","tel":"","addr":"경기도 안산시 단원구 화정동 602-1번지","category":"기타 - 기계공구"}]},{"lat":"37.35166521","long":"126.82144006","items":[{"name":"먹쇠장어","tel":"031-485-5289","addr":"경기도 안산시 단원구 화정동 431번지 1층","category":"일반휴게음식 - 일반한식"},{"name":"이현다육","tel":"031-411-3629","addr":"경기도 안산시 단원구 화정동 431번지 하우스","category":"문화.취미 - 화원"},{"name":"자닮 허브공예 체험장","tel":"031-506-4988","addr":"경기도 안산시 단원구 화정동 431번지","category":"문화.취미 - 문화취미기타"}]},{"lat":"37.3516652100","long":"126.8214400586","items":[{"name":"먹쇠장어","tel":"031-484-8072","addr":"경기도 안산시 단원구 화정동 431번지","category":"숙박 및 음식점업 - 한식"}]},{"lat":"37.355638466","long":"126.82726592","items":[{"name":"미래방범창","tel":"031-403-2121","addr":"경기도 안산시 단원구 화정동 167-2번지","category":"건축자재 - 기타건축자재"}]},{"lat":"37.35746943","long":"126.82254354","items":[{"name":"믿음한우''S 착한정육점","tel":"031-481-9355","addr":"경기도 안산시 단원구 화정동 472-3번지","category":"음료식품 - 정육점"}]},{"lat":"37.352360008","long":"126.8221043","items":[{"name":"반월석재","tel":"031-437-3681","addr":"경기도 안산시 단원구 화정동 423-4번지","category":"건축자재 - 목재·석재·철물"},{"name":"화정플라워","tel":"","addr":"경기도 안산시 단원구 화정동 423-4번지 1층","category":"문화.취미 - 화원"}]},{"lat":"37.3605570411","long":"126.8327742117","items":[{"name":"사랑방","tel":"031-403-0082","addr":"경기도 안산시 단원구 화정동 25번지","category":"도매 및 소매업 - 식육"}]},{"lat":"37.360557041","long":"126.83277421","items":[{"name":"사랑방","tel":"031-403-0082","addr":"경기도 안산시 단원구 화정동 25번지","category":"음료식품 - 정육점"},{"name":"토속음식전문점사랑방","tel":"031-403-0082","addr":"경기도 안산시 단원구 화정동 25번지","category":"일반휴게음식 - 일반한식"}]},{"lat":"37.3492507411","long":"126.8216038749","items":[{"name":"선굼터","tel":"031-405-5678","addr":"경기도 안산시 단원구 화정동 317-1번지","category":"숙박 및 음식점업 - 한식"}]},{"lat":"37.352359421","long":"126.82172055","items":[{"name":"세림플라워","tel":"031-411-3136","addr":"경기도 안산시 단원구 화정동 430","category":"문화.취미 - 화원"},{"name":"야생화풍경","tel":"031-410-4018","addr":"경기도 안산시 단원구 화정동 430","category":"문화.취미 - 화원"}]},{"lat":"37.352336304","long":"126.82429395","items":[{"name":"시골밥상","tel":"031-403-1983","addr":"경기도 안산시 단원구 화정동 293-7번지","category":"일반휴게음식 - 일반한식"}]},{"lat":"37.358253739","long":"126.82282385","items":[{"name":"안산DID","tel":"031-418-7709","addr":"경기도 안산시 단원구 화정동 545-1번지","category":"직물 - 카페트,커튼,천막,지물"}]},{"lat":"37.357441348","long":"126.82185508","items":[{"name":"안산고기.장어","tel":"031-410-0892","addr":"경기도 안산시 단원구 화정동 568-1번지 1층","category":"일반휴게음식 - 일반한식"},{"name":"화정돌판골","tel":"031-410-0892","addr":"경기도 안산시 단원구 화정동 568-1번지","category":"일반휴게음식 - 일반한식"}]},{"lat":"37.3574413476","long":"126.8218550752","items":[{"name":"안산고기장어","tel":"031-410-0892","addr":"경기도 안산시 단원구 화정동 568-1번지","category":"숙박 및 음식점업 - 한식"}]},{"lat":"37.349474329","long":"126.82051986","items":[{"name":"안산평창막국수","tel":"031-401-0149","addr":"경기도 안산시 단원구 화정동 315-1번지 1-2층","category":"일반휴게음식 - 일반한식"}]},{"lat":"37.352276164","long":"126.82624668","items":[{"name":"앵매도리 한우","tel":"031-402-3378","addr":"경기도 안산시 단원구 화정동 289-1번지 2층","category":"일반휴게음식 - 일반한식"},{"name":"앵매도리한우","tel":"031-362-6000","addr":"경기도 안산시 단원구 화정동 289-1번지 1층","category":"음료식품 - 정육점"}]},{"lat":"37.3522761645","long":"126.8262466755","items":[{"name":"앵매도리한우","tel":"","addr":"경기도 안산시 단원구 화정동 289-1번지","category":"도매 및 소매업 - 식육"}]},{"lat":"37.349277252","long":"126.82126523","items":[{"name":"어가 아구찜전문","tel":"031-411-6866","addr":"경기도 안산시 단원구 화정동 316-1번지 1층","category":"일반휴게음식 - 일반한식"}]},{"lat":"37.3492772521","long":"126.8212652270","items":[{"name":"어가우구찜전문","tel":"031-411-6866","addr":"경기도 안산시 단원구 화정동 316-1번지","category":"숙박 및 음식점업 - 한식"}]},{"lat":"37.3583087884","long":"126.8295172000","items":[{"name":"여러분덕","tel":"031-403-5139","addr":"경기도 안산시 단원구 화정동 104번지","category":"숙박 및 음식점업 - 오리고기"}]},{"lat":"37.358308788","long":"126.8295172","items":[{"name":"여러분덕","tel":"031-403-5139","addr":"경기도 안산시 단원구 화정동 104번지 1층","category":"일반휴게음식 - 일반한식"}]},{"lat":"37.358360672","long":"126.82204475","items":[{"name":"여울쌈밥","tel":"031-316-3838","addr":"경기도 안산시 단원구 화정동 555번지 1층","category":"일반휴게음식 - 일반한식"},{"name":"종준토건","tel":"031-383-6388","addr":"경기도 안산시 단원구 화정동 555","category":"건축자재 - 인테리어전문"},{"name":"한솔기획","tel":"","addr":"경기도 안산시 단원구 화정동 555번지","category":"서적문구 - 출판 및 인쇄물"}]},{"lat":"37.3583606718","long":"126.8220447547","items":[{"name":"여울쌈밥","tel":"031-316-3838","addr":"경기도 안산시 단원구 화정동 555번지","category":"숙박 및 음식점업 - 한식"}]},{"lat":"37.355474586","long":"126.82612631","items":[{"name":"연성공조","tel":"","addr":"경기도 안산시 단원구 화정동 168-2번지","category":"용역 서비스 - 기타용역서비스"}]},{"lat":"37.354114767","long":"126.82660355","items":[{"name":"옛날고기짬뽕","tel":"031-482-5775","addr":"경기도 안산시 단원구 화정동 265-1번지 1층","category":"일반휴게음식 - 중국식"}]},{"lat":"37.358109457","long":"126.82274518","items":[{"name":"왕큰잔치국수","tel":"031-405-8684","addr":"경기도 안산시 단원구 화정동 558-2번지","category":"일반휴게음식 - 일반한식"}]},{"lat":"37.3581094567","long":"126.8227451802","items":[{"name":"왕큰잔치국수","tel":"031-405-8684","addr":"경기도 안산시 단원구 화정동 558-2번지","category":"숙박 및 음식점업 - 한식"}]},{"lat":"37.357778051","long":"126.83010537","items":[{"name":"원창샷시","tel":"031-403-0994","addr":"경기도 안산시 단원구 화정동 96-1번지","category":"건축자재 - 보일러·펌프·샷시"}]},{"lat":"37.358108303","long":"126.82198892","items":[{"name":"유일","tel":"","addr":"경기도 안산시 단원구 화정동 562번지 1층","category":"일반휴게음식 - 서양음식"}]},{"lat":"37.349250741","long":"126.82160387","items":[{"name":"이조칼국수 화정동직영점","tel":"031-405-5678","addr":"경기도 안산시 단원구 화정동 317-1번지 1층","category":"일반휴게음식 - 일반한식"}]},{"lat":"37.3492248153","long":"126.8223262498","items":[{"name":"장수촌","tel":"031-483-2314","addr":"경기도 안산시 단원구 화정동 319-4번지","category":"숙박 및 음식점업 - 한식"}]},{"lat":"37.349224815","long":"126.82232625","items":[{"name":"장수촌","tel":"031-483-2314","addr":"경기도 안산시 단원구 화정동 319-4번지 1,2층","category":"일반휴게음식 - 일반한식"}]},{"lat":"37.349006394","long":"126.82090472","items":[{"name":"주식회사 아기소풍","tel":"031-414-4050","addr":"경기도 안산시 단원구 화정동 404-2번지","category":"광학제품 - 사진관"}]},{"lat":"37.358698905","long":"126.83135617","items":[{"name":"주식회사 월드축산","tel":"031-411-3507","addr":"경기도 안산시 단원구 화정동 65번지 1층","category":"음료식품 - 정육점"}]},{"lat":"37.358169242","long":"126.82060042","items":[{"name":"주식회사 파쎈코리아","tel":"02-1670-7873","addr":"경기도 안산시 단원구 화정동 577-1번지","category":"기타 - 기계공구"}]},{"lat":"37.359219998","long":"126.83032781","items":[{"name":"주식회사상록오뚜기식품","tel":"031-403-6768","addr":"경기도 안산시 단원구 화정동 84","category":"음료식품 - 기타음료식품"}]},{"lat":"37.358080252","long":"126.82132303","items":[{"name":"청화대","tel":"031-413-5252","addr":"경기도 안산시 단원구 화정동 601번지 1층","category":"일반휴게음식 - 일반한식"}]},{"lat":"37.3580802520","long":"126.8213230302","items":[{"name":"청화대","tel":"031-413-5250","addr":"경기도 안산시 단원구 화정동 601번지","category":"숙박 및 음식점업 - 일반음식"}]},{"lat":"37.3494206158","long":"126.8207457182","items":[{"name":"콩밭","tel":"031-475-3434","addr":"경기도 안산시 단원구 화정동 315-9번지","category":"숙박 및 음식점업 - 한식"}]},{"lat":"37.349420616","long":"126.82074572","items":[{"name":"콩밭","tel":"031-475-3434","addr":"경기도 안산시 단원구 화정동 315-9번지 1층","category":"일반휴게음식 - 일반한식"},{"name":"콩밭","tel":"031-475-3434","addr":"경기도 안산시 단원구 화정동 315-9번지","category":"일반휴게음식 - 일반한식"}]},{"lat":"37.3488890189","long":"126.8207470023","items":[{"name":"큐티플라워","tel":"","addr":"경기도 안산시 단원구 화정동 405-2번지","category":"도매 및 소매업 - 화환"}]},{"lat":"37.349915328","long":"126.82612806","items":[{"name":"토끼농장","tel":"031-482-0504","addr":"경기도 안산시 단원구 화정동 산33-11번지","category":"음료식품 - 농·축·수산품"}]},{"lat":"37.361026037","long":"126.8331005","items":[{"name":"투원텍주식회사","tel":"031-405-8878","addr":"경기도 안산시 단원구 화정동 14번지","category":"농업 - 농기계"}]},{"lat":"37.358615661","long":"126.8298777","items":[{"name":"하나로식품","tel":"031-505-8771","addr":"경기도 안산시 단원구 화정동 106번지","category":"음료식품 - 기타음료식품"}]},{"lat":"37.35963648","long":"126.83171525","items":[{"name":"하나페트라학원","tel":"031-409-1949","addr":"경기도 안산시 단원구 화정동 57번지","category":"학원 - 보습학원"}]},{"lat":"37.3572811965","long":"126.8231873658","items":[{"name":"한마당바베큐","tel":"031-401-4018","addr":"경기도 안산시 단원구 화정동 476-1번지","category":"숙박 및 음식점업 - 한식"}]},{"lat":"37.357281196","long":"126.82318737","items":[{"name":"한마당바베큐","tel":"031-401-4018","addr":"경기도 안산시 단원구 화정동 476-1번지 1층","category":"일반휴게음식 - 일반한식"}]},{"lat":"37.35791807","long":"126.82132342","items":[{"name":"허브나무","tel":"031-483-9007","addr":"경기도 안산시 단원구 화정동 599번지 1층","category":"일반휴게음식 - 일반한식"}]},{"lat":"37.3579180701","long":"126.8213234208","items":[{"name":"허브나무","tel":"031-483-9007","addr":"경기도 안산시 단원구 화정동 599번지","category":"숙박 및 음식점업 - 휴게음식점"}]},{"lat":"37.36150423","long":"126.82737642","items":[{"name":"화정갈매골농장","tel":"031-403-5191","addr":"경기도 안산시 단원구 화정동 507번지","category":"음료식품 - 정육점"}]},{"lat":"37.358554147","long":"126.82485489","items":[{"name":"화정골","tel":"031-480-1871","addr":"경기도 안산시 단원구 화정동 513-1번지","category":"일반휴게음식 - 일반한식"}]},{"lat":"37.357586871","long":"126.82274643","items":[{"name":"화정다방","tel":"031-402-0030","addr":"경기도 안산시 단원구 화정동 472-2번지","category":"일반휴게음식 - 서양음식"}]},{"lat":"37.349026593","long":"126.82232672","items":[{"name":"화정동 낙지마을","tel":"031-487-5857","addr":"경기도 안산시 단원구 화정동 319-6번지","category":"일반휴게음식 - 일반한식"}]},{"lat":"37.3490265927","long":"126.8223267244","items":[{"name":"화정동낙지마을","tel":"031-487-5857","addr":"경기도 안산시 단원구 화정동 319-6번지","category":"숙박 및 음식점업 - 한식"}]},{"lat":"37.358612315","long":"126.82162651","items":[{"name":"화정동메밀꽃필무렵","tel":"031-403-0621","addr":"경기도 안산시 단원구 화정동 554-2번지","category":"일반휴게음식 - 일반한식"}]},{"lat":"37.349367111","long":"126.821107","items":[{"name":"화정버섯마을","tel":"031-413-3828","addr":"경기도 안산시 단원구 화정동 315-11번지","category":"일반휴게음식 - 일반한식"},{"name":"황태랑","tel":"031-403-5123","addr":"경기도 안산시 단원구 화정동 315-11번지 1층","category":"일반휴게음식 - 일반한식"}]},{"lat":"37.358387386","long":"126.82782389","items":[{"name":"화정참송이농장","tel":"031-483-1753","addr":"경기도 안산시 단원구 화정동 129번지","category":"음료식품 - 농·축·수산품"},{"name":"화정화원농장","tel":"031-483-1753","addr":"경기도 안산시 단원구 화정동 129번지","category":"문화.취미 - 화원"}]},{"lat":"37.3493671106","long":"126.8211070044","items":[{"name":"황태랑","tel":"031-403-5123","addr":"경기도 안산시 단원구 화정동 315-11번지","category":"숙박 및 음식점업 - 한식,황태(건어"}]}]