[{"lat":"37.07163185","long":"127.4821261","items":[{"name":"(주)안성종로기숙학원","tel":"031-672-6700","addr":"경기도 안성시 일죽면 화봉리 29-1번지","category":"회원제형태 - 학원"},{"name":"매점","tel":"031-672-5631","addr":"경기도 안성시 일죽면 화봉리 29-1","category":"음료식품 - 기타음료식품"}]},{"lat":"37.060909013","long":"127.47547014","items":[{"name":"1,5,3매운탕","tel":"031-671-1019","addr":"경기도 안성시 일죽면 화봉리 719-2번지","category":"일반휴게음식 - 일반한식"},{"name":"1.5.3매운탕","tel":"031-671-1019","addr":"경기도 안성시 일죽면 화봉리 719-2번지 외2필지","category":"일반휴게음식 - 일반한식"}]},{"lat":"37.077015227","long":"127.47435555","items":[{"name":"다굴","tel":"031-677-5200","addr":"경기도 안성시 일죽면 화봉리 440-1번지 1동","category":"일반휴게음식 - 일반한식"}]},{"lat":"37.062191831","long":"127.47463484","items":[{"name":"달마정사","tel":"031-4094-6933","addr":"경기도 안성시 일죽면 화봉리 744-2번지 1층","category":"보건위생 - 기타대인서비스"},{"name":"안성회전구이","tel":"031-677-5592","addr":"경기도 안성시 일죽면 화봉리 744-2번지","category":"일반휴게음식 - 일반한식"}]},{"lat":"37.079104358","long":"127.47468337","items":[{"name":"당골농원","tel":"031-672-5766","addr":"경기도 안성시 일죽면 화봉리 405-11번지","category":"음료식품 - 농·축·수산품"}]},{"lat":"37.079102478","long":"127.47515568","items":[{"name":"본래순대 일죽점","tel":"031-672-8593","addr":"경기도 안성시 일죽면 화봉리 404-5번지","category":"일반휴게음식 - 일반한식"}]},{"lat":"37.074543941","long":"127.48393241","items":[{"name":"산들바하우스","tel":"","addr":"경기도 안성시 일죽면 화봉리 1번지","category":"자동차정비 유지 - 카인테리어"},{"name":"타일엔테크","tel":"031-672-8085","addr":"경기도 안성시 일죽면 화봉리 1번지","category":"건축자재 - 건축용 요업제품"}]},{"lat":"37.074271942","long":"127.47538437","items":[{"name":"삼성종합물류","tel":"031-611-4457","addr":"경기도 안성시 일죽면 화봉리 575-1","category":"음료식품 - 기타음료식품"}]},{"lat":"37.063383272","long":"127.47863368","items":[{"name":"삼일지하수","tel":"031-672-5541","addr":"경기도 안성시 일죽면 화봉리 143번지 15/2","category":"용역 서비스 - 기타용역서비스"}]},{"lat":"37.081153638","long":"127.47596689","items":[{"name":"서일농원","tel":"031-673-3171","addr":"경기도 안성시 일죽면 화봉리 389-3번지","category":"유통업 영리 - 기타유통업"}]},{"lat":"37.075829199","long":"127.48027453","items":[{"name":"세원식당","tel":"031-674-5098","addr":"경기도 안성시 일죽면 화봉리 346-1번지","category":"일반휴게음식 - 일반한식"}]},{"lat":"37.081712947","long":"127.47580167","items":[{"name":"솔바람","tel":"","addr":"경기도 안성시 일죽면 화봉리 379-1번지","category":"일반휴게음식 - 서양음식"}]},{"lat":"37.05602301","long":"127.47604693","items":[{"name":"어가명가","tel":"031-672-7727","addr":"경기도 안성시 일죽면 화봉리 813-3번지 1층","category":"일반휴게음식 - 일반한식"}]},{"lat":"37.079545727","long":"127.47471984","items":[{"name":"어머니해장국","tel":"031-671-9229","addr":"경기도 안성시 일죽면 화봉리 404-7","category":"일반휴게음식 - 일반한식"}]},{"lat":"37.076047716","long":"127.47746454","items":[{"name":"에스알","tel":"","addr":"경기도 안성시 일죽면 화봉리 367-1번지","category":"건축자재 - 조명기구"},{"name":"주식회사 에코위더스","tel":"031-572-9233","addr":"경기도 안성시 일죽면 화봉리 367-1번지","category":"주방용구 - 주방용구"}]},{"lat":"37.080439979","long":"127.47416308","items":[{"name":"에이레네 스틸","tel":"031-677-1640","addr":"경기도 안성시 일죽면 화봉리 416-1번지","category":"건축자재 - 기타건축자재"}]},{"lat":"37.066135733","long":"127.47757145","items":[{"name":"엠호텔","tel":"031-671-1357","addr":"경기도 안성시 일죽면 화봉리 226-8번지","category":"숙박업 - 여관/기타숙박업"}]},{"lat":"37.080133144","long":"127.47654534","items":[{"name":"이화골","tel":"031-671-2917","addr":"경기도 안성시 일죽면 화봉리 393-2번지 1층","category":"일반휴게음식 - 일반한식"}]},{"lat":"37.078437106","long":"127.47480294","items":[{"name":"일죽농협주유소","tel":"031-672-0464","addr":"경기도 안성시 일죽면 화봉리 398-3번지","category":"연료판매점 - SK주유소"}]},{"lat":"37.079292903","long":"127.47485323","items":[{"name":"전라도한식뷔페","tel":"031-677-8001","addr":"경기도 안성시 일죽면 화봉리 404-2번지 가동 1층","category":"일반휴게음식 - 일반한식"}]},{"lat":"37.056637145","long":"127.47569098","items":[{"name":"창성본가든","tel":"031-673-8711","addr":"경기도 안성시 일죽면 화봉리 807번지","category":"일반휴게음식 - 일반한식"}]},{"lat":"37.057964386","long":"127.4772732","items":[{"name":"채담한우촌","tel":"031-674-8788","addr":"경기도 안성시 일죽면 화봉리 88-1번지 c동 1층(외1필지)","category":"일반휴게음식 - 일반한식"}]},{"lat":"37.055189483","long":"127.47718847","items":[{"name":"컴인하우스","tel":"031-672-7996","addr":"경기도 안성시 일죽면 화봉리 67-3","category":"숙박업 - 여관/기타숙박업"}]},{"lat":"37.063328119","long":"127.47665447","items":[{"name":"태봉 동태탕","tel":"02-1673-7710","addr":"경기도 안성시 일죽면 화봉리 140-2번지","category":"일반휴게음식 - 일반한식"}]},{"lat":"37.062354594","long":"127.47221851","items":[{"name":"태봉농장가든","tel":"031-673-8889","addr":"경기도 안성시 일죽면 화봉리 770번지","category":"일반휴게음식 - 일반한식"}]},{"lat":"37.071546557","long":"127.48093362","items":[{"name":"탱탱농원","tel":"031-111-1111","addr":"경기도 안성시 일죽면 화봉리 304-1번지","category":"음료식품 - 농·축·수산품"}]},{"lat":"37.07562675","long":"127.47457186","items":[{"name":"편의점","tel":"031-672-5236","addr":"경기도 안성시 일죽면 화봉리 466-4","category":"유통업 영리 - 편 의 점"}]},{"lat":"37.068546198","long":"127.47640581","items":[{"name":"화봉주유소","tel":"031-671-5182","addr":"경기도 안성시 일죽면 화봉리 231-1번지","category":"연료판매점 - 현대정유(오일뱅크)"}]}]