[{"lat":"37.207966502","long":"127.0433912","items":[{"name":"#예쁨","tel":"031-222-2285","addr":"경기도 화성시 병점동 259-15번지 우남프라자 지1층 B103일부호","category":"보건위생 - 피부미용실"},{"name":"W뷰티헤어샵","tel":"031-222-6886","addr":"경기도 화성시 병점동 259-15번지 외3필지 우남프라자 113호","category":"보건위생 - 미용원"},{"name":"델리퀸 (병점점)","tel":"031-221-2476","addr":"경기도 화성시 병점동 259-15번지 우남프라자 114호","category":"음료식품 - 정육점"},{"name":"도배잘하는집","tel":"031-234-5323","addr":"경기도 화성시 병점동 259-15번지 우남프라자 112호","category":"직물 - 카페트,커튼,천막,지물"},{"name":"루팜아트미술학원","tel":"031-224-1082","addr":"경기도 화성시 병점동 259-15번지 우남프라자 304호","category":"학원 - 예·체능계학원"},{"name":"마리렌","tel":"070-8800-2121","addr":"경기도 화성시 병점동 259-15번지 우남프라자 1층 108호","category":"서적문구 - 완구점"},{"name":"마리렌","tel":"031-890-6115","addr":"경기도 화성시 병점동 259-15번지 우남프라자","category":"자동차정비 유지 - 세차장"},{"name":"베베블리","tel":"031-234-5082","addr":"경기도 화성시 병점동 259-15번지 우남프라자 2층 203호","category":"일반휴게음식 - 일반한식"},{"name":"뷰티K(케이)","tel":"031-374-9850","addr":"경기도 화성시 병점동 259-15번지 우남프라자 1층 101호","category":"보건위생 - 화장품"},{"name":"비전약국","tel":"031-226-6714","addr":"경기도 화성시 병점동 259-15번지 우남프라자 1층 105호","category":"약국 - 약국"},{"name":"비전약국","tel":"031-226-6714","addr":"경기도 화성시 병점동 259-15번지 우남프라자 105호","category":"약국 - 약국"},{"name":"빈 프라임","tel":"070-8113-4299","addr":"경기도 화성시 병점동 259-15번지 우남프라자 B1층","category":"의류 - 정장"},{"name":"빠네르뱅","tel":"031-226-6846","addr":"경기도 화성시 병점동 259-15번지 우남프라자 지1층 B103호","category":"음료식품 - 제과점"},{"name":"세탁맘","tel":"031-238-5222","addr":"경기도 화성시 병점동 259-15번지 우남프라자 1층 104호","category":"수리서비스 - 세탁소"},{"name":"셀렉토커피 화성병점점","tel":"031-233-4219","addr":"경기도 화성시 병점동 259-15번지 우남프라자 1층 110호","category":"일반휴게음식 - 서양음식"},{"name":"신세계우남피아노학원","tel":"031-225-7851","addr":"경기도 화성시 병점동 259-15번지 우남프라자 204호","category":"학원 - 예·체능계학원"},{"name":"아우라뷰티헤어","tel":"031-267-2299","addr":"경기도 화성시 병점동 259-15번지 우남프라자 107호","category":"보건위생 - 미용원"},{"name":"우리들의원","tel":"031-223-8276","addr":"경기도 화성시 병점동 259-15번지 우남프라자 201호","category":"의원 - 의원"},{"name":"인(IN)","tel":"031-375-1706","addr":"경기도 화성시 병점동 259-15번지 우남프라자 1층 106호","category":"의류 - 정장"},{"name":"조이아잉글리쉬에듀학원","tel":"031-231-1023","addr":"경기도 화성시 병점동 259-15번지 우남프라자 206호","category":"학원 - 보습학원"},{"name":"진소아청소년과의원","tel":"031-234-0029","addr":"경기도 화성시 병점동 259-15번지 우남프라자 303호","category":"의원 - 의원"},{"name":"초록한의원","tel":"031-226-3222","addr":"경기도 화성시 병점동 259-15번지 우남프라자 3층 301호","category":"의원 - 한의원"},{"name":"코렉스자전거","tel":"031-233-4425","addr":"경기도 화성시 병점동 259-15번지 우남프라자 1층 102호","category":"레져용품 - 스포츠·레져용품"},{"name":"크린토피아","tel":"031-221-7737","addr":"경기도 화성시 병점동 259-15 우남프라자지하 B03-4호","category":"수리서비스 - 세탁소"},{"name":"킹콩쥬스","tel":"031-221-5858","addr":"경기도 화성시 병점동 259-15번지 우남프라자 103호","category":"일반휴게음식 - 서양음식"},{"name":"통큰두마리찜닭","tel":"02-236-7005","addr":"경기도 화성시 병점동 259-15번지 우남프라자 1층 116호","category":"일반휴게음식 - 일반한식"},{"name":"푸른구상학원","tel":"031-238-3508","addr":"경기도 화성시 병점동 259-15번지 외3필지 우남프라자 2층 203호","category":"학원 - 보습학원"},{"name":"프라하","tel":"070-7583-8284","addr":"경기도 화성시 병점동 259-15번지 우남프라자 115호","category":"의류 - 정장"},{"name":"해법영어한솔수학학원","tel":"031-221-1203","addr":"경기도 화성시 병점동 259-15번지 우남프라자 302호","category":"학원 - 보습학원"},{"name":"핸드메이드핑쿠베베","tel":"031-221-6420","addr":"경기도 화성시 병점동 259-15번지 우남프라자","category":"문화.취미 - 문화취미기타"},{"name":"행복을마시는집","tel":"031-231-9991","addr":"경기도 화성시 병점동 259-15번지 우남프라자 104호","category":"일반휴게음식 - 스넥"}]},{"lat":"37.214859129","long":"127.04428491","items":[{"name":"(주) 아미메디컬","tel":"031-225-6009","addr":"경기도 화성시 병점동 844-7번지 상록프라자 2층 206-라G호","category":"보건위생 - 화장품"},{"name":"BMW노래연습장","tel":"031-224-2615","addr":"경기도 화성시 병점동 844-7번지 상록프라자 305호","category":"레저업소 - 노 래 방"},{"name":"GS25화성상록점","tel":"","addr":"경기도 화성시 병점동 844-7번지 상록프라자 106호","category":"유통업 영리 - 편 의 점"},{"name":"렌즈미 병점점","tel":"031-234-5536","addr":"경기도 화성시 병점동 844-7번지 상록프라자 1층 108호","category":"보건위생 - 안경"},{"name":"로띠프랑","tel":"031-236-0654","addr":"경기도 화성시 병점동 844-7번지 상록프라자 1층 111호","category":"일반휴게음식 - 서양음식"},{"name":"리안헤어(병점점)","tel":"031-234-1160","addr":"경기도 화성시 병점동 844-7번지 상록프라자 205호","category":"보건위생 - 미용원"},{"name":"맛터부대찌개","tel":"031-273-9833","addr":"경기도 화성시 병점동 844-7번지 상록프라자 204호","category":"일반휴게음식 - 일반한식"},{"name":"베베캠퍼스","tel":"031-234-2212","addr":"경기도 화성시 병점동 844-7번지 상록프라자 206-나E호","category":"용역 서비스 - 종합용역"},{"name":"별법동태탕해물찜","tel":"031-223-2003","addr":"경기도 화성시 병점동 844-7번지 상록프라자 203호","category":"일반휴게음식 - 일반한식"},{"name":"병점거꾸로수학학원","tel":"031-239-4333","addr":"경기도 화성시 병점동 844-7번지 상록프라자 7층 704호","category":"학원 - 보습학원"},{"name":"블럭아카데미(화성진안점)","tel":"031-226-6112","addr":"경기도 화성시 병점동 844-7번지 상록프라자 504호","category":"학원 - 기타 교육기관"},{"name":"사과나무","tel":"031-235-2444","addr":"경기도 화성시 병점동 844-7번지 상록프라자 1층 102호","category":"음료식품 - 농·축·수산품"},{"name":"스토리몰","tel":"070-8621-6027","addr":"경기도 화성시 병점동 844-7번지 상록프라자 2층 206마I(아이)호","category":"의류 - 정장"},{"name":"신화당구클럽","tel":"070-7530-1166","addr":"경기도 화성시 병점동 844-7번지 상록프라자 602,603호","category":"레저업소 - 당 구 장"},{"name":"씨티팜약국","tel":"031-221-8447","addr":"경기도 화성시 병점동 844-7번지 상록프라자 404호","category":"약국 - 약국"},{"name":"아름다운치과의원","tel":"031-221-7528","addr":"경기도 화성시 병점동 844-7번지 상록프라자 403호","category":"의원 - 치과의원"},{"name":"아셀","tel":"070-8252-6597","addr":"경기도 화성시 병점동 844-7번지 상록프라자 206동 2층 라L호","category":"전기제품 - 기타전기제품"},{"name":"안경나라(병점점)","tel":"031-233-5665","addr":"경기도 화성시 병점동 844-7번지 상록프라자 1층","category":"보건위생 - 안경"},{"name":"약손이야기","tel":"031-224-9666","addr":"경기도 화성시 병점동 844-7번지 상록프라자 401호","category":"회원제형태 - 기타4"},{"name":"어택라인","tel":"","addr":"경기도 화성시 병점동 844-7번지 상록프라자 206-5호","category":"레져용품 - 스포츠·레져용품"},{"name":"엔터스카이학원","tel":"031-225-0588","addr":"경기도 화성시 병점동 844-7번지 상록프라자 603호","category":"학원 - 보습학원"},{"name":"월드에셋 주식회사","tel":"031-487-9070","addr":"경기도 화성시 병점동 844-7번지 206-가 1호","category":"용역 서비스 - 사무서비스"},{"name":"월드에셋주식회사","tel":"031-487-9070","addr":"경기도 화성시 병점동 844-7번지 상록프라자 206-가1호","category":"용역 서비스 - 사무서비스"},{"name":"웰탑독서실","tel":"031-238-8776","addr":"경기도 화성시 병점동 844-7번지 상록프라자 1003-2호,1004호,1005호","category":"학원 - 독서실"},{"name":"윤선생어학원병점영어숲","tel":"031-224-0574","addr":"경기도 화성시 병점동 844-7번지 상록프라자 701동 702호","category":"학원 - 외국어학원"},{"name":"윤선생어학원병점영어숲","tel":"031-224-0575","addr":"경기도 화성시 병점동 844-7번지 상록프라자 401동 402호","category":"학원 - 학습지 교육"},{"name":"장독대 병점점","tel":"031-225-4511","addr":"경기도 화성시 병점동 844-7번지 상록프라자 107호","category":"음료식품 - 기타음료식품"},{"name":"정's","tel":"031-237-1981","addr":"경기도 화성시 병점동 844-7번지 상록프라자 111호","category":"신변잡화 - 신발"},{"name":"제이에셋 주식회사","tel":"02-1566-8860","addr":"경기도 화성시 병점동 844-7번지 상록프라자 2층 206-2 마호","category":"용역 서비스 - 사무서비스"},{"name":"제이에셋 주식회사","tel":"02-1566-8860","addr":"경기도 화성시 병점동 844-7번지 상록프라자 2층 206-2 마호","category":"용역 서비스 - 사무서비스"},{"name":"제이에셋 주식회사","tel":"02-1566-8860","addr":"경기도 화성시 병점동 844-7번지 상록프라자 2층 206-2 마호","category":"용역 서비스 - 사무서비스"},{"name":"제이에셋 주식회사","tel":"02-1566-8860","addr":"경기도 화성시 병점동 844-7번지 상록프라자 2층 206-2마호","category":"용역 서비스 - 사무서비스"},{"name":"주식회사 합니다","tel":"031-8027-4778","addr":"경기도 화성시 병점동 844-7번지 상록프라자 206호","category":"의류 - 아동의류"},{"name":"주식회사 화성동탄블루윙즈","tel":"02-1111-1111","addr":"경기도 화성시 병점동 844-7번지 상록프라자 206-8라호","category":"학원 - 예·체능계학원"},{"name":"착한인테리어주식회사","tel":"031-235-8222","addr":"경기도 화성시 병점동 844-7번지 상록프라자 602호","category":"건축자재 - 인테리어전문"},{"name":"카앤피플 화성2호점","tel":"031-000-0000","addr":"경기도 화성시 병점동 844-7번지 상록프라자 2층 206동 라14호","category":"자동차정비 유지 - 세차장"},{"name":"케이웰자산관리 주식회사","tel":"031-5183-4545","addr":"경기도 화성시 병점동 844-7번지 상록프라자 2층 206-가M호","category":"자동차정비 유지 - 주차장"},{"name":"코쿤트레이드","tel":"","addr":"경기도 화성시 병점동 844-7번지 상록프라자 2층 206-나7호","category":"레져용품 - 스포츠·레져용품"},{"name":"티하우스","tel":"031-221-3669","addr":"경기도 화성시 병점동 844-7번지 상록프라자 111호","category":"의류 - 정장"},{"name":"파리바게트태안점","tel":"031-225-4482","addr":"경기도 화성시 병점동 844-7번지 상록프라자 104동 105호","category":"음료식품 - 제과점"},{"name":"푸른가설시스템(주)","tel":"031-8059-4415","addr":"경기도 화성시 병점동 844-7번지 상록프라자 206 가8호","category":"건축자재 - 기타건축자재"},{"name":"푸른도서","tel":"031-248-9356","addr":"경기도 화성시 병점동 844-7번지 상록프라자 라6호동 2층 206호","category":"서적문구 - 일반서적"},{"name":"프라임중고등영어학원","tel":"031-235-6744","addr":"경기도 화성시 병점동 844-7번지 상록프라자 702호","category":"학원 - 보습학원"},{"name":"한국 파워점핑 줄넘기 클럽","tel":"","addr":"경기도 화성시 병점동 844-7번지 상록프라자 501호","category":"레저업소 - 헬스클럽"},{"name":"헤어인제이","tel":"031-222-7718","addr":"경기도 화성시 병점동 844-7번지 상록프라자 1층 101호","category":"보건위생 - 미용원"},{"name":"홀릭뷰티클럽","tel":"031-234-6822","addr":"경기도 화성시 병점동 844-7번지 상록프라자 301호","category":"보건위생 - 피부미용실"}]},{"lat":"37.205886939","long":"127.03761126","items":[{"name":"(주)맘스유통","tel":"031-898-9926","addr":"경기도 화성시 병점동 369번지","category":"유통업 영리 - 슈퍼마켓"},{"name":"주식회사 제이앤에스유통 병점점","tel":"031-898-9926","addr":"경기도 화성시 병점동 369번지","category":"유통업 영리 - 슈퍼마켓"}]},{"lat":"37.206409827","long":"127.0366202","items":[{"name":"(주)시드플러스","tel":"031-234-2238","addr":"경기도 화성시 병점동 379-10번지 병점프라자 4층 404호","category":"용역 서비스 - 종합용역"},{"name":"경기에너지","tel":"031-278-3309","addr":"경기도 화성시 병점동 379-10번지 병점프라자 7층 27호","category":"건축자재 - 보일러·펌프·샷시"},{"name":"경기중장비 운전전문학원","tel":"031-237-2131","addr":"경기도 화성시 병점동 379-10번지 병점프라자 501, 202호","category":"학원 - 기능학원"},{"name":"교촌치킨병점1호점","tel":"031-239-1991","addr":"경기도 화성시 병점동 379-10번지 병점프라자 109, 110호","category":"일반휴게음식 - 스넥"},{"name":"동성에너지","tel":"031-225-4407","addr":"경기도 화성시 병점동 379-10번지 병점프라자 742호","category":"건축자재 - 보일러·펌프·샷시"},{"name":"럭셔리뷰티 병점점","tel":"031-224-4940","addr":"경기도 화성시 병점동 379-10번지 병점프라자 403호","category":"보건위생 - 화장품"},{"name":"맛갈촌","tel":"031-237-4101","addr":"경기도 화성시 병점동 379-10번지 병점프라자 101호","category":"일반휴게음식 - 일반한식"},{"name":"빈티지","tel":"031-238-0328","addr":"경기도 화성시 병점동 379-10번지 병점프라자 1층 112호","category":"의류 - 기타의류"},{"name":"송월타월(병점,동탄,팔탄,남양)","tel":"031-221-8228","addr":"경기도 화성시 병점동 379-10병점프라자10","category":"직물 - 옷감·직물"},{"name":"아이빅(IVIC)","tel":"031-233-1337","addr":"경기도 화성시 병점동 379-10번지 병점프라자 748호","category":"기타 - 기계공구"},{"name":"예다움","tel":"031-898-5757","addr":"경기도 화성시 병점동 379-10번지 병점프라자 6층","category":"의원 - 의원"},{"name":"오휘병점","tel":"031-224-4940","addr":"경기도 화성시 병점동 379-10번지 병점프라자 403호","category":"보건위생 - 화장품"},{"name":"오휘병점점(한기숙)","tel":"031-223-6006","addr":"경기도 화성시 병점동 379-10번지 병점프라자 403호","category":"보건위생 - 화장품"},{"name":"오휘화장품","tel":"031-224-4940","addr":"경기도 화성시 병점동 379-10,병점프라자402호~403호","category":"보건위생 - 화장품"},{"name":"이미지가발","tel":"031-236-6868","addr":"경기도 화성시 병점동 379-10번지 병점프라자 113~114호","category":"보건위생 - 미용재료"},{"name":"잇츠 안경(It's GLASSES)","tel":"031-221-3383","addr":"경기도 화성시 병점동 379-10번지 병점프라자 107호","category":"보건위생 - 안경"},{"name":"헤어수","tel":"031-239-1868","addr":"경기도 화성시 병점동 379-10번지 병점프라자 106호","category":"보건위생 - 미용원"},{"name":"화성예지간호학원","tel":"031-234-4104","addr":"경기도 화성시 병점동 379-10번지 병점프라자 305호","category":"학원 - 기능학원"}]},{"lat":"37.205716657","long":"127.03433315","items":[{"name":"(주)제니스타","tel":"070-4603-6467","addr":"경기도 화성시 병점동 386-12번지 201호","category":"주방용구 - 정수기"},{"name":"가든고시텔","tel":"031-222-8980","addr":"경기도 화성시 병점동 386-12동아골드프라자301.302.303","category":"학원 - 독서실"},{"name":"동아고시텔","tel":"031-222-8980","addr":"경기도 화성시 병점동 386-12 동아골드프라자 701호~703호","category":"학원 - 독서실"},{"name":"에이스","tel":"031-222-8980","addr":"경기도 화성시 병점동 386-12번지 동아빌딩 401호","category":"학원 - 독서실"}]},{"lat":"37.200912661","long":"127.03942249","items":[{"name":"(주)제이비디자인","tel":"031-693-8412","addr":"경기도 화성시 병점동 476-9번지 2층 202호","category":"건축자재 - 인테리어전문"},{"name":"아이비코리아","tel":"070-7795-0930","addr":"경기도 화성시 병점동 476-9번지 2층","category":"용역 서비스 - 기타용역서비스"}]},{"lat":"37.205436098","long":"127.03869247","items":[{"name":"1001안경원 태안점","tel":"031-576-2486","addr":"경기도 화성시 병점동 408-8번지","category":"보건위생 - 안경"},{"name":"사운드워시실용음악학원","tel":"031-267-0700","addr":"경기도 화성시 병점동 408-8번지 2층","category":"학원 - 예·체능계학원"}]},{"lat":"37.204472152","long":"127.03814005","items":[{"name":"1988옛날통닭","tel":"","addr":"경기도 화성시 병점동 870번지 화성병점에스케이뷰 상가 104동 1층 113호","category":"일반휴게음식 - 스넥"},{"name":"고운빛조명","tel":"031-222-1865","addr":"경기도 화성시 병점동 870번지 화성병점에스케이뷰 104동 2층 205호","category":"건축자재 - 조명기구"},{"name":"김밥사랑","tel":"031-234-9901","addr":"경기도 화성시 병점동 870번지 화성병점에스케이뷰 104동 S114호","category":"일반휴게음식 - 스넥"},{"name":"메리골드","tel":"031-285-7544","addr":"경기도 화성시 병점동 870번지 병점에스케이뷰 104동 117호","category":"의류 - 정장"},{"name":"밥톨스","tel":"031-238-1018","addr":"경기도 화성시 병점동 870번지 SKVIEW상가 104동 205호","category":"일반휴게음식 - 서양음식"},{"name":"블랙네일 (Black Nail)","tel":"031-236-1010","addr":"경기도 화성시 병점동 870번지 화성병점에스케이뷰 104동 1층 118호","category":"보건위생 - 피부미용실"},{"name":"신한금거래소&보마플라워","tel":"031-231-8976","addr":"경기도 화성시 병점동 870번지 에스케이뷰 상가 104동 111호","category":"신변잡화 - 귀금속"},{"name":"신한금거래소&보마플라워","tel":"031-231-8976","addr":"경기도 화성시 병점동 870번지 SK뷰상가 104동 111호","category":"문화.취미 - 화원"},{"name":"폭풍간지왕","tel":"031-231-0015","addr":"경기도 화성시 병점동 870번지 병점SK뷰상가 104동 113호","category":"의류 - 정장"},{"name":"헤윰학원","tel":"031-223-5093","addr":"경기도 화성시 병점동 870번지 화성병점SKVIEW 104동 207호","category":"학원 - 보습학원"}]},{"lat":"37.20735534","long":"127.03859199","items":[{"name":"369차차","tel":"031-111-1111","addr":"경기도 화성시 병점동 357-1번지 102호","category":"일반휴게음식 - 일반한식"},{"name":"김씨가마","tel":"031-221-8187","addr":"경기도 화성시 병점동 357-1번지 1층 일부","category":"일반휴게음식 - 일반한식"}]},{"lat":"37.213931677","long":"127.04248185","items":[{"name":"60계치킨 (화성병점점)","tel":"031-225-6060","addr":"경기도 화성시 병점동 844-1번지 씨네샤르앙 A동 1층 101호","category":"일반휴게음식 - 스넥"},{"name":"김건환탁구클럽","tel":"031-236-4387","addr":"경기도 화성시 병점동 844-1번지 씨네샤르망 A동 5층","category":"레저업소 - 기타레져업소"},{"name":"더하얀피부","tel":"031-239-1999","addr":"경기도 화성시 병점동 844-1번지 씨네샤르망 A동 3층 302호","category":"보건위생 - 피부미용실"},{"name":"드림테라피","tel":"031-225-2236","addr":"경기도 화성시 병점동 844-1번지 씨네샤르망 A동 3층 303호","category":"보건위생 - 피부미용실"},{"name":"또래도서할인매장/문화교육센터","tel":"031-224-0055","addr":"경기도 화성시 병점동 844-1번지 씨네샤르망 A동 304호","category":"서적문구 - 일반서적"},{"name":"또래도서할인매장/문화교육센터","tel":"031-224-0055","addr":"경기도 화성시 병점동 844-1번지 씨네샤르망 A동 304호","category":"서적문구 - 일반서적"},{"name":"또래서적","tel":"031-224-0805","addr":"경기도 화성시 병점동 844-1번지 씨네샤르망 A동 301호","category":"서적문구 - 일반서적"},{"name":"락당구클럽","tel":"","addr":"경기도 화성시 병점동 844-1번지 씨네샤르망 A동 307호","category":"레저업소 - 당 구 장"},{"name":"미녀들의수다네일","tel":"031-663-0447","addr":"경기도 화성시 병점동 844-1번지 씨네샤르망 A동 1층 115호","category":"보건위생 - 피부미용실"},{"name":"미스터피자 병점점","tel":"031-226-2177","addr":"경기도 화성시 병점동 844-1번지 씨네샤르망 A동 206호","category":"일반휴게음식 - 서양음식"},{"name":"바불리옛날왕만두","tel":"","addr":"경기도 화성시 병점동 844-1번지 씨네샤르망 A동 110호","category":"일반휴게음식 - 스넥"},{"name":"배스킨라빈스 화성태안점","tel":"031-234-8191","addr":"경기도 화성시 병점동 844-1번지 씨네샤르망 A동 108호","category":"음료식품 - 제과점"},{"name":"병점 쉐이크 포테이토","tel":"031-235-1416","addr":"경기도 화성시 병점동 844-1번지 씨네샤르망 A동 803호","category":"일반휴게음식 - 주점"},{"name":"브라우니yummy","tel":"031-233-8114","addr":"경기도 화성시 병점동 844-1번지 씨네샤르망 A동 106호","category":"음료식품 - 제과점"},{"name":"삼대한의원","tel":"031-224-1075","addr":"경기도 화성시 병점동 844-1씨네샤르망A동401호~402호","category":"의원 - 한의원"},{"name":"시네마스크린골프연습장","tel":"031-221-0872","addr":"경기도 화성시 병점동 844-1번지 씨네샤르망빌딩 A동 407호","category":"레저업소 - 스크린골프"},{"name":"아가페치과의원","tel":"031-234-5975","addr":"경기도 화성시 병점동 844-1번지 씨네샤르망 A동 4층 405호","category":"의원 - 치과의원"},{"name":"이끼","tel":"031-262-6735","addr":"경기도 화성시 병점동 844-1번지 씨네샤르망 A동 112호","category":"일반휴게음식 - 주점"},{"name":"잇플레이트","tel":"031-222-2126","addr":"경기도 화성시 병점동 844-1번지 씨네샤르망 A동 207호","category":"일반휴게음식 - 일반한식"},{"name":"청년다방 화성병점점","tel":"031-225-6541","addr":"경기도 화성시 병점동 844-1번지 씨네샤르망 A동 102호","category":"일반휴게음식 - 일반한식"},{"name":"총각네옛날통닭 병점롯데씨네마점","tel":"031-221-0248","addr":"경기도 화성시 병점동 844-1번지 씨네샤르망 A동 117호 116","category":"일반휴게음식 - 일반한식"},{"name":"커피투데이","tel":"031-232-9745","addr":"경기도 화성시 병점동 844-1번지 씨네샤르망 A동 802호","category":"일반휴게음식 - 서양음식"},{"name":"프라임","tel":"031-234-7770","addr":"경기도 화성시 병점동 844-1번지 씨네샤르망 A동 1101호","category":"일반휴게음식 - 일반한식"},{"name":"프로방스노래연습장","tel":"031-234-4072","addr":"경기도 화성시 병점동 844-1번지 씨네샤르망 A동 404호","category":"레저업소 - 노 래 방"}]},{"lat":"37.211129776","long":"127.04150028","items":[{"name":"ADDRESS 808(어드레스 808)","tel":"031-8058-3478","addr":"경기도 화성시 병점동 829-1번지 유진클라우스 109호","category":"의류 - 정장"},{"name":"거상광고","tel":"031-231-1942","addr":"경기도 화성시 병점동 829-1번지 유진클라우스 204호","category":"용역 서비스 - 종합용역"},{"name":"네일에 끌림","tel":"","addr":"경기도 화성시 병점동 829-1번지 유진클라우스 1층 107-1호","category":"보건위생 - 피부미용실"},{"name":"대형에프아이티(FIT)","tel":"031-236-6570","addr":"경기도 화성시 병점동 829-1번지 유진클라우스 상가 403호","category":"기타 - 기계공구"},{"name":"디엠푸드","tel":"031-267-2544","addr":"경기도 화성시 병점동 829-1번지 유진클라우스 116호 일부","category":"일반휴게음식 - 일반한식"},{"name":"이원건강의료기 화성점","tel":"031-223-3322","addr":"경기도 화성시 병점동 829-1번지 유진클라우스 1층 108호","category":"보건위생 - 의료용품"},{"name":"크로스핏범","tel":"031-222-7001","addr":"경기도 화성시 병점동 829-1번지 (110,111,112,113호)","category":"회원제형태 - 레져업소"},{"name":"하얀크리닝","tel":"031-898-5624","addr":"경기도 화성시 병점동 829-1번지 유진클라우스 1층 106호","category":"수리서비스 - 세탁소"}]},{"lat":"37.214129796","long":"127.04280866","items":[{"name":"AOBC학원","tel":"031-234-8574","addr":"경기도 화성시 병점동 844-2번지 704호","category":"학원 - 보습학원"},{"name":"가율회계사무소","tel":"031-237-3079","addr":"경기도 화성시 병점동 844-2번지 탑프라자 804호","category":"용역 서비스 - 법률회계서비스(개인)"},{"name":"레인실용음악학원","tel":"031-222-7188","addr":"경기도 화성시 병점동 844-2번지 탑프라자 1001호","category":"학원 - 예·체능계학원"},{"name":"못된고양이","tel":"070-4296-5933","addr":"경기도 화성시 병점동 844-2번지 탑프라자 104호","category":"신변잡화 - 액세서리"},{"name":"바른체형센터","tel":"031-1661-6265","addr":"경기도 화성시 병점동 844-2번지 탑프라자 603호","category":"보건위생 - 기타대인서비스"},{"name":"병점본점이니스프리","tel":"031-238-6564","addr":"경기도 화성시 병점동 844-2번지 탑프라자 103호","category":"보건위생 - 화장품"},{"name":"사단법인 행복플러스","tel":"031-357-7369","addr":"경기도 화성시 병점동 844-2번지 탑프라자 801호","category":"의류 - 기타의류"},{"name":"새순심리발달센터","tel":"031-222-5379","addr":"경기도 화성시 병점동 844-2번지 탑프라자 8층 801호","category":"보건위생 - 기타대인서비스"},{"name":"스포츠요가","tel":"031-222-8881","addr":"경기도 화성시 병점동 844-2번지 탑프라자 301호","category":"회원제형태 - 레져업소"},{"name":"신나는창의교육","tel":"031-234-6012","addr":"경기도 화성시 병점동 844-2번지 탑프라자 703호","category":"회원제형태 - 학원"},{"name":"여수","tel":"031-233-4045","addr":"경기도 화성시 병점동 844-2번지 109호","category":"일반휴게음식 - 일반한식"},{"name":"오에이치 (h)","tel":"031-239-3365","addr":"경기도 화성시 병점동 844-2번지 탑프라자 302호","category":"일반휴게음식 - 주점"},{"name":"왈가닥제인","tel":"070-4221-3117","addr":"경기도 화성시 병점동 844-2번지 탑프라자 6층 601호","category":"의류 - 정장"},{"name":"정겨운오뎅집","tel":"031-222-2142","addr":"경기도 화성시 병점동 844-2번지","category":"일반휴게음식 - 일반한식"},{"name":"주주전화방","tel":"","addr":"경기도 화성시 병점동 844-2번지 탑프라자 2층 201호","category":"보건위생 - 기타대인서비스"},{"name":"쿨(COOL)","tel":"031-224-2258","addr":"경기도 화성시 병점동 844-2번지 탑프라자 303호","category":"회원제형태 - 기타4"}]},{"lat":"37.207130823","long":"127.03603474","items":[{"name":"BELFIORI","tel":"031-222-0665","addr":"경기도 화성시 병점동 354-18번지","category":"문화.취미 - 화원"},{"name":"이지퍼니처","tel":"031-234-9233","addr":"경기도 화성시 병점동 354-18번지 103호","category":"가구 - 일반가구"},{"name":"한복대여아름방","tel":"031-224-5474","addr":"경기도 화성시 병점동 354-18번지 202호","category":"의류 - 맞춤복점"}]},{"lat":"37.214018319","long":"127.05175379","items":[{"name":"BHC 병점점","tel":"031-222-7798","addr":"경기도 화성시 병점동 204번지","category":"일반휴게음식 - 스넥"},{"name":"대성전기철물","tel":"031-223-4450","addr":"경기도 화성시 병점동 204번지 1층","category":"건축자재 - 목재·석재·철물"},{"name":"주식회사 삼성에프앤디","tel":"111-1111-111","addr":"경기도 화성시 병점동 204번지","category":"일반휴게음식 - 일반한식"}]},{"lat":"37.206381493","long":"127.04092335","items":[{"name":"BYC병점점","tel":"031-221-7128","addr":"경기도 화성시 병점동 316번지","category":"의류 - 내의판매"},{"name":"종로떡집","tel":"031-239-3321","addr":"경기도 화성시 병점동 316번지","category":"음료식품 - 제과점"}]},{"lat":"37.206770601","long":"127.03533616","items":[{"name":"COO(쿠)","tel":"031-235-5551","addr":"경기도 화성시 병점동 381-17번지 병점제일타운 103호","category":"일반휴게음식 - 서양음식"},{"name":"경기하트맘케어 화성동탄오산지사","tel":"031-262-7958","addr":"경기도 화성시 병점동 381-17번지 병점제일타운 6층 603호","category":"보건위생 - 기타대인서비스"},{"name":"경매로부동산전문학원 주 식회사","tel":"031-8067-7777","addr":"경기도 화성시 병점동 381-17번지 제일타운 404호","category":"학원 - 기능학원"},{"name":"고시나라","tel":"","addr":"경기도 화성시 병점동 381-17번지 병점제일타운 102호","category":"서적문구 - 출판 및 인쇄물"},{"name":"남도밥상","tel":"031-238-9840","addr":"경기도 화성시 병점동 381-17번지 병점제일타운 117호","category":"일반휴게음식 - 일반한식"},{"name":"로그인병점역점","tel":"070-8860-8212","addr":"경기도 화성시 병점동 381-17번지 병점제일타운 105호","category":"유통업 영리 - 슈퍼마켓"},{"name":"병점노래연습장","tel":"031-221-0304","addr":"경기도 화성시 병점동 381-17번지 병점제일타운 504호","category":"레저업소 - 노 래 방"},{"name":"병점박문각행정고시학원","tel":"031-224-3003","addr":"경기도 화성시 병점동 381-17번지 407,409호","category":"학원 - 보습학원"},{"name":"병점식당","tel":"031-223-2226","addr":"경기도 화성시 병점동 381-17번지 병점제일타운 110호","category":"일반휴게음식 - 일반한식"},{"name":"보릿골","tel":"031-234-0710","addr":"경기도 화성시 병점동 381-17번지 병점제일타운 108호","category":"일반휴게음식 - 일반한식"},{"name":"비전목조건축","tel":"031-376-8112","addr":"경기도 화성시 병점동 381-17번지 제일타운 207호","category":"용역 서비스 - 기타용역서비스"},{"name":"새로미치과의원","tel":"031-223-2879","addr":"경기도 화성시 병점동 381-17번지 3층","category":"의원 - 치과의원"},{"name":"서연테크","tel":"031-000-0000","addr":"경기도 화성시 병점동 381-17번지 오피스밸리 217호","category":"신변잡화 - 기타잡화"},{"name":"스마일 찹쌀 꽈배기","tel":"070-4616-0200","addr":"경기도 화성시 병점동 381-17번지 병점제일타운 111호","category":"일반휴게음식 - 서양음식"},{"name":"신강양꼬치","tel":"031-223-6882","addr":"경기도 화성시 병점동 381-17번지 병점제일타운 111호","category":"일반휴게음식 - 일반한식"},{"name":"역전양꼬치","tel":"070-7517-7511","addr":"경기도 화성시 병점동 381-17번지 병점제일타운 101호","category":"일반휴게음식 - 일반한식"},{"name":"월드호텔요리제과제빵학원","tel":"031-226-7247","addr":"경기도 화성시 병점동 381-17번지 병점제일타운 204호","category":"회원제형태 - 학원"},{"name":"주식회사 셈프레","tel":"02-878-2723","addr":"경기도 화성시 병점동 381-17번지 병점제일타운 308호","category":"용역 서비스 - 종합용역"},{"name":"준준과일야채","tel":"","addr":"경기도 화성시 병점동 381-17번지 병점제일타운 107호","category":"음료식품 - 농·축·수산품"},{"name":"중국식품점","tel":"","addr":"경기도 화성시 병점동 381-17번지 병점제일타운 113호","category":"음료식품 - 기타음료식품"},{"name":"짱PC방","tel":"","addr":"경기도 화성시 병점동 381-17번지 제일타운 B101호","category":"레저업소 - 기타레져업소"},{"name":"착한순대국","tel":"031-223-7022","addr":"경기도 화성시 병점동 381-17번지 병점제일타운 109호","category":"일반휴게음식 - 일반한식"}]},{"lat":"37.214579713","long":"127.04455514","items":[{"name":"FITNESS 2.0","tel":"031-226-9344","addr":"경기도 화성시 병점동 845-2번지 한마음프라자 405호","category":"회원제형태 - 레져업소"},{"name":"나이스가이 화성점","tel":"031-0000-0000","addr":"경기도 화성시 병점동 845-2번지 한마음프라자 106호","category":"보건위생 - 미용원"},{"name":"늘찬영어학원","tel":"070-7721-7877","addr":"경기도 화성시 병점동 845-2번지 한마음프라자 601호","category":"학원 - 외국어학원"},{"name":"더블유 네트웍스","tel":"070-4159-4449","addr":"경기도 화성시 병점동 845-2번지 한마음프라자동 602호","category":"신변잡화 - 신발"},{"name":"더스카이영수학원","tel":"031-234-8910","addr":"경기도 화성시 병점동 845-2번지 한마음프라자 702호","category":"학원 - 보습학원"},{"name":"땡큐꼬마김밥","tel":"031-221-2322","addr":"경기도 화성시 병점동 845-2번지 한마음프라자 1층 105호","category":"일반휴게음식 - 스넥"},{"name":"떡고을","tel":"031-231-1467","addr":"경기도 화성시 병점동 845-2번지 한마음프라자 107호","category":"음료식품 - 제과점"},{"name":"루싼마술학원","tel":"050-7366-1541","addr":"경기도 화성시 병점동 845-2번지 한마음프라자 302호","category":"학원 - 예·체능계학원"},{"name":"루싼스튜디오","tel":"","addr":"경기도 화성시 병점동 845-2번지 한마음프라자 302호","category":"문화.취미 - 티켓"},{"name":"리엔케이화장품병점지사","tel":"031-256-3103","addr":"경기도 화성시 병점동 845-2번지 한마음프라자 704호","category":"보건위생 - 화장품"},{"name":"마카롱언니","tel":"031-223-0429","addr":"경기도 화성시 병점동 845-2번지 한마음프라자 201호","category":"음료식품 - 기타음료식품"},{"name":"문선경헤어","tel":"070-8111-6726","addr":"경기도 화성시 병점동 845-2번지 한마음프라자 101호","category":"보건위생 - 미용원"},{"name":"미용회관","tel":"070-4649-1101","addr":"경기도 화성시 병점동 845-2번지 한마음프라자 2층 203호","category":"보건위생 - 미용원"},{"name":"병점TOP컴퓨터학원","tel":"031-222-8586","addr":"경기도 화성시 병점동 845-2번지 한마음프라자 403호","category":"학원 - 컴퓨터학원"},{"name":"병점순대국","tel":"031-239-5241","addr":"경기도 화성시 병점동 845-2번지 한마음프라자 110호","category":"일반휴게음식 - 일반한식"},{"name":"스콜헤어(Scor)","tel":"031-226-2907","addr":"경기도 화성시 병점동 845-2번지 한마음프라자 304호","category":"보건위생 - 미용원"},{"name":"슬라임연구소","tel":"031-202-1454","addr":"경기도 화성시 병점동 845-2번지 한마음프라자 804호","category":"신변잡화 - 기타잡화"},{"name":"씨유화성한마음점","tel":"031-233-0359","addr":"경기도 화성시 병점동 845-2번지 한마음프라자 102호","category":"유통업 영리 - 편 의 점"},{"name":"안화탑영수학원","tel":"031-222-0993","addr":"경기도 화성시 병점동 845-2번지 한마음프라자 606호","category":"학원 - 보습학원"},{"name":"에꼴미술학원","tel":"031-223-7132","addr":"경기도 화성시 병점동 845-2번지 한마음프라자 503호","category":"회원제형태 - 학원"},{"name":"오마이점핑FIT","tel":"","addr":"경기도 화성시 병점동 845-2번지 한마음프라자 301호","category":"건강식품 - 기타건강식품"},{"name":"오송한약사","tel":"031-889-9112","addr":"경기도 화성시 병점동 845-2번지 한마음프라자 103호","category":"약국 - 약국"},{"name":"올레당구장","tel":"031-226-2480","addr":"경기도 화성시 병점동 845-2번지 한마음프라자 202호","category":"레저업소 - 당 구 장"},{"name":"이정아수학학원","tel":"031-224-1033","addr":"경기도 화성시 병점동 845-2번지 한마음프라자 706호","category":"학원 - 보습학원"},{"name":"인조이기타학원","tel":"031-224-4620","addr":"경기도 화성시 병점동 845-2번지 한마음프라자 401호","category":"학원 - 예·체능계학원"},{"name":"초심독서실","tel":"031-235-1129","addr":"경기도 화성시 병점동 845-2번지 한마음프라자 1001호","category":"학원 - 독서실"},{"name":"초심스터디카페","tel":"031-235-1129","addr":"경기도 화성시 병점동 845-2번지 한마음프라자 10층 1001호","category":"학원 - 독서실"},{"name":"크린토피아병점중앙점","tel":"031-898-9160","addr":"경기도 화성시 병점동 845-2 한마음프라자 101-1호","category":"수리서비스 - 세탁소"},{"name":"투투","tel":"031-221-4413","addr":"경기도 화성시 병점동 845-2번지 한마음프라자 106호","category":"의류 - 정장"},{"name":"파머스마켓 팥집","tel":"031-895-5667","addr":"경기도 화성시 병점동 845-2번지 한마음프라자 1층 104호","category":"일반휴게음식 - 일반한식"},{"name":"파스텔키즈음악학원","tel":"031-232-7746","addr":"경기도 화성시 병점동 845-2번지 한마음프라자 501호","category":"학원 - 예·체능계학원"},{"name":"포토나인","tel":"031-232-7009","addr":"경기도 화성시 병점동 845-2번지 한마음프라자 2층 205호","category":"광학제품 - 사진관"},{"name":"푸르넷병점 중앙학원","tel":"070-4110-9907","addr":"경기도 화성시 병점동 845-2번지 한마음프라자 604호","category":"학원 - 보습학원"},{"name":"하이축산한우야","tel":"031-234-5990","addr":"경기도 화성시 병점동 845-2번지 한마음프라자 108호","category":"음료식품 - 정육점"},{"name":"헤법중국어병점학원","tel":"031-223-2113","addr":"경기도 화성시 병점동 845-2번지 한마음프라자 903호","category":"학원 - 외국어학원"},{"name":"호리커피바리스타교습소","tel":"031-234-1285","addr":"경기도 화성시 병점동 845-2번지 한마음프라자 305호","category":"학원 - 기능학원"},{"name":"호리커피컴퍼니","tel":"031-234-1285","addr":"경기도 화성시 병점동 845-2번지 한마음프라자 305호","category":"음료식품 - 기타음료식품"},{"name":"홀릭스터디카페 병점점","tel":"070-3516-7413","addr":"경기도 화성시 병점동 845-2번지 한마음프라자 202,206호","category":"용역 서비스 - 사무서비스"}]},{"lat":"37.202804316","long":"127.04109052","items":[{"name":"GRIMM ART STUDIO","tel":"031-222-4727","addr":"경기도 화성시 병점동 481번지 202호","category":"학원 - 예·체능계학원"},{"name":"모짜르트피아노학원","tel":"031-223-8779","addr":"경기도 화성시 병점동 481번지","category":"회원제형태 - 학원"},{"name":"비젼 해법영어","tel":"031-226-6302","addr":"경기도 화성시 병점동 481번지 1층 102호","category":"학원 - 외국어학원"},{"name":"아로마 종합화장품","tel":"031-203-1515","addr":"경기도 화성시 병점동 481번지 병점프라자 201호","category":"보건위생 - 화장품"},{"name":"용인대힘찬태권도 교육관","tel":"031-235-7989","addr":"경기도 화성시 병점동 481번지 3층","category":"학원 - 예·체능계학원"},{"name":"조아INT","tel":"031-226-6664","addr":"경기도 화성시 병점동 481번지 1층 105호","category":"직물 - 카페트,커튼,천막,지물"},{"name":"종이접기","tel":"031-224-5477","addr":"경기도 화성시 병점동 481번지","category":"문화.취미 - 문화취미기타"},{"name":"피자스쿨","tel":"031-222-6166","addr":"경기도 화성시 병점동 481번지 1층 일부호","category":"일반휴게음식 - 서양음식"},{"name":"한사랑 정육","tel":"02-0000-0000","addr":"경기도 화성시 병점동 481번지 1층 101호","category":"음료식품 - 정육점"},{"name":"한신문구","tel":"031-222-7947","addr":"경기도 화성시 병점동 481번지 1층 104호","category":"서적문구 - 문구용품"},{"name":"한잔할까 밥먹을까?","tel":"031-224-0109","addr":"경기도 화성시 병점동 481번지 1층 일부호","category":"일반휴게음식 - 일반한식"}]},{"lat":"37.20640962","long":"127.03734115","items":[{"name":"GS25병점1동점","tel":"02-2006-2485","addr":"경기도 화성시 병점동 366-5번지 1층","category":"유통업 영리 - 편 의 점"}]},{"lat":"37.206915059","long":"127.03425479","items":[{"name":"GS25병점역점","tel":"02-2006-2118","addr":"경기도 화성시 병점동 382-2번지 미라클프라자 103호","category":"유통업 영리 - 편 의 점"},{"name":"메가엠지씨커피병점역점","tel":"070-1111-1111","addr":"경기도 화성시 병점동 382-2번지 미라클프라자 1층 102호","category":"일반휴게음식 - 서양음식"},{"name":"면당포 병점역점","tel":"031-222-7776","addr":"경기도 화성시 병점동 382-2번지 미라클프라자 1층 104호","category":"일반휴게음식 - 일반한식"},{"name":"못난이 닭강정","tel":"031-221-4102","addr":"경기도 화성시 병점동 382-2번지 미라클프라자 108호","category":"일반휴게음식 - 스넥"},{"name":"베스트전기기술학원","tel":"031-222-5502","addr":"경기도 화성시 병점동 382-2 미라클프라자 704~705호","category":"회원제형태 - 학원"},{"name":"병점수치과의원","tel":"031-223-7528","addr":"경기도 화성시 병점동 382-2번지 미라클프라자 302호","category":"의원 - 치과의원"},{"name":"볼맨무도(댄스)학원","tel":"031-222-3668","addr":"경기도 화성시 병점동 382-2번지 미라클프라자 508호","category":"회원제형태 - 레져업소"},{"name":"비엠씨코리아경기지사","tel":"031-247-9420","addr":"경기도 화성시 병점동 382-2번지 미라클프라자 오피스밸리 235호","category":"보건위생 - 화장품"},{"name":"사임당 요양보호사교육원","tel":"031-233-1006","addr":"경기도 화성시 병점동 382-2번지 미라클프라자 504호","category":"학원 - 기능학원"},{"name":"삼채닭한마리","tel":"031-223-6721","addr":"경기도 화성시 병점동 382-2번지 미라클프라자","category":"일반휴게음식 - 일반한식"},{"name":"새참김밥","tel":"031-222-0021","addr":"경기도 화성시 병점동 382-2번지 미라클프라자 106호","category":"일반휴게음식 - 스넥"},{"name":"술집","tel":"","addr":"경기도 화성시 병점동 382-2번지 미라클프라자 1층 101호","category":"일반휴게음식 - 일반한식"},{"name":"아라한타투","tel":"031-000-0000","addr":"경기도 화성시 병점동 382-2번지 미라클프라자 107호","category":"의류 - 정장"},{"name":"어울림","tel":"031-278-7161","addr":"경기도 화성시 병점동 382-2번지 미라클프라자 212호","category":"서적문구 - 문구용품"},{"name":"역전당구장","tel":"","addr":"경기도 화성시 병점동 382-2번지 미라클 프라자 202호,203호","category":"레저업소 - 당 구 장"},{"name":"월드메드","tel":"02-6225-1282","addr":"경기도 화성시 병점동 382-2번지 미라클프라자 241호","category":"보건위생 - 의료용품"},{"name":"창림법원경매 주식회사","tel":"070-7738-9357","addr":"경기도 화성시 병점동 382-2번지 오피스밸리 230호","category":"용역 서비스 - 사무서비스"},{"name":"창림법원경매 주식회사","tel":"070-7738-9357","addr":"경기도 화성시 병점동 382-2번지 미라클프라자 오피스밸리 230호","category":"용역 서비스 - 사무서비스"},{"name":"창림법원경매 주식회사","tel":"070-7738-9357","addr":"경기도 화성시 병점동 382-2번지 오피스밸리 230호","category":"용역 서비스 - 사무서비스"},{"name":"카페커피캣","tel":"031-308-0280","addr":"경기도 화성시 병점동 382-2번지 미라클프라자 304,305,306호","category":"일반휴게음식 - 서양음식"},{"name":"커피베이","tel":"031-222-3682","addr":"경기도 화성시 병점동 382-2번지 미라클프라자 108호","category":"일반휴게음식 - 서양음식"},{"name":"클린 스토리","tel":"","addr":"경기도 화성시 병점동 382-2번지 오피스밸리 221호","category":"전기제품 - 기타전기제품"},{"name":"해피케어 화성 오산지사","tel":"031-223-3579","addr":"경기도 화성시 병점동 382-2번지 미라클프라자 3층 301호","category":"보건위생 - 기타대인서비스"}]},{"lat":"37.206104007","long":"127.03469378","items":[{"name":"GS25병점타운점","tel":"","addr":"경기도 화성시 병점동 381-23번지 1층","category":"유통업 영리 - 편 의 점"}]},{"lat":"37.199047798","long":"127.03847544","items":[{"name":"GS25병점한일점","tel":"","addr":"경기도 화성시 병점동 520번지 한일타운 상가동 101호","category":"유통업 영리 - 편 의 점"},{"name":"가마에 빠진 닭","tel":"031-256-6282","addr":"경기도 화성시 병점동 520번지 한일타운 106호","category":"일반휴게음식 - 스넥"},{"name":"꿈꾸는예술가미술학원","tel":"031-235-0800","addr":"경기도 화성시 병점동 520번지 한일타운 상가동 303호","category":"학원 - 예·체능계학원"},{"name":"꿈꾸는예술가미술학원","tel":"031-235-0800","addr":"경기도 화성시 병점동 520번지 한일타운 상가 303호","category":"학원 - 예·체능계학원"},{"name":"남도밥상","tel":"031-222-4584","addr":"경기도 화성시 병점동 520번지","category":"일반휴게음식 - 일반한식"},{"name":"엠케이 (MK)발레무용학원","tel":"031-238-3445","addr":"경기도 화성시 병점동 520번지 한일타운 상가 301호","category":"학원 - 예·체능계학원"},{"name":"예솔어린이집[아이행복]","tel":"031-232-7503","addr":"경기도 화성시 병점동 520번지 한일타운","category":"학원 - 유아원"},{"name":"용인대튼튼태권도","tel":"031-267-0069","addr":"경기도 화성시 병점동 520번지 한일타운 상가 301호","category":"학원 - 예·체능계학원"},{"name":"작은별음악학원","tel":"031-223-8344","addr":"경기도 화성시 병점동 520번지","category":"학원 - 예·체능계학원"},{"name":"치자보쌈","tel":"","addr":"경기도 화성시 병점동 520번지 한일 상가 106호","category":"일반휴게음식 - 일반한식"},{"name":"카페우리","tel":"","addr":"경기도 화성시 병점동 520번지 한일타운 303호","category":"일반휴게음식 - 서양음식"},{"name":"커텐전문점허니","tel":"031-221-5441","addr":"경기도 화성시 병점동 520번지 한일타운 상가동 102호","category":"직물 - 침구·수예점"},{"name":"한일세탁소","tel":"031-225-0012","addr":"경기도 화성시 병점동 520번지 한일타운 상가 206호","category":"수리서비스 - 세탁소"},{"name":"헤어커커","tel":"031-2365-1174","addr":"경기도 화성시 병점동 520번지 한일타운 상가동 205호","category":"보건위생 - 미용원"}]},{"lat":"37.205381711","long":"127.03975132","items":[{"name":"GS25화성태안점","tel":"080-555-2525","addr":"경기도 화성시 병점동 431-3번지 두산탑프라자 109호","category":"유통업 영리 - 편 의 점"},{"name":"국선생","tel":"031-231-9413","addr":"경기도 화성시 병점동 431-3번지 두산탑프라자 108호","category":"음료식품 - 기타음료식품"},{"name":"김가네토종순대국","tel":"031-222-2147","addr":"경기도 화성시 병점동 431-3번지 두산탑프라자 111호","category":"일반휴게음식 - 일반한식"},{"name":"김인수 발아현미김밥","tel":"031-235-0959","addr":"경기도 화성시 병점동 431-3번지 두산탑프라자 105호","category":"일반휴게음식 - 일반한식"},{"name":"돈방석","tel":"031-235-0092","addr":"경기도 화성시 병점동 431-3번지 두산탑프라자 110호","category":"일반휴게음식 - 일반한식"},{"name":"두산탑영수학원","tel":"031-235-0513","addr":"경기도 화성시 병점동 431-3번지 두산탑프라자 205호","category":"회원제형태 - 학원"},{"name":"명가통닭","tel":"031-235-6500","addr":"경기도 화성시 병점동 431-3번지 두산탑프라자 1층 102호","category":"일반휴게음식 - 스넥"},{"name":"보니따 필라테스 화성병점점","tel":"031-224-1927","addr":"경기도 화성시 병점동 431-3번지 두산탑프라자 5층 501호","category":"레저업소 - 헬스클럽"},{"name":"불독pc방","tel":"031-123-4567","addr":"경기도 화성시 병점동 431-3번지 두산탑프라자 2층","category":"레저업소 - 기타레져업소"},{"name":"빙수다","tel":"031-308-3111","addr":"경기도 화성시 병점동 431-3번지 두산탑프라자 2층 203호","category":"일반휴게음식 - 서양음식"},{"name":"서울성모이비인후과","tel":"031-239-5075","addr":"경기도 화성시 병점동 431-3번지 두산탑프라자 302호","category":"의원 - 의원"},{"name":"신청림학원","tel":"070-4337-5710","addr":"경기도 화성시 병점동 431-3번지 두산탑프라자 305,306호","category":"학원 - 보습학원"},{"name":"에이케이 피부관리샵","tel":"070-7574-8921","addr":"경기도 화성시 병점동 431-3번지 두산탑프라자 108호 일부","category":"보건위생 - 피부미용실"},{"name":"에쿠스노래연습장","tel":"031-226-6128","addr":"경기도 화성시 병점동 431-3번지 두산탈프라자 505,506호","category":"레저업소 - 노 래 방"},{"name":"예당피아노학원","tel":"031-239-5941","addr":"경기도 화성시 병점동 431-3번지 두산탑프라자 2층 206호","category":"학원 - 예·체능계학원"},{"name":"용인대탑태권도가온누리화성관","tel":"031-234-0660","addr":"경기도 화성시 병점동 431-3 두산탑프라자4층405,406호","category":"학원 - 예·체능계학원"},{"name":"우슈체육관","tel":"031-233-6593","addr":"경기도 화성시 병점동 431-3번지 두산탑프라자 3층","category":"학원 - 예·체능계학원"},{"name":"웰치과의원","tel":"031-236-2877","addr":"경기도 화성시 병점동 431-3번지 두산탑프라자 301호","category":"의원 - 치과의원"},{"name":"제니스영어학원","tel":"031-267-3450","addr":"경기도 화성시 병점동 431-3번지 두산탑프라자 303호","category":"회원제형태 - 학원"},{"name":"쥬씨 병점역2호점","tel":"031-223-6762","addr":"경기도 화성시 병점동 431-3번지 두산탑프라자 107호","category":"일반휴게음식 - 서양음식"},{"name":"착한축산 깔꾸리","tel":"031-239-9235","addr":"경기도 화성시 병점동 431-3번지 두산탑프라자 103호","category":"음료식품 - 정육점"},{"name":"커피베이 병점두산점","tel":"031-233-1489","addr":"경기도 화성시 병점동 431-3번지 두산탑프라자 104호","category":"일반휴게음식 - 서양음식"},{"name":"탑 당구장","tel":"031-235-0939","addr":"경기도 화성시 병점동 431-3번지 두산탑프라자 502,503호","category":"레저업소 - 당 구 장"},{"name":"태안약국","tel":"031-232-6637","addr":"경기도 화성시 병점동 431-3번지 두산탑프라자 106호","category":"약국 - 약국"},{"name":"현세대헤어","tel":"031-236-6730","addr":"경기도 화성시 병점동 431-3번지 두산탑프라자 204호","category":"보건위생 - 미용원"}]},{"lat":"37.208776982","long":"127.0446984","items":[{"name":"Good인정카페","tel":"031-111-1111","addr":"경기도 화성시 병점동 842-6번지 1층","category":"일반휴게음식 - 서양음식"},{"name":"굿인정 심리상담센터","tel":"","addr":"경기도 화성시 병점동 842-6번지 201호","category":"보건위생 - 기타대인서비스"}]},{"lat":"37.211129947","long":"127.0409708","items":[{"name":"IL Barista(일 바리스타)","tel":"031-1111-1111","addr":"경기도 화성시 병점동 828-4번지 1층","category":"일반휴게음식 - 서양음식"}]},{"lat":"37.214822814","long":"127.04506225","items":[{"name":"JB GYM (복싱.킥복싱.무에타이)","tel":"","addr":"경기도 화성시 병점동 847번지 안화마을우남퍼스트빌 상가A동3층301호","category":"레저업소 - 헬스클럽"},{"name":"미가인테리어","tel":"031-223-4139","addr":"경기도 화성시 병점동 847번지 안화동마을우남퍼스트빌상가 A동 102호","category":"건축자재 - 인테리어전문"},{"name":"소리엘음악학원","tel":"031-225-8807","addr":"경기도 화성시 병점동 847 안화동마을우남퍼스트빌 A-304","category":"학원 - 예·체능계학원"},{"name":"태후사랑","tel":"031-223-6212","addr":"경기도 화성시 병점동 847번지 안화마을우남퍼스트빌 A동 108-1호","category":"보건위생 - 미용원"}]},{"lat":"37.205220981","long":"127.0347272","items":[{"name":"JY쇼핑샵","tel":"031-233-9921","addr":"경기도 화성시 병점동 400-6번지 301,302호","category":"의류 - 내의판매"},{"name":"미래정신과의원","tel":"031-234-7476","addr":"경기도 화성시 병점동 400-6번지 외2필지","category":"의원 - 의원"},{"name":"미아카데미학원","tel":"031-234-2340","addr":"경기도 화성시 병점동 400-6번지 501호","category":"학원 - 기능학원"},{"name":"미앤스카이","tel":"070-7711-4040","addr":"경기도 화성시 병점동 400-6번지 5층 501호","category":"보건위생 - 미용원"},{"name":"사운드 짐 (SOUND GYM)","tel":"","addr":"경기도 화성시 병점동 400-6번지 3층 301호,302호","category":"레저업소 - 헬스클럽"},{"name":"씨유화성리치프라자점","tel":"031-231-9959","addr":"경기도 화성시 병점동 400-6번지 105호","category":"유통업 영리 - 편 의 점"},{"name":"여성시대","tel":"031-232-2223","addr":"경기도 화성시 병점동 400-6번지 1층 104호","category":"일반휴게음식 - 서양음식"},{"name":"주사랑 스튜디오","tel":"031-269-7978","addr":"경기도 화성시 병점동 400-6번지 405호","category":"광학제품 - 사진관"},{"name":"지인헤어","tel":"031-232-7776","addr":"경기도 화성시 병점동 400-6번지 101호","category":"보건위생 - 미용원"},{"name":"헤어플래닛 미넷","tel":"031-239-1002","addr":"경기도 화성시 병점동 400-6번지 리치프라자 106호","category":"보건위생 - 미용원"}]},{"lat":"37.205192528","long":"127.03963859","items":[{"name":"KGC라이프앤진","tel":"031-234-5346","addr":"경기도 화성시 병점동 431-9번지 신창프라자 303호","category":"보건위생 - 화장품"},{"name":"KGC라이프엔진","tel":"031-234-5346","addr":"경기도 화성시 병점동 431-9번지 신창프라자 206호","category":"건강식품 - 기타건강식품"},{"name":"Pilates","tel":"031-232-5150","addr":"경기도 화성시 병점동 431-9번지 신창프라자 602호","category":"레저업소 - 헬스클럽"},{"name":"경희대동산태권도장","tel":"031-233-3544","addr":"경기도 화성시 병점동 431-9번지 신창프라자 501동","category":"학원 - 예·체능계학원"},{"name":"국수나무병점역점","tel":"031-232-1310","addr":"경기도 화성시 병점동 431-9번지 신창프라자 110호","category":"일반휴게음식 - 일반한식"},{"name":"넘버원 점핑 다이어트","tel":"031-8067-5288","addr":"경기도 화성시 병점동 431-9번지 신창프라자 503호","category":"건강식품 - 기타건강식품"},{"name":"네일이야기","tel":"","addr":"경기도 화성시 병점동 431-9번지 신창프라자 1층 103호","category":"보건위생 - 피부미용실"},{"name":"더그리다뷰티","tel":"","addr":"경기도 화성시 병점동 431-9번지 신창프라자 1층 101호","category":"보건위생 - 화장품"},{"name":"더푸샵 발관리","tel":"031-233-8809","addr":"경기도 화성시 병점동 431-9번지 신창프라자 205호","category":"보건위생 - 피부미용실"},{"name":"딱이야숯불닭갈비","tel":"031-235-9283","addr":"경기도 화성시 병점동 431-9번지 신창프라자","category":"일반휴게음식 - 일반한식"},{"name":"떡부자","tel":"031-225-0059","addr":"경기도 화성시 병점동 431-9번지 신창프라자 108호","category":"음료식품 - 제과점"},{"name":"명현재학원","tel":"","addr":"경기도 화성시 병점동 431-9번지 신창프라자 601호","category":"학원 - 보습학원"},{"name":"명현재학원","tel":"070-4216-1779","addr":"경기도 화성시 병점동 431-9번지 신창프라자 601호","category":"학원 - 보습학원"},{"name":"바디퀸","tel":"031-238-8152","addr":"경기도 화성시 병점동 431-9번지 신창프라자 4층 406호","category":"레저업소 - 헬스클럽"},{"name":"번개막창","tel":"031-223-5214","addr":"경기도 화성시 병점동 431-9번지 신창프라자","category":"일반휴게음식 - 일반한식"},{"name":"병점셈수학학원","tel":"031-222-2733","addr":"경기도 화성시 병점동 431-9번지 신창프라자 405호","category":"학원 - 기타 교육기관"},{"name":"봉이치킨","tel":"031-226-9611","addr":"경기도 화성시 병점동 431-9번지 신창프라자 111호","category":"일반휴게음식 - 스넥"},{"name":"블랙앤화이트복싱","tel":"031-222-1238","addr":"경기도 화성시 병점동 431-9번지 신창프라자 501호","category":"레저업소 - 헬스클럽"},{"name":"샤론헤어샵","tel":"031-226-9139","addr":"경기도 화성시 병점동 431-9번지 신창프라자 107호","category":"보건위생 - 미용원"},{"name":"신동탄 케이지씨 라이프앤진","tel":"031-234-5346","addr":"경기도 화성시 병점동 431-9번지 신창프라자 206호","category":"보건위생 - 화장품"},{"name":"신창당구클럽","tel":"070-4133-9279","addr":"경기도 화성시 병점동 431-9번지 신창프라자304,305","category":"레저업소 - 당 구 장"},{"name":"아이스피시(PC)방","tel":"032-772-0735","addr":"경기도 화성시 병점동 431-9번지 신창프라자 3층 301호","category":"레저업소 - 기타레져업소"},{"name":"윈당구장","tel":"","addr":"경기도 화성시 병점동 431-9번지 신창프라자 304,305호","category":"레저업소 - 당 구 장"},{"name":"인 필라테스","tel":"070-7658-6967","addr":"경기도 화성시 병점동 431-9번지 신창프라자 602호","category":"레저업소 - 헬스클럽"},{"name":"정철황소곱창","tel":"031-223-5214","addr":"경기도 화성시 병점동 431-9번지 신창프라자 109호","category":"일반휴게음식 - 일반한식"},{"name":"중앙에이플러스학원","tel":"031-225-4002","addr":"경기도 화성시 병점동 431-9신창프라자4층401,402호","category":"회원제형태 - 학원"},{"name":"중앙음악학원","tel":"031-222-4476","addr":"경기도 화성시 병점동 431-9번지 신창프라자 404호","category":"학원 - 예·체능계학원"},{"name":"짱노래연습장","tel":"031-234-0607","addr":"경기도 화성시 병점동 431-9번지 신창프라자 201호","category":"레저업소 - 노 래 방"},{"name":"착한 아이스크림 (병점점)","tel":"","addr":"경기도 화성시 병점동 431-9번지 신창프라자 112호","category":"음료식품 - 기타음료식품"},{"name":"칸타타음악학원","tel":"031-222-1312","addr":"경기도 화성시 병점동 9 신창프라자 502","category":"학원 - 예·체능계학원"},{"name":"코케카페 (koke cafe)","tel":"","addr":"경기도 화성시 병점동 431-9번지 신창프라자 1층 106호","category":"일반휴게음식 - 서양음식"},{"name":"튼튼영어마스터클럽화성병점제2점학원","tel":"031-237-8205","addr":"경기도 화성시 병점동 431-9번지 신창프라자 403호","category":"학원 - 보습학원"},{"name":"펀앤점프줄넘기아카데미","tel":"031-237-1999","addr":"경기도 화성시 병점동 431-9번지 신창프라자 306호","category":"레저업소 - 기타레져업소"},{"name":"해피데이","tel":"031-234-2337","addr":"경기도 화성시 병점동 431-9번지 신창프라자 2층 204호","category":"일반휴게음식 - 주점"}]},{"lat":"37.214580023","long":"127.04366512","items":[{"name":"K뷰티실용아카데미","tel":"031-235-7955","addr":"경기도 화성시 병점동 844-5번지 리더스프라자 308동 310호","category":"학원 - 기능학원"},{"name":"네모교육","tel":"02-921-3008","addr":"경기도 화성시 병점동 844-5번지 리더스프라자 305호","category":"서적문구 - 일반서적"},{"name":"네일신","tel":"","addr":"경기도 화성시 병점동 844-5번지 리더스프라자 1층 116호","category":"보건위생 - 피부미용실"},{"name":"더벤티 화성병점점","tel":"031-225-6600","addr":"경기도 화성시 병점동 844-5번지 리더스프라자 109호","category":"일반휴게음식 - 서양음식"},{"name":"더아이래쉬","tel":"070-7530-5082","addr":"경기도 화성시 병점동 844-5번지 리더스프라자 118호","category":"보건위생 - 피부미용실"},{"name":"도서출판 제이와이(JY)","tel":"031-222-2869","addr":"경기도 화성시 병점동 844-5번지 리더스프라자 804호","category":"서적문구 - 출판 및 인쇄물"},{"name":"뚝배기 꼬마김밥","tel":"031-212-3883","addr":"경기도 화성시 병점동 844-5번지 리더스프라자 114호","category":"일반휴게음식 - 일반한식"},{"name":"롤러팡","tel":"031-234-7781","addr":"경기도 화성시 병점동 844-5번지 리더스프라자 701호~710호","category":"레저업소 - 기타레져업소"},{"name":"리더스당구클럽","tel":"031-236-0415","addr":"경기도 화성시 병점동 844-5번지 리더스프라자 501,502호","category":"레저업소 - 당 구 장"},{"name":"마성떡볶이 병점점","tel":"0707-7542-3836","addr":"경기도 화성시 병점동 844-5번지 리더스프라자 107호","category":"일반휴게음식 - 스넥"},{"name":"마성떡볶이 병정점","tel":"070-8777-3921","addr":"경기도 화성시 병점동 844-5번지 리더스프라자 1층 107호","category":"일반휴게음식 - 스넥"},{"name":"마음과인지 아동청소년 상담센터","tel":"","addr":"경기도 화성시 병점동 844-5번지 리더스프라자 805호","category":"보건위생 - 기타대인서비스"},{"name":"뮤헤어(병점점)","tel":"070-7556-9363","addr":"경기도 화성시 병점동 844-5번지 리더스프라자 103호","category":"보건위생 - 미용원"},{"name":"본가시골집뼈해장국","tel":"031-234-6664","addr":"경기도 화성시 병점동 844-5,리더스프라자2층204~205호","category":"일반휴게음식 - 일반한식"},{"name":"본미가반찬","tel":"","addr":"경기도 화성시 병점동 844-5번지 리더스프라자 115호","category":"음료식품 - 기타음료식품"},{"name":"세븐스타 코인노래연습장 병점점","tel":"031-000-0000","addr":"경기도 화성시 병점동 844-5번지 리더스프라자 206호","category":"레저업소 - 노 래 방"},{"name":"신세계i스크린골프","tel":"031-234-0755","addr":"경기도 화성시 병점동 844-5번지 301,302,303호","category":"레저업소 - 스크린골프"},{"name":"씨엔에이","tel":"031-898-5225","addr":"경기도 화성시 병점동 844-5번지 리더스프라자 105호","category":"서적문구 - 문구용품"},{"name":"아이러브제이 병점점","tel":"031-221-5118","addr":"경기도 화성시 병점동 844-5번지 리더스프라자 1층 110호","category":"의류 - 정장"},{"name":"아이센스PC방 방병점","tel":"070-4898-2545","addr":"경기도 화성시 병점동 844-5번지 리더스프라자 207호,208호","category":"레저업소 - 기타레져업소"},{"name":"엄마가 만든 옷","tel":"031-1111-1111","addr":"경기도 화성시 병점동 844-5번지 리더스프라자 113호","category":"의류 - 아동의류"},{"name":"우리떡절구","tel":"031-223-0139","addr":"경기도 화성시 병점동 844-5번지 리더스프라자 108호","category":"음료식품 - 제과점"},{"name":"웰인터네셔날","tel":"031-222-2869","addr":"경기도 화성시 병점동 844-5번지 리더스프라자 804호","category":"보건위생 - 의료용품"},{"name":"위츠커피(wits coffee)","tel":"02-1111-1111","addr":"경기도 화성시 병점동 844-5번지 리더스프라자 119,120호","category":"일반휴게음식 - 서양음식"},{"name":"유앤미","tel":"","addr":"경기도 화성시 병점동 844-5번지 리더스프라자 503호","category":"보건위생 - 기타대인서비스"},{"name":"전자담배","tel":"","addr":"경기도 화성시 병점동 844-5번지 리더스프라자 1층 121호","category":"기타 - 기타 전문점"},{"name":"쿠티스스킨케어(병점점)","tel":"031-236-0160","addr":"경기도 화성시 병점동 844-5번지 리더스프라자 504호","category":"보건위생 - 피부미용실"},{"name":"큰손매운양푼갈비찜","tel":"031-236-5060","addr":"경기도 화성시 병점동 844-5번지 외1필지 리더스프라자 206호","category":"일반휴게음식 - 일반한식"},{"name":"팝로스터스(POP ROASTERS)","tel":"031-111-1111","addr":"경기도 화성시 병점동 844-5번지 리더스프라자 906호","category":"음료식품 - 기타음료식품"},{"name":"펀앤점프 줄넘기 아카데미","tel":"031-234-9887","addr":"경기도 화성시 병점동 844-5번지 리더스프라자 306호","category":"학원 - 예·체능계학원"},{"name":"하트츄(병점점)","tel":"031-226-1231","addr":"경기도 화성시 병점동 844-5번지 리더스프라자 112호","category":"일반휴게음식 - 일반한식"},{"name":"하하교정전문치과기공소","tel":"031-221-2863","addr":"경기도 화성시 병점동 844-5번지 리더스프라자","category":"보건위생 - 의료용품"}]},{"lat":"37.20821885","long":"127.04322236","items":[{"name":"LG토탈인테리어","tel":"031-238-2251","addr":"경기도 화성시 병점동 259-13번지 103호","category":"직물 - 카페트,커튼,천막,지물"},{"name":"작은커피집","tel":"070-8866-5799","addr":"경기도 화성시 병점동 259-13번지 1층","category":"일반휴게음식 - 서양음식"},{"name":"프라임에듀영수전문학원","tel":"031-234-6744","addr":"경기도 화성시 병점동 259-13번지 2층","category":"학원 - 보습학원"}]},{"lat":"37.207158063","long":"127.03528","items":[{"name":"MS미용재료","tel":"031-237-5959","addr":"경기도 화성시 병점동 353-7번지 1층","category":"보건위생 - 미용재료"}]},{"lat":"37.213742445","long":"127.04252681","items":[{"name":"SKN간호학원","tel":"031-224-5915","addr":"경기도 화성시 병점동 844-1 씨네샤르망501호~502호","category":"회원제형태 - 학원"},{"name":"W필라테스 병점","tel":"031-223-0012","addr":"경기도 화성시 병점동 844-1번지 씨네샤르망 B동 503,504호","category":"레저업소 - 헬스클럽"},{"name":"라이브콜로세움","tel":"031-223-7089","addr":"경기도 화성시 병점동 844-1번지","category":"일반휴게음식 - 일반한식"},{"name":"미녀들의수다","tel":"031-663-0447","addr":"경기도 화성시 병점동 844-1번지 씨네샤르망 115호","category":"보건위생 - 화장품"},{"name":"브이알존 병점점","tel":"031-223-6280","addr":"경기도 화성시 병점동 844-1번지 씨네샤르망 A동 8층 804,805호","category":"레저업소 - 기타레져업소"},{"name":"샤브향화성병점","tel":"031-267-4934","addr":"경기도 화성시 병점동 844-1번지 씨네샤르망 304호","category":"일반휴게음식 - 일반한식"},{"name":"신선로","tel":"031-238-0924","addr":"경기도 화성시 병점동 844-1번지 씨네샤르망 303호","category":"일반휴게음식 - 일반한식"},{"name":"아가페치과의원","tel":"031-234-6075","addr":"경기도 화성시 병점동 844-1번지 405호","category":"의원 - 치과의원"},{"name":"에이비씨커피(ABC Coffee)","tel":"031-223-5009","addr":"경기도 화성시 병점동 844-1번지 씨네샤르망 116호","category":"일반휴게음식 - 서양음식"},{"name":"오렌즈 병점점","tel":"031-8043-1017","addr":"경기도 화성시 병점동 844-1번지 A동 1층 103호 씨네새르망","category":"보건위생 - 안경"},{"name":"올레노래연습장","tel":"031-221-0337","addr":"경기도 화성시 병점동 844-1번지 씨네샤르망 205호","category":"레저업소 - 노 래 방"},{"name":"편한바디","tel":"070-8770-5108","addr":"경기도 화성시 병점동 844-1번지 씨네샤르망 2층 206호 병점동","category":"보건위생 - 피부미용실"}]},{"lat":"37.213651716","long":"127.04435184","items":[{"name":"SKY공부방","tel":"070-5033-0443","addr":"경기도 화성시 병점동 819번지 안화동마을주공9단지 904동 1104호","category":"회원제형태 - 학원"}]},{"lat":"37.208605717","long":"127.04488981","items":[{"name":"Salong de 몽","tel":"","addr":"경기도 화성시 병점동 842-15번지 104호","category":"보건위생 - 미용원"},{"name":"스타일업","tel":"031-239-8693","addr":"경기도 화성시 병점동 842-15번지 103호","category":"의류 - 정장"},{"name":"여우미가","tel":"031-235-0718","addr":"경기도 화성시 병점동 842-15번지 1층 일부호","category":"보건위생 - 미용원"},{"name":"주공세탁소","tel":"031-232-5131","addr":"경기도 화성시 병점동 842-15번지 102호","category":"수리서비스 - 세탁소"},{"name":"타코슈","tel":"031-0000-0000","addr":"경기도 화성시 병점동 842-15번지 1층 101호","category":"일반휴게음식 - 일반한식"},{"name":"타코슈","tel":"031-234-8201","addr":"경기도 화성시 병점동 842-15번지 101호","category":"일반휴게음식 - 일식·회집"}]},{"lat":"37.206084351","long":"127.04029238","items":[{"name":"YBM해법학원","tel":"031-237-0575","addr":"경기도 화성시 병점동 317-3번지 명신프라자 B동 406호","category":"학원 - 보습학원"}]},{"lat":"37.205355629","long":"127.0365634","items":[{"name":"Young   (영미)","tel":"031-237-6626","addr":"경기도 화성시 병점동 871번지 효성해링턴플레이스 106동 105호","category":"보건위생 - 미용원"},{"name":"김밥촌","tel":"031-234-8996","addr":"경기도 화성시 병점동 871번지 병점역효성해링턴플레이스 106동 107호","category":"일반휴게음식 - 일반한식"},{"name":"밥공장","tel":"031-226-7767","addr":"경기도 화성시 병점동 871번지 병점역효성해링턴플레이스 106동 116호","category":"일반휴게음식 - 일반한식"},{"name":"앨리스안경","tel":"031-232-2322","addr":"경기도 화성시 병점동 871번지 병점역효성해링턴플레이스 106동 113호","category":"보건위생 - 안경"},{"name":"에이치앤케이필라테스(H&K Pilates)","tel":"031-225-5359","addr":"경기도 화성시 병점동 871번지 병점역효성해링턴플레이스 106동 603호","category":"레저업소 - 헬스클럽"},{"name":"종로금은거래소","tel":"031-236-8947","addr":"경기도 화성시 병점동 871번지 병점역효성해링턴플레이스 106동 104호","category":"신변잡화 - 귀금속"}]},{"lat":"37.204805446","long":"127.03844435","items":[{"name":"ZiZi Nail(지지네일)","tel":"031-224-4035","addr":"경기도 화성시 병점동 870번지 104호 118호 에스케이뷰 동제1층 상가","category":"보건위생 - 피부미용실"},{"name":"꼬지사께 화성병점점","tel":"031-221-2226","addr":"경기도 화성시 병점동 870번지 104동 1층 상가117호","category":"일반휴게음식 - 일반한식"},{"name":"노랑나비어린이집[아이행복]","tel":"031-222-8095","addr":"경기도 화성시 병점동 870번지 화성병점에스케이뷰","category":"학원 - 유아원"},{"name":"늘푸른비뇨기과의원","tel":"031-225-3977","addr":"경기도 화성시 병점동 870번지 화성병점에스케이뷰 201호 SK뷰상가","category":"의원 - 의원"},{"name":"미싱노리터&그린나래","tel":"031-255-4302","addr":"경기도 화성시 병점동 870번지 화성 병점 에스케이 뷰 105동 1층 126호","category":"신변잡화 - 기타잡화"},{"name":"병점기독교백화점","tel":"031-223-0292","addr":"경기도 화성시 병점동 870번지 화성병점에스케이뷰제상가 101동 202호","category":"서적문구 - 전문서적"},{"name":"비씨800(BC500)","tel":"031-223-7200","addr":"경기도 화성시 병점동 870번지 화성병점에스케이뷰","category":"일반휴게음식 - 서양음식"},{"name":"성진인테리어","tel":"031-222-3562","addr":"경기도 화성시 병점동 870번지 화성병점에스케이뷰 상가동 2층 204호","category":"건축자재 - 인테리어전문"},{"name":"아이리스","tel":"031-378-4590","addr":"경기도 화성시 병점동 870번지 104동상가119호화성병점에스케이뷰","category":"의류 - 정장"},{"name":"에스케이(SK)세탁소","tel":"031-238-8211","addr":"경기도 화성시 병점동 870번지 화성병점에스케이뷰 S동 129호","category":"수리서비스 - 세탁소"},{"name":"오렌지컴퓨터","tel":"031-235-1171","addr":"경기도 화성시 병점동 870번지 화성병점SKVIEW 104동 s102호","category":"사무통신 - 컴퓨터"},{"name":"제니스광고","tel":"031-238-0723","addr":"경기도 화성시 병점동 870번지 화성병점에스케이뷰 101동 상가 203호","category":"용역 서비스 - 사무서비스"},{"name":"제이에스정보통신","tel":"031-111-1111","addr":"경기도 화성시 병점동 870번지 화성병점에스케이뷰 104동 1층 상가115호","category":"전기제품 - 가전제품"},{"name":"포인트헤어","tel":"031-222-8975","addr":"경기도 화성시 병점동 870번지 104동 S120호 화성 병점 에스케이 뷰","category":"보건위생 - 미용원"}]},{"lat":"37.203607582","long":"127.03667527","items":[{"name":"autoOasis(홈플러스병점)점","tel":"031-225-7461","addr":"경기도 화성시 병점동 399-4번지","category":"자동차정비 유지 - 자동차정비"},{"name":"월드크리닝","tel":"031-239-1117","addr":"경기도 화성시 병점동 399-4번지 4층X11, YB호월드크리닝코너","category":"수리서비스 - 세탁소"},{"name":"크린매직병점점","tel":"031-246-5421","addr":"경기도 화성시 병점동 399-4번지 홈플러스 3층","category":"자동차정비 유지 - 세차장"},{"name":"플라잉볼병점점","tel":"","addr":"경기도 화성시 병점동 399-4번지 홈플러스병점점 1층 XH,Y17호","category":"일반휴게음식 - 서양음식"}]},{"lat":"37.21313739","long":"127.04640195","items":[{"name":"e-베스트학원","tel":"031-226-4333","addr":"경기도 화성시 병점동 847안화동마을우남퍼스트빌B-204","category":"학원 - 보습학원"},{"name":"샤인헤어갤러리","tel":"031-898-5700","addr":"경기도 화성시 병점동 847번지 우남퍼스트빌상가B동102호","category":"보건위생 - 미용원"}]},{"lat":"37.207634739","long":"127.03833303","items":[{"name":"가르텐카페","tel":"070-4190-8827","addr":"경기도 화성시 병점동 356-10번지 1층","category":"일반휴게음식 - 서양음식"}]},{"lat":"37.214435942","long":"127.04341719","items":[{"name":"가마로강정 병점점","tel":"031-222-5659","addr":"경기도 화성시 병점동 844-4번지 센타프라자 101-1","category":"일반휴게음식 - 일반한식"},{"name":"고래노래연습장","tel":"031-238-0903","addr":"경기도 화성시 병점동 844-4번지 센타프라자","category":"레저업소 - 노 래 방"},{"name":"당신의 필라테스","tel":"","addr":"경기도 화성시 병점동 844-4번지 센터프라자 5층 506호","category":"레저업소 - 헬스클럽"},{"name":"더블유아로마","tel":"","addr":"경기도 화성시 병점동 844-4번지 센타프라자 2층 201호","category":"보건위생 - 화장품"},{"name":"동대문보다 싸고 이쁜옷집","tel":"031-8003-7219","addr":"경기도 화성시 병점동 844-4번지 센터프라자 1층 104호","category":"의류 - 정장"},{"name":"버나비헤어","tel":"031-233-3998","addr":"경기도 화성시 병점동 844-4번지 센타프라자 2층 202호","category":"보건위생 - 미용원"},{"name":"병점씨앤씨미술학원","tel":"031-221-1213","addr":"경기도 화성시 병점동 844-4번지 센타프라자 7층 701-703호","category":"학원 - 예·체능계학원"},{"name":"비씨엠","tel":"031-898-8948","addr":"경기도 화성시 병점동 844-4번지 센타프라자 103호","category":"신변잡화 - 신발"},{"name":"아이닉스PC방2","tel":"","addr":"경기도 화성시 병점동 844-4번지 센타프라자 403~404호","category":"레저업소 - 기타레져업소"},{"name":"어촌","tel":"031-401-8803","addr":"경기도 화성시 병점동 844-4번지 센타프라자 106,107,108호","category":"일반휴게음식 - 일반한식"},{"name":"자연나무 미술학원","tel":"031-235-0123","addr":"경기도 화성시 병점동 844-4번지 센타프라자 504호 센터프라자","category":"학원 - 예·체능계학원"},{"name":"장호덕손만두 병점점","tel":"031-236-2999","addr":"경기도 화성시 병점동 844-4번지 센타프라자 1층 101호","category":"일반휴게음식 - 스넥"},{"name":"주식회사헤럴드어학원","tel":"031-233-0500","addr":"경기도 화성시 병점동 844-4번지 센타프라자 8층","category":"회원제형태 - 학원"},{"name":"지아앤우니","tel":"031-222-5089","addr":"경기도 화성시 병점동 844-4번지 센타프라자 105호 센터프라자제1층","category":"신변잡화 - 액세서리"},{"name":"태안고시텔","tel":"031-222-3407","addr":"경기도 화성시 병점동 844-4번지 센타프라자 604호~606호","category":"학원 - 독서실"},{"name":"프라임영수학원","tel":"031-221-8413","addr":"경기도 화성시 병점동 844-4번지 센타프라자 601호","category":"학원 - 보습학원"},{"name":"허슬러당구장","tel":"031-222-6430","addr":"경기도 화성시 병점동 844-4번지 센타프라자 601호","category":"레저업소 - 당 구 장"}]},{"lat":"37.204967837","long":"127.03775728","items":[{"name":"가미감자탕","tel":"031-232-0330","addr":"경기도 화성시 병점동 406-1번지","category":"일반휴게음식 - 스넥"},{"name":"뚜레쥬르 병점금강(4)","tel":"031-222-5479","addr":"경기도 화성시 병점동 406-1번지 금강타운 102호,103호","category":"음료식품 - 제과점"},{"name":"우리치과의원","tel":"031-223-2899","addr":"경기도 화성시 병점동 406-1번지 금강빌딩 4층","category":"의원 - 치과의원"},{"name":"폰할인마트3","tel":"","addr":"경기도 화성시 병점동 406-1번지 금강빌딩","category":"사무통신 - 통신기기"}]},{"lat":"37.214273859","long":"127.04311292","items":[{"name":"가산기업","tel":"031-226-8477","addr":"경기도 화성시 병점동 844-3번지 브이타운원 1층 111호","category":"유통업 영리 - 기타유통업"},{"name":"고피자 화성병점","tel":"031-000-0000","addr":"경기도 화성시 병점동 844-3번지 이타운4 1층 103호","category":"일반휴게음식 - 서양음식"},{"name":"그린필피부관리실","tel":"031-267-2621","addr":"경기도 화성시 병점동 844-3번지 이-타운4 903호","category":"회원제형태 - 기타4"},{"name":"네일몬스터","tel":"","addr":"경기도 화성시 병점동 844-3번지 이타운4 5층 501호","category":"보건위생 - 미용재료"},{"name":"네일몬스터","tel":"","addr":"경기도 화성시 병점동 844-3번지 이타운4 5층 501호","category":"보건위생 - 미용재료"},{"name":"린지네일","tel":"031-235-9901","addr":"경기도 화성시 병점동 844-3번지 이다운4 110호","category":"보건위생 - 피부미용실"},{"name":"마이스타일(My Style)","tel":"070-4082-7480","addr":"경기도 화성시 병점동 844-3번지 이타운4 1층 107호","category":"의류 - 정장"},{"name":"벨톤보청기 화성지사","tel":"031-222-5725","addr":"경기도 화성시 병점동 844-3번지 이타운4 301호","category":"보건위생 - 의료용품"},{"name":"비에스(B.S.)","tel":"031-000-0000","addr":"경기도 화성시 병점동 844-3번지 이타운4 1동 802-1호","category":"전기제품 - 기타전기제품"},{"name":"빙과식당","tel":"","addr":"경기도 화성시 병점동 844-3번지 이타운4 2층 207호","category":"일반휴게음식 - 일반한식"},{"name":"씨유화성병점타운점","tel":"031-225-7446","addr":"경기도 화성시 병점동 844-3번지 e-TOWN4 E동 106호","category":"유통업 영리 - 편 의 점"},{"name":"오키즈","tel":"031-237-5906","addr":"경기도 화성시 병점동 844-3번지 이-타운4 105호","category":"의류 - 정장"},{"name":"육지호식당","tel":"031-221-2387","addr":"경기도 화성시 병점동 844-3번지 e-TOWN4 109호","category":"일반휴게음식 - 일반한식"},{"name":"이루뷰티","tel":"031-233-8716","addr":"경기도 화성시 병점동 844-3번지 이타운4 3층 310호","category":"보건위생 - 피부미용실"},{"name":"주식회사 공오콜라병점","tel":"031-236-0107","addr":"경기도 화성시 병점동 844-3번지 이타운4 104호","category":"의류 - 정장"},{"name":"치킨몬스터","tel":"031-238-1022","addr":"경기도 화성시 병점동 844-3번지 E동 TOWN4호 108","category":"일반휴게음식 - 스넥"},{"name":"카이론 화성동탄점","tel":"031-898-8223","addr":"경기도 화성시 병점동 844-3번지 E동 TOWN4호 209호","category":"회원제형태 - 학원"},{"name":"키즈비","tel":"031-234-5906","addr":"경기도 화성시 병점동 844-3번지 E타운 4동 105호","category":"의류 - 아동의류"},{"name":"파시안","tel":"031-237-4488","addr":"경기도 화성시 병점동 844-3번지 406동 E-TOWN","category":"수리서비스 - 사무·통신기기수리"},{"name":"한솔대대전용클럽","tel":"","addr":"경기도 화성시 병점동 844-3번지 6층 604,605호","category":"레저업소 - 당 구 장"},{"name":"홀릭","tel":"031-225-9551","addr":"경기도 화성시 병점동 844-3번지 e-TOWN4 109호","category":"일반휴게음식 - 일반한식"}]},{"lat":"37.200328265","long":"127.03500675","items":[{"name":"가위이야기","tel":"070-7425-4545","addr":"경기도 화성시 병점동 555-5번지 그랜드빌라 403호","category":"보건위생 - 미용재료"}]},{"lat":"37.202047327","long":"127.0414506","items":[{"name":"건사랑","tel":"031-204-8772","addr":"경기도 화성시 병점동 490-2번지 하이코아 101호","category":"일반휴게음식 - 주점"},{"name":"교짱닷컴","tel":"031-222-8770","addr":"경기도 화성시 병점동 490-2번지 하이코아 104호","category":"학원 - 기타 교육기관"},{"name":"레드헤어","tel":"031-233-3688","addr":"경기도 화성시 병점동 490-2번지 하이코아 101호","category":"보건위생 - 미용원"},{"name":"바디앤피트","tel":"031-222-0178","addr":"경기도 화성시 병점동 490-2번지 하이코아 502호","category":"레저업소 - 헬스클럽"},{"name":"병점뉴욕치과의원","tel":"031-221-1110","addr":"경기도 화성시 병점동 490-2번지 하이코아빌딩 301호","category":"의원 - 치과의원"},{"name":"블럭아이태안송화교육원","tel":"031-239-9273","addr":"경기도 화성시 병점동 490-2 하이코아빌딩 402-1","category":"학원 - 기타 교육기관"},{"name":"산길어린이집[아이행복]","tel":"031-235-5569","addr":"경기도 화성시 병점동 490-2번지 하이코아 105호","category":"학원 - 유아원"},{"name":"쌤통수학학원","tel":"031-226-4569","addr":"경기도 화성시 병점동 490-2번지 하이코아 501호","category":"학원 - 보습학원"},{"name":"씨애플독서실","tel":"031-236-9929","addr":"경기도 화성시 병점동 490-2번지 하이코아 402,403호","category":"학원 - 독서실"},{"name":"씨유병점한신점","tel":"031-239-6693","addr":"경기도 화성시 병점동 490-2번지 하이코아 101호","category":"유통업 영리 - 편 의 점"},{"name":"아이조아","tel":"031-222-2535","addr":"경기도 화성시 병점동 490-2번지 하이코아 2층 202호,203호,204호","category":"레저업소 - 기타레져업소"},{"name":"엠비씨휘트니스(MBC fitness)","tel":"031-234-1553","addr":"경기도 화성시 병점동 490-2번지 하이코아 404호","category":"레저업소 - 헬스클럽"},{"name":"오복제과","tel":"031-234-1735","addr":"경기도 화성시 병점동 490-2번지 하이코아 102호","category":"음료식품 - 제과점"},{"name":"우리동네분식대장","tel":"031-222-2127","addr":"경기도 화성시 병점동 490-2번지 하이코아 103호","category":"일반휴게음식 - 스넥"},{"name":"유림한의원","tel":"031-222-7535","addr":"경기도 화성시 병점동 490-2번지 하이코아 303호","category":"의원 - 한의원"},{"name":"윤선생영어숲(송화센타)","tel":"031-898-5988","addr":"경기도 화성시 병점동 490-2번지 하이코아 401호","category":"학원 - 보습학원"},{"name":"잉글리시아이해법수학학원","tel":"031-232-2090","addr":"경기도 화성시 병점동 490-2번지 하이코아 201호","category":"학원 - 보습학원"},{"name":"헨델N음악영제학원","tel":"031-239-7765","addr":"경기도 화성시 병점동 490-2번지","category":"학원 - 예·체능계학원"}]},{"lat":"37.204607628","long":"127.03704745","items":[{"name":"게이트원 위더스","tel":"031-217-7721","addr":"경기도 화성시 병점동 871번지 병점역효성해링턴플레이스 107동 110호","category":"의류 - 정장"},{"name":"당당국수","tel":"070-7543-9479","addr":"경기도 화성시 병점동 871번지 병점역효성해링턴플레이스 107동 104호","category":"일반휴게음식 - 일반한식"},{"name":"뮤즈헤어","tel":"031-253-7565","addr":"경기도 화성시 병점동 871번지 병점역효성해링턴플레이스 107동 204호","category":"보건위생 - 미용원"},{"name":"병점베스트치과의원","tel":"070-8269-9016","addr":"경기도 화성시 병점동 871번지 병점역효성해링턴플레이스 107동 201호","category":"의원 - 치과의원"},{"name":"병점중앙약국","tel":"031-232-1114","addr":"경기도 화성시 병점동 871번지 병점역효성해링턴플레이스 107동 203호","category":"약국 - 약국"},{"name":"보그헤어 (병점역점)","tel":"031-235-7117","addr":"경기도 화성시 병점동 871번지 병점역효성해링턴플레이스 107동 120호","category":"보건위생 - 미용원"},{"name":"뷰티인","tel":"031-8002-7708","addr":"경기도 화성시 병점동 871번지 병점역효성해링턴플레이스 107동 212호","category":"보건위생 - 피부미용실"},{"name":"씨유병점인텔리안점","tel":"031-223-7737","addr":"경기도 화성시 병점동 871번지 병점역해링턴플레이스 107동 107호, 108호","category":"유통업 영리 - 편 의 점"},{"name":"에듀코딩앤아이티학원","tel":"","addr":"경기도 화성시 병점동 871번지 병점역효성해링턴플레이스 107동 202호","category":"학원 - 기능학원"},{"name":"카페하루","tel":"","addr":"경기도 화성시 병점동 871번지 병점역효성해링턴플레이스 107동 208호","category":"일반휴게음식 - 서양음식"},{"name":"현진렌트서비스","tel":"","addr":"경기도 화성시 병점동 871번지 효성해링턴플레이스 107동 622호","category":"보건위생 - 기타대인서비스"}]},{"lat":"37.207856909","long":"127.04748036","items":[{"name":"경기금거래소","tel":"031-892-4431","addr":"경기도 화성시 병점동 858 정든마을신창2차비바패밀리상가112","category":"신변잡화 - 귀금속"},{"name":"곱창친구들","tel":"031-243-0625","addr":"경기도 화성시 병점동 858번지 정든마을신창2차비바패밀리 상가동 112호","category":"일반휴게음식 - 스넥"},{"name":"글로벌인재학원","tel":"031-2222-2222","addr":"경기도 화성시 병점동 858번지 정든마을신창2차비바패밀리 208호","category":"학원 - 외국어학원"},{"name":"데일리헤어","tel":"031-111-1111","addr":"경기도 화성시 병점동 858번지 정든마을신창2차비바패밀리 1층 110호","category":"보건위생 - 미용원"},{"name":"듀오음악학원","tel":"031-223-5214","addr":"경기도 화성시 병점동 858번지 상가 304,305호","category":"학원 - 예·체능계학원"},{"name":"분반","tel":"031-223-2343","addr":"경기도 화성시 병점동 858번지 정든마을신창2차비바패밀리 1층 103호","category":"일반휴게음식 - 일반한식"},{"name":"산골통닭","tel":"031-222-1778","addr":"경기도 화성시 병점동 858번지 신창2차 상가 101호","category":"일반휴게음식 - 스넥"},{"name":"수스펀글리쉬튜토링(Sues funglish tutorin","tel":"","addr":"경기도 화성시 병점동 858번지 정든마을신창2차비바패밀리 주상가동 214호","category":"학원 - 외국어학원"},{"name":"신창세탁소","tel":"031-223-6020","addr":"경기도 화성시 병점동 858번지 정든마을신창2차비바패밀리 주상가 213호","category":"수리서비스 - 세탁소"},{"name":"신창해법수학교습소","tel":"031-233-0988","addr":"경기도 화성시 병점동 858번지 정든마을신창2차비바패밀리 상가동 210호","category":"학원 - 보습학원"},{"name":"알찬수학학원","tel":"031-309-2449","addr":"경기도 화성시 병점동 858번지 상가동 301,302호","category":"학원 - 보습학원"},{"name":"엘리스미용실","tel":"031-221-0046","addr":"경기도 화성시 병점동 858번지 정든마을신창2차비바패밀리 상가 1동 111호","category":"보건위생 - 미용원"},{"name":"연세나로국어논술","tel":"031-223-9977","addr":"경기도 화성시 병점동 858번지 신창비바훼밀리2차 상가동 203호","category":"학원 - 보습학원"},{"name":"올가뷰티","tel":"031-0000-0000","addr":"경기도 화성시 병점동 858번지 주 상가동 114호","category":"보건위생 - 화장품"},{"name":"우성영어학원","tel":"031-223-3912","addr":"경기도 화성시 병점동 858번지 신창2차비바훼밀리 주상가동 303,304호","category":"학원 - 보습학원"},{"name":"윤선생영어교실 병점교육센터","tel":"031-224-0575","addr":"경기도 화성시 병점동 858번지 정든마을신창2차비바패밀리 1동 306호","category":"학원 - 학습지 교육"},{"name":"윤선생우리집앞영어교실병점신창2영어교습","tel":"031-235-0582","addr":"경기도 화성시 병점동 858 정든마을신창2차 비바패밀리상가 202호","category":"학원 - 외국어학원"},{"name":"잉크가이미래점","tel":"031-236-2982","addr":"경기도 화성시 병점동 858번지 정든마을신창2차비바패밀리 상가 116호","category":"사무통신 - 기타 사무용품"},{"name":"정든마트","tel":"031-235-1793","addr":"경기도 화성시 병점동 858번지 정든마을 신창2차 상가-216","category":"유통업 영리 - 슈퍼마켓"},{"name":"정든어린이집[아이행복]","tel":"031-309-3091","addr":"경기도 화성시 병점동 858번지 신창비바훼밀리2차 1층 관리동","category":"학원 - 유아원"},{"name":"제이네일 (J nail)","tel":"031-223-2365","addr":"경기도 화성시 병점동 858번지 정든마을 신창2차 비바패밀리 상가 1동 201호","category":"보건위생 - 피부미용실"},{"name":"카페루킨 (CAFE LOOKIN')","tel":"031-225-8997","addr":"경기도 화성시 병점동 858번지 정든마을신창2차비바패밀리 상가동 1층 102호","category":"일반휴게음식 - 서양음식"},{"name":"크리스탈헤어샵","tel":"031-224-2022","addr":"경기도 화성시 병점동 858번지 정든마을신창2차비바패밀리 주상가 204호","category":"보건위생 - 미용원"},{"name":"크린매니아","tel":"031-221-2205","addr":"경기도 화성시 병점동 858번지 정든마을신창2차비바패밀리 주상가 116호","category":"수리서비스 - 세탁소"},{"name":"투다리","tel":"031-225-8263","addr":"경기도 화성시 병점동 858 신창2차상가 205호~206호","category":"일반휴게음식 - 주점"},{"name":"행컵병점점","tel":"031-111-1111","addr":"경기도 화성시 병점동 858번지 정든마을 신창2차 비바패밀리 상가 1동 105호","category":"일반휴게음식 - 스넥"},{"name":"희망수학교습소","tel":"031-224-0615","addr":"경기도 화성시 병점동 858번지 정든마을신창2차비바패밀리 211,212호상가동","category":"학원 - 보습학원"}]},{"lat":"37.21377504","long":"127.05175363","items":[{"name":"경희대라이언태권도장","tel":"031-231-9307","addr":"경기도 화성시 병점동 203-5번지 2층","category":"학원 - 예·체능계학원"},{"name":"늘해랑학원","tel":"031-221-6603","addr":"경기도 화성시 병점동 203-5번지","category":"학원 - 보습학원"},{"name":"생생해물찜","tel":"031-284-5070","addr":"경기도 화성시 병점동 203-5번지 1층","category":"일반휴게음식 - 일반한식"},{"name":"플랙스 파워 짐","tel":"031-231-9307","addr":"경기도 화성시 병점동 203-5번지 3층","category":"레저업소 - 헬스클럽"}]},{"lat":"37.205994251","long":"127.04028107","items":[{"name":"경희대정우태권도장","tel":"031-222-2561","addr":"경기도 화성시 병점동 317-3 명신프라자제비동402호~403호","category":"학원 - 예·체능계학원"},{"name":"경희동수한의원","tel":"031-236-1075","addr":"경기도 화성시 병점동 317-3번지 명신프라자 비이동 307-1호","category":"의원 - 한의원"},{"name":"병점하나치과의원","tel":"031-234-4228","addr":"경기도 화성시 병점동 317-3번지 명신프라자 3층 306호","category":"의원 - 치과의원"},{"name":"블럭아카데미(화성병점점)","tel":"031-893-0770","addr":"경기도 화성시 병점동 317-3번지 명신프라자 202호","category":"서적문구 - 완구점"},{"name":"서울참소아과의원","tel":"031-232-6275","addr":"경기도 화성시 병점동 317-3번지 명신프라자 308호","category":"의원 - 의원"},{"name":"아기곰약국","tel":"031-236-6602","addr":"경기도 화성시 병점동 317-3번지 명신프라자 201호","category":"약국 - 약국"},{"name":"예인검도관","tel":"031-234-9247","addr":"경기도 화성시 병점동 317-3번지 명신프라자 407호","category":"학원 - 예·체능계학원"},{"name":"왕이비인후과의원","tel":"031-223-3717","addr":"경기도 화성시 병점동 317-3번지 명신프라자 302동 303호","category":"의원 - 의원"},{"name":"투다리 태안점","tel":"031-234-6113","addr":"경기도 화성시 병점동 317-3번지 명신프라자 205호","category":"일반휴게음식 - 일반한식"},{"name":"필노래연습장","tel":"031-225-2309","addr":"경기도 화성시 병점동 317-3번지 명신프라자 B2층 B3호","category":"레저업소 - 노 래 방"},{"name":"핑크엔젤","tel":"031-236-5513","addr":"경기도 화성시 병점동 317-3번지 명신프라자 307-2","category":"의류 - 아동의류"},{"name":"하마약국","tel":"031-231-8875","addr":"경기도 화성시 병점동 317-3번지 명신프라자 304호","category":"약국 - 약국"},{"name":"한사랑내과의원","tel":"031-237-8475","addr":"경기도 화성시 병점동 317-3번지 명신프라자 3층","category":"의원 - 의원"},{"name":"현대휘트니스","tel":"031-233-8999","addr":"경기도 화성시 병점동 317-3번지 명신프라자 4층","category":"레저업소 - 헬스클럽"}]},{"lat":"37.213720455","long":"127.05300412","items":[{"name":"고금기객잔","tel":"031-222-0957","addr":"경기도 화성시 병점동 210번지 ,1,2층","category":"일반휴게음식 - 중국식"}]},{"lat":"37.208436602","long":"127.03853617","items":[{"name":"고기향기나는집","tel":"031-226-9338","addr":"경기도 화성시 병점동 345-56번지","category":"일반휴게음식 - 일반한식"}]},{"lat":"37.208076556","long":"127.03728558","items":[{"name":"고바우황금족발","tel":"031-898-9982","addr":"경기도 화성시 병점동 348-16번지","category":"일반휴게음식 - 일반한식"}]},{"lat":"37.205553096","long":"127.03914311","items":[{"name":"고봉민김밥인병점주공1단지점","tel":"031-233-2615","addr":"경기도 화성시 병점동 432번지 107호","category":"일반휴게음식 - 일반한식"},{"name":"신전떡볶이","tel":"031-232-2204","addr":"경기도 화성시 병점동 432번지","category":"일반휴게음식 - 스넥"},{"name":"참좋은사람들","tel":"031-234-9009","addr":"경기도 화성시 병점동 432번지 103호","category":"음료식품 - 제과점"},{"name":"햇님한의원","tel":"031-221-0072","addr":"경기도 화성시 병점동 432번지 1층","category":"의원 - 한의원"},{"name":"훼미리화장품","tel":"031-233-8861","addr":"경기도 화성시 병점동 432번지","category":"보건위생 - 화장품"}]},{"lat":"37.205553341","long":"127.03833205","items":[{"name":"고향꽃식물원","tel":"031-222-3638","addr":"경기도 화성시 병점동 361-10번지 대창 상가 101호","category":"문화.취미 - 화원"},{"name":"수에스테틱","tel":"","addr":"경기도 화성시 병점동 361-10번지 대창 상가 201호","category":"보건위생 - 피부미용실"}]},{"lat":"37.206245966","long":"127.04206103","items":[{"name":"골든벨독서실","tel":"031-233-1567","addr":"경기도 화성시 병점동 292번지 4층 405호 태안병점V-TOWN II","category":"학원 - 독서실"},{"name":"공간샘스터디카페 병점점","tel":"","addr":"경기도 화성시 병점동 292번지 2층 201,205호","category":"용역 서비스 - 사무서비스"},{"name":"구봉사우나","tel":"031-231-2310","addr":"경기도 화성시 병점동 292번지 태안병점브이타운 110호","category":"보건위생 - 사우나"},{"name":"구봉사우나이용원","tel":"041-541-7555","addr":"경기도 화성시 병점동 292번지 구봉사우나이용원","category":"보건위생 - 이용원"},{"name":"다이아 네일아트 전문학원","tel":"031-238-1117","addr":"경기도 화성시 병점동 292번지 태안병점브이타운 406호","category":"학원 - 기능학원"},{"name":"따뜻한11월학원","tel":"031-226-1115","addr":"경기도 화성시 병점동 292번지 태안병점브이타운 409호","category":"학원 - 보습학원"},{"name":"맛당","tel":"031-239-3280","addr":"경기도 화성시 병점동 292번지 브이타운2상가 103호","category":"일반휴게음식 - 일반한식"},{"name":"미라보","tel":"031-234-8912","addr":"경기도 화성시 병점동 292번지 병점V-TOWN109호","category":"보건위생 - 화장품"},{"name":"밀가촌국수","tel":"031-205-0332","addr":"경기도 화성시 병점동 292번지 외15필지태안병점V-TOWN 2동 105호","category":"일반휴게음식 - 일반한식"},{"name":"병점스마트러닝센터학원","tel":"031-236-3771","addr":"경기도 화성시 병점동 292번지 203호 204","category":"회원제형태 - 학원"},{"name":"봉구스밥버거 병점점","tel":"031-234-5094","addr":"경기도 화성시 병점동 292번지 태안병점V-TOWN2 101호","category":"일반휴게음식 - 스넥"},{"name":"스터디플래닛병점독서실","tel":"031-548-0191","addr":"경기도 화성시 병점동 292번지 307,308,309호","category":"학원 - 독서실"},{"name":"에프엑스학원","tel":"031-898-5109","addr":"경기도 화성시 병점동 292번지 브이타운 2406호","category":"학원 - 보습학원"},{"name":"영구스피자","tel":"031-297-0982","addr":"경기도 화성시 병점동 292번지 외5필지태안병점V타운 102호","category":"일반휴게음식 - 서양음식"},{"name":"용쌤수학전문학원","tel":"031-235-0088","addr":"경기도 화성시 병점동 292번지 태안병점브이타운 3층 310호","category":"학원 - 보습학원"},{"name":"이엠학원","tel":"031-225-1402","addr":"경기도 화성시 병점동 292번지 태안병점브이타운 4층 402호","category":"학원 - 보습학원"},{"name":"정샘역사교습소","tel":"031-232-0643","addr":"경기도 화성시 병점동 292번지 태안병점브이타운 4층 403호","category":"학원 - 보습학원"},{"name":"카페토이즈(cafe toys)","tel":"031-258-7577","addr":"경기도 화성시 병점동 292번지 태안병점브이타운 106층","category":"일반휴게음식 - 서양음식"},{"name":"팀맥스(TeamMax)학원","tel":"031-235-6900","addr":"경기도 화성시 병점동 292번지 태안병점브이타운 408호","category":"학원 - 보습학원"},{"name":"프리머스에듀학원","tel":"031-223-1105","addr":"경기도 화성시 병점동 292번지 태안병점브이타운 3층 311호","category":"학원 - 보습학원"},{"name":"프린스턴학원","tel":"031-234-6687","addr":"경기도 화성시 병점동 292번지 태안병점브이타운 401호","category":"회원제형태 - 학원"},{"name":"한사람 뷰티","tel":"031-236-1836","addr":"경기도 화성시 병점동 292번지 외 15필지 1층 107호","category":"보건위생 - 피부미용실"},{"name":"헤어in","tel":"031-236-1848","addr":"경기도 화성시 병점동 292번지 태안병점브이타운 104호","category":"보건위생 - 미용원"}]},{"lat":"37.214048438","long":"127.04358597","items":[{"name":"골프나인틴 스크린골프","tel":"031-237-0219","addr":"경기도 화성시 병점동 846번지 태안프라자314호~315호 314호","category":"회원제형태 - 레져업소"},{"name":"끼니PLUS","tel":"070-4200-9910","addr":"경기도 화성시 병점동 846번지 태안프라자 217,218호","category":"일반휴게음식 - 일반한식"},{"name":"디와이골프아카데미","tel":"","addr":"경기도 화성시 병점동 846번지 태안프라자 8~11층","category":"레저업소 - 스크린골프"},{"name":"뚝백","tel":"031-221-3735","addr":"경기도 화성시 병점동 846번지 태안프라자 116호, 117호","category":"일반휴게음식 - 일반한식"},{"name":"뜨락","tel":"031-233-4591","addr":"경기도 화성시 병점동 846번지 태안프라자 114동 115호","category":"일반휴게음식 - 일반한식"},{"name":"로하스 노래연습장","tel":"031-278-7161","addr":"경기도 화성시 병점동 846번지 태안프라자 201호","category":"레저업소 - 노 래 방"},{"name":"바삭","tel":"070-4348-2445","addr":"경기도 화성시 병점동 846번지 120,121호","category":"일반휴게음식 - 서양음식"},{"name":"버클리","tel":"070-7151-9915","addr":"경기도 화성시 병점동 846번지 태안프라자 207호","category":"일반휴게음식 - 주점"},{"name":"보드람치킨병점점","tel":"031-223-0118","addr":"경기도 화성시 병점동 846번지 태안프라자 127호","category":"일반휴게음식 - 주점"},{"name":"살롱드수salon de soo","tel":"031-223-3677","addr":"경기도 화성시 병점동 846번지 태안프라자 118동 1층 119호","category":"보건위생 - 미용원"},{"name":"스카이뮤직","tel":"031-225-0157","addr":"경기도 화성시 병점동 846번지 태안프라자 210호","category":"용역 서비스 - 종합용역"},{"name":"스카이살롱","tel":"031-233-3450","addr":"경기도 화성시 병점동 846번지 태안프라자 101호","category":"보건위생 - 미용원"},{"name":"시네마노래연습장","tel":"031-224-8828","addr":"경기도 화성시 병점동 846태안프라자212~213호","category":"레저업소 - 노 래 방"},{"name":"우리헤어","tel":"031-221-5083","addr":"경기도 화성시 병점동 846번지","category":"보건위생 - 미용원"},{"name":"좋은친구들","tel":"031-222-4003","addr":"경기도 화성시 병점동 846번지 태안프라자 124호","category":"일반휴게음식 - 서양음식"},{"name":"주식회사 예본파워텍","tel":"031-353-9801","addr":"경기도 화성시 병점동 846번지 태안프라자 5층 501호","category":"자동차정비 유지 - 주차장"},{"name":"커피에반하다","tel":"031-233-7151","addr":"경기도 화성시 병점동 846번지 태안프라자 102호","category":"일반휴게음식 - 서양음식"},{"name":"한마음스크린","tel":"031-236-0070","addr":"경기도 화성시 병점동 846번지 태안프라자 304,305호","category":"회원제형태 - 레져업소"},{"name":"해인사","tel":"031-292-7132","addr":"경기도 화성시 병점동 846번지 태안프라자 208호","category":"보건위생 - 기타대인서비스"},{"name":"해피유통","tel":"031-222-2946","addr":"경기도 화성시 병점동 846번지 태안프라자 306,307","category":"의류 - 아동의류"},{"name":"헤어마지코","tel":"031-238-8070","addr":"경기도 화성시 병점동 846번지 태안프라자 101호","category":"보건위생 - 미용원"}]},{"lat":"37.214858044","long":"127.04728169","items":[{"name":"공간디자인","tel":"031-305-8651","addr":"경기도 화성시 병점동 848 안화동마을주공상가 104","category":"건축자재 - 인테리어전문"},{"name":"예쁜머리","tel":"031-238-2347","addr":"경기도 화성시 병점동 848번지 안화동마을주공8단지 제가상가동 1층 105호","category":"보건위생 - 미용원"},{"name":"처갓집양념치킨병점점","tel":"031-222-7292","addr":"경기도 화성시 병점동 848번지 안화동마을주공8단지 상가동 106호","category":"일반휴게음식 - 스넥"}]},{"lat":"37.21402711","long":"127.0522833","items":[{"name":"광동상사","tel":"031-232-6403","addr":"경기도 화성시 병점동 206-2","category":"음료식품 - 기타음료식품"}]},{"lat":"37.209388609","long":"127.04765024","items":[{"name":"광일정보컴퓨터","tel":"02-1111-1111","addr":"경기도 화성시 병점동 858번지 신창비바훼밀리2차 202동 602호","category":"사무통신 - 컴퓨터"}]},{"lat":"37.20657948","long":"127.04166693","items":[{"name":"교육그룹와이케이학원","tel":"031-239-0584","addr":"경기도 화성시 병점동 313-4번지 태성빌딩 5층","category":"학원 - 보습학원"},{"name":"드림안경","tel":"031-234-1242","addr":"경기도 화성시 병점동 313-4번지 태성빌딩 101호","category":"보건위생 - 안경"},{"name":"리치헤어","tel":"031-224-2852","addr":"경기도 화성시 병점동 313-4번지 외4필지태성빌딩 108호","category":"보건위생 - 미용원"},{"name":"뮤직앤조이학원","tel":"031-239-1184","addr":"경기도 화성시 병점동 313-4번지 태성빌딩 405호","category":"학원 - 예·체능계학원"},{"name":"민짐","tel":"070-7152-7872","addr":"경기도 화성시 병점동 313-4번지 태성빌딩 305호","category":"레저업소 - 헬스클럽"},{"name":"본가매운등갈비찜&백반","tel":"031-273-2333","addr":"경기도 화성시 병점동 313-4번지 태성빌딩 2층 202호","category":"일반휴게음식 - 일반한식"},{"name":"뿌리깊은학원","tel":"031-221-6997","addr":"경기도 화성시 병점동 313-4번지 태성빌딩 401호","category":"학원 - 보습학원"},{"name":"색종이","tel":"031-232-6623","addr":"경기도 화성시 병점동 313-4번지 태성빌딩 1층 106호","category":"서적문구 - 문구용품"},{"name":"샛밥이야기","tel":"031-232-6208","addr":"경기도 화성시 병점동 313-4번지 대성빌딩 105호","category":"일반휴게음식 - 스넥"},{"name":"숲미술학원","tel":"031-239-4784","addr":"경기도 화성시 병점동 313-4번지 태성빌딩 400호","category":"학원 - 예·체능계학원"},{"name":"아람태권도장","tel":"031-231-2559","addr":"경기도 화성시 병점동 313-4번지 태성빌딩 4층 404호","category":"학원 - 예·체능계학원"},{"name":"아이지에이마트 병점본점","tel":"031-768-0708","addr":"경기도 화성시 병점동 313-4번지 105호 외4필지태성빌딩","category":"유통업 영리 - 편 의 점"},{"name":"이삭토스트 병점2호점","tel":"031-225-2212","addr":"경기도 화성시 병점동 313-4번지 태성빌딩","category":"일반휴게음식 - 서양음식"},{"name":"전티마이베트남쌀국수 병점점","tel":"070-4763-5091","addr":"경기도 화성시 병점동 313-4번지 태성빌딩 107호","category":"일반휴게음식 - 서양음식"},{"name":"한마음약국","tel":"031-233-7675","addr":"경기도 화성시 병점동 313-4번지 태성빌딩 1층 109호","category":"약국 - 약국"}]},{"lat":"37.208416646","long":"127.0444729","items":[{"name":"교육그룹지인학원","tel":"031-225-2299","addr":"경기도 화성시 병점동 842-17번지 2층","category":"학원 - 보습학원"},{"name":"뻥튀기 공작소 병점점","tel":"","addr":"경기도 화성시 병점동 842-17번지 1층 104호","category":"음료식품 - 기타음료식품"},{"name":"전통떡사랑","tel":"031-222-3397","addr":"경기도 화성시 병점동 842-17번지","category":"음료식품 - 제과점"},{"name":"제노헤어","tel":"031-000-0000","addr":"경기도 화성시 병점동 842-17번지 103호","category":"보건위생 - 미용원"},{"name":"지인서적","tel":"031-225-2299","addr":"경기도 화성시 병점동 842-17번지 201호","category":"회원제형태 - 서적"}]},{"lat":"37.206136921","long":"127.04475327","items":[{"name":"구봉용인대태권도","tel":"031-231-9669","addr":"경기도 화성시 병점동 863-2번지 그린프라자 3층 301호","category":"학원 - 예·체능계학원"}]},{"lat":"37.205416031","long":"127.04492184","items":[{"name":"구봉초등학교병설유치원[아이행복]","tel":"031-225-8329","addr":"경기도 화성시 병점동 862번지","category":"학원 - 유치원"}]},{"lat":"37.210887129","long":"127.03950616","items":[{"name":"굽네치킨 병점2동점","tel":"031-234-6633","addr":"경기도 화성시 병점동 826-3번지 1층 101호","category":"일반휴게음식 - 스넥"},{"name":"먹보돌판삼겹","tel":"031-238-5288","addr":"경기도 화성시 병점동 826-3번지","category":"일반휴게음식 - 일반한식"}]},{"lat":"37.205246988","long":"127.03833191","items":[{"name":"굿디자인","tel":"031-235-5600","addr":"경기도 화성시 병점동 407-4번지 창명빌딩 104호","category":"건축자재 - 인테리어전문"},{"name":"머리못하는집화성점","tel":"031-231-9914","addr":"경기도 화성시 병점동 407-4번지 106호","category":"보건위생 - 미용원"},{"name":"병점비비큐치킨1호점","tel":"031-222-8181","addr":"경기도 화성시 병점동 407-4번지","category":"일반휴게음식 - 서양음식"},{"name":"본죽","tel":"031-231-1788","addr":"경기도 화성시 병점동 407-4번지 103호","category":"일반휴게음식 - 일반한식"},{"name":"스터디센터(카페)","tel":"031-239-0979","addr":"경기도 화성시 병점동 407-4번지 창명빌딩","category":"용역 서비스 - 사무서비스"},{"name":"온더데스크병점센터독서실","tel":"031-239-0979","addr":"경기도 화성시 병점동 407-4번지 창명빌딩 2층 일부","category":"학원 - 독서실"},{"name":"와이비엠시스템학원","tel":"031-234-0678","addr":"경기도 화성시 병점동 창명빌딩4층","category":"학원 - 보습학원"},{"name":"크린토피아 화성병점점","tel":"031-233-2050","addr":"경기도 화성시 병점동 407-4번지 창명빌딩 101호","category":"수리서비스 - 세탁소"},{"name":"피엠푸드 병점진안점","tel":"031-233-8255","addr":"경기도 화성시 병점동 407-4번지 창명빌딩 108호","category":"일반휴게음식 - 일반한식"},{"name":"행복한밥상","tel":"070-4250-1838","addr":"경기도 화성시 병점동 407-4번지 105호","category":"음료식품 - 기타음료식품"}]},{"lat":"37.201885052","long":"127.04172085","items":[{"name":"그래미음악학원","tel":"031-232-8575","addr":"경기도 화성시 병점동 491-1번지 임광프라자 401호","category":"학원 - 예·체능계학원"},{"name":"바른요가수련원","tel":"031-224-0396","addr":"경기도 화성시 병점동 491-1번지 임광프라자 5층","category":"회원제형태 - 레져업소"},{"name":"블로우징","tel":"","addr":"경기도 화성시 병점동 491-1번지 임광프라자 201호","category":"레저업소 - 헬스클럽"},{"name":"카페오레","tel":"","addr":"경기도 화성시 병점동 491-1번지 임광프라자","category":"일반휴게음식 - 서양음식"},{"name":"퀸헤어","tel":"031-224-5110","addr":"경기도 화성시 병점동 491-1번지 임광프라자 102호","category":"보건위생 - 미용원"},{"name":"파워점핑다이어트","tel":"","addr":"경기도 화성시 병점동 491-1번지 임광프라자 3층 301호","category":"건강식품 - 기타건강식품"},{"name":"해법영어병점송화학원","tel":"031-236-8505","addr":"경기도 화성시 병점동 491-1번지 임광프라자 301호","category":"회원제형태 - 학원"}]},{"lat":"37.207662382","long":"127.03622648","items":[{"name":"그린노래연습장","tel":"031-237-6052","addr":"경기도 화성시 병점동 348-4번지 그린시티 B01호","category":"레저업소 - 노 래 방"},{"name":"김밥천국 병점점","tel":"031-267-1060","addr":"경기도 화성시 병점동 348-4번지 그린시티 102호","category":"일반휴게음식 - 스넥"},{"name":"라움헤어살롱","tel":"031-305-0552","addr":"경기도 화성시 병점동 348-4번지 그린씨티 1층 104호","category":"보건위생 - 미용원"},{"name":"런앤존PC방","tel":"070-8282-7436","addr":"경기도 화성시 병점동 348-4번지 그린씨티 B02~B02-1호","category":"레저업소 - 기타레져업소"},{"name":"마약먹태","tel":"031-221-9225","addr":"경기도 화성시 병점동 348-4번지 그린씨티 1층 109호","category":"일반휴게음식 - 주점"},{"name":"미니스톱병점역점","tel":"031-1577-9621","addr":"경기도 화성시 병점동 348-4번지 그린씨티 1층 101호","category":"유통업 영리 - 편 의 점"},{"name":"미담원","tel":"031-234-4942","addr":"경기도 화성시 병점동 348-4번지 그린씨티 107호","category":"음료식품 - 기타음료식품"},{"name":"바운스7080","tel":"031-222-0410","addr":"경기도 화성시 병점동 348-4번지 그린씨티 2층 201호","category":"일반휴게음식 - 일반한식"},{"name":"별밤","tel":"031-238-3222","addr":"경기도 화성시 병점동 348-4번지 그린씨티 1층 105호","category":"일반휴게음식 - 주점"},{"name":"병점김밥나라","tel":"","addr":"경기도 화성시 병점동 348-4번지 그린씨티 110호","category":"일반휴게음식 - 스넥"},{"name":"사단법인 풀잎문화연합회 병점지부","tel":"031-892-6204","addr":"경기도 화성시 병점동 348-4번지 그린씨티 207-2호","category":"문화.취미 - 문화취미기타"},{"name":"소피아헤어숍","tel":"031-222-8920","addr":"경기도 화성시 병점동 348-4번지 그린시티 203호","category":"보건위생 - 미용원"},{"name":"수원 과일바구니 배달 과일런","tel":"031-267-0882","addr":"경기도 화성시 병점동 348-4번지","category":"보건위생 - 기타대인서비스"},{"name":"아론","tel":"031-233-5978","addr":"경기도 화성시 병점동 348-4번지 그린씨티 202-1호","category":"보건위생 - 화장품"},{"name":"장안순대국","tel":"031-239-2359","addr":"경기도 화성시 병점동 348-4번지 그린씨티 1층 111호","category":"일반휴게음식 - 일반한식"},{"name":"코끼리약국","tel":"031-224-6123","addr":"경기도 화성시 병점동 348-4번지 외2필지그린씨티1층108호","category":"약국 - 약국"},{"name":"태안건강원","tel":"031-237-8009","addr":"경기도 화성시 병점동 348-4번지 그린씨티 114호","category":"건강식품 - 기타건강식품"},{"name":"화성전골","tel":"031-238-9787","addr":"경기도 화성시 병점동 348-4번지 그린씨티 113호","category":"일반휴게음식 - 일반한식"}]},{"lat":"37.207506495","long":"127.04476529","items":[{"name":"그린빌어린이집[아이행복]","tel":"031-233-8852","addr":"경기도 화성시 병점동 859번지 느치미마을주공4단지 408동 102호","category":"학원 - 유아원"}]},{"lat":"37.213661291","long":"127.04270702","items":[{"name":"글그림","tel":"","addr":"경기도 화성시 병점동 844-1번지 씨네샤르망 B동 301호","category":"서적문구 - 일반서적"},{"name":"노아의영어학원","tel":"032-231-1511","addr":"경기도 화성시 병점동 844-1번지 씨네샤르망 B동 406호","category":"회원제형태 - 학원"},{"name":"대동철물","tel":"031-225-1162","addr":"경기도 화성시 병점동 844-1번지 씨네샤르망 B동 1층 111호","category":"건축자재 - 목재·석재·철물"},{"name":"도서출판 별똥별","tel":"031-221-7887","addr":"경기도 화성시 병점동 844-1번지 씨네샤르망 B동 301호","category":"서적문구 - 출판 및 인쇄물"},{"name":"동네방네스시","tel":"031-236-0489","addr":"경기도 화성시 병점동 844-1번지 씨네샤르망 B동 2층 202호","category":"일반휴게음식 - 일반한식"},{"name":"떡보의하루병점.동탄점","tel":"031-236-4407","addr":"경기도 화성시 병점동 844-1씨네샤르망B동1층103","category":"일반휴게음식 - 스넥"},{"name":"라비앙로즈","tel":"","addr":"경기도 화성시 병점동 844-1번지 씨네샤르망 B동 1층 101호","category":"의류 - 정장"},{"name":"마스터에이치","tel":"031-111-1111","addr":"경기도 화성시 병점동 844-1번지 씨네샤르망 B동 201호","category":"보건위생 - 미용재료"},{"name":"마스터에이치","tel":"","addr":"경기도 화성시 병점동 844-1번지 씨네샤르망 B동 201호","category":"보건위생 - 미용원"},{"name":"미뇽헤어","tel":"031-234-5812","addr":"경기도 화성시 병점동 844-1번지 씨네샤르망 B동 115호","category":"보건위생 - 미용원"},{"name":"백설공조","tel":"02-1577-3913","addr":"경기도 화성시 병점동 844-1번지 씨네샤르망 B동 802호","category":"용역 서비스 - 기타용역서비스"},{"name":"분식먹자","tel":"031-221-3309","addr":"경기도 화성시 병점동 844-1번지 씨네샤르망 B동 107호","category":"일반휴게음식 - 스넥"},{"name":"서희헤어#","tel":"031-233-7488","addr":"경기도 화성시 병점동 844-1번지 씨네샤르망 B동 1층 108호","category":"보건위생 - 미용원"},{"name":"수빈네일","tel":"031-324-6998","addr":"경기도 화성시 병점동 844-1번지 씨네샤르망 B동 104호","category":"보건위생 - 피부미용실"},{"name":"시네마독서실","tel":"031-226-3366","addr":"경기도 화성시 병점동 844-1번지 씨네샤르망 B동 403호","category":"학원 - 독서실"},{"name":"어바웃테니스아카데미","tel":"031-0000-0000","addr":"경기도 화성시 병점동 844-1번지 씨네샤르망 B동 701호","category":"레저업소 - 테니스장"},{"name":"어반블랙","tel":"031-237-1428","addr":"경기도 화성시 병점동 844-1번지 씨네샤르망 B동 103호","category":"의류 - 정장"},{"name":"완벽한두뇌학습코칭학원","tel":"031-256-4526","addr":"경기도 화성시 병점동 844-1번지 씨네샤르망 B동 506호","category":"회원제형태 - 학원"},{"name":"요천묘","tel":"","addr":"경기도 화성시 병점동 844-1번지 씨네샤르망 B동 1층 102호","category":"의류 - 정장"},{"name":"우리정육식당","tel":"031-238-9232","addr":"경기도 화성시 병점동 844-1번지 씨네샤르망 B동 1층 109호","category":"일반휴게음식 - 일반한식"},{"name":"우리축산물직거래자처","tel":"031-238-9233","addr":"경기도 화성시 병점동 844-1번지 씨네샤르망 B동 105호","category":"음료식품 - 정육점"},{"name":"유앤미메디컬학원","tel":"031-223-2289","addr":"경기도 화성시 병점동 844-1번지 씨네샤르망 B동 202호","category":"학원 - 기능학원"},{"name":"정가네깐쇼새우","tel":"","addr":"경기도 화성시 병점동 844-1번지 씨네샤르망 B동 112호","category":"일반휴게음식 - 중국식"},{"name":"준스튜디오","tel":"031-267-1205","addr":"경기도 화성시 병점동 844-1번지 씨네샤르망 B동 2층 204호","category":"용역 서비스 - 사무서비스"},{"name":"커브스 병점클럽","tel":"032-267-1330","addr":"경기도 화성시 병점동 844-1번지 씨네샤르망 B동 207호","category":"레저업소 - 헬스클럽"},{"name":"한국심리상담센터","tel":"031-221-4234","addr":"경기도 화성시 병점동 844-1번지 씨네샤르망 B동 505호","category":"보건위생 - 기타대인서비스"}]},{"lat":"37.206408437","long":"127.04119372","items":[{"name":"김밥천국","tel":"031-267-3434","addr":"경기도 화성시 병점동 314번지","category":"일반휴게음식 - 스넥"},{"name":"꼬꼬마","tel":"031-281-2870","addr":"경기도 화성시 병점동 314번지 진영빌딩 104호","category":"의류 - 아동의류"},{"name":"멋쟁이패션","tel":"031-239-3283","addr":"경기도 화성시 병점동 314번지 진영빌딩 104호","category":"의류 - 캐주얼의류"},{"name":"병점스터디독서실","tel":"031-239-0803","addr":"경기도 화성시 병점동 314번지","category":"학원 - 독서실"},{"name":"우리집 닭강정 병점점","tel":"031-232-5666","addr":"경기도 화성시 병점동 314번지 진영빌딩 102호","category":"일반휴게음식 - 스넥"},{"name":"제이(J)헤어","tel":"070-8111-9429","addr":"경기도 화성시 병점동 314번지 진영빌딩 104호","category":"보건위생 - 미용원"}]},{"lat":"37.208076328","long":"127.03806287","items":[{"name":"까스타","tel":"031-267-0305","addr":"경기도 화성시 병점동 345-88번지","category":"일반휴게음식 - 일반한식"},{"name":"부여 통닭 병점점","tel":"031-222-1546","addr":"경기도 화성시 병점동 345-88번지 101,102","category":"일반휴게음식 - 일반한식"}]},{"lat":"37.205193156","long":"127.03755462","items":[{"name":"까페,나무아래","tel":"031-232-2417","addr":"경기도 화성시 병점동 365-5번지 2층","category":"일반휴게음식 - 서양음식"},{"name":"육대가정육","tel":"031-222-0169","addr":"경기도 화성시 병점동 365-5번지 102호","category":"음료식품 - 정육점"},{"name":"청춘감성쌀핫도그병점점","tel":"031-111-1111","addr":"경기도 화성시 병점동 365-5번지","category":"일반휴게음식 - 서양음식"}]},{"lat":"37.204715267","long":"127.03869213","items":[{"name":"꼬마때때(뽕샴)","tel":"070-4696-8619","addr":"경기도 화성시 병점동 870번지 화성병점 SK뷰 상가동 105동 126호","category":"의류 - 정장"},{"name":"모가비180도","tel":"031-234-5916","addr":"경기도 화성시 병점동 870번지 화성병점에스케이뷰 105동 S127호","category":"보건위생 - 미용원"},{"name":"인투(INTO)헤어","tel":"031-234-5124","addr":"경기도 화성시 병점동 870번지 화성병점에스케이뷰 105동 124호","category":"보건위생 - 미용원"},{"name":"인형마루","tel":"031-223-2237","addr":"경기도 화성시 병점동 870번지 화성병점에스케이뷰 105동 1층 123호","category":"직물 - 침구·수예점"},{"name":"컬러하우스","tel":"070-8174-5653","addr":"경기도 화성시 병점동 870번지 화성병점에스케이뷰 105동 128호","category":"보건위생 - 미용원"}]},{"lat":"37.207743149","long":"127.03736428","items":[{"name":"꼴통생골뱅이","tel":"031-226-4501","addr":"경기도 화성시 병점동 348-25번지 마루빌딩 101호","category":"일반휴게음식 - 일반한식"},{"name":"마루스포렉스","tel":"031-222-7989","addr":"경기도 화성시 병점동 348-25번지","category":"레저업소 - 볼 링 장"},{"name":"마루실업","tel":"031-223-2288","addr":"경기도 화성시 병점동 348-25번지","category":"레저업소 - 골프연습장"}]},{"lat":"37.208218727","long":"127.04358284","items":[{"name":"꽃밭에서","tel":"031-232-9223","addr":"경기도 화성시 병점동 259-14번지 1층","category":"문화.취미 - 화원"},{"name":"더키월드","tel":"031-225-1383","addr":"경기도 화성시 병점동 259-14번지","category":"건축자재 - 목재·석재·철물"},{"name":"블루클럽","tel":"031-221-0884","addr":"경기도 화성시 병점동 259-14번지 외1필지","category":"보건위생 - 미용원"},{"name":"아이퍼스트학원","tel":"031-225-2974","addr":"경기도 화성시 병점동 259-14번지 영환빌딩 2층","category":"학원 - 보습학원"},{"name":"커피마실시간","tel":"031-308-0403","addr":"경기도 화성시 병점동 259-14번지 103호","category":"일반휴게음식 - 서양음식"},{"name":"코디샵","tel":"070-4159-3347","addr":"경기도 화성시 병점동 259-14번지 104호","category":"유통업 영리 - 기타유통업"},{"name":"한올디자인,인테리어","tel":"031-233-2005","addr":"경기도 화성시 병점동 259-14번지 106호","category":"직물 - 카페트,커튼,천막,지물"}]},{"lat":"37.214245801","long":"127.0460308","items":[{"name":"꿈음악연습실","tel":"031-222-6333","addr":"경기도 화성시 병점동 847번지 안화마을우남퍼스트빌 상가 에이동 2층 206호","category":"용역 서비스 - 사무서비스"},{"name":"디자인클럽","tel":"031-224-5293","addr":"경기도 화성시 병점동 847 우남퍼스트빌에이상가 106","category":"보건위생 - 미용원"},{"name":"뮤엠영어안화학원","tel":"031-898-5105","addr":"경기도 화성시 병점동 847번지 B동 202호 203호 안화동마을우남퍼스트빌제상가","category":"회원제형태 - 학원"},{"name":"큰빛어린이집[아이행복]","tel":"031-890-5568","addr":"경기도 화성시 병점동 847번지","category":"학원 - 유아원"}]},{"lat":"37.209274848","long":"127.03759029","items":[{"name":"끝밋머리","tel":"031-224-9280","addr":"경기도 화성시 병점동 345-126번지 1층","category":"보건위생 - 미용원"}]},{"lat":"37.207049295","long":"127.03755547","items":[{"name":"나나네일","tel":"031-226-0705","addr":"경기도 화성시 병점동 356-36번지 B01호","category":"보건위생 - 피부미용실"},{"name":"미담김밥","tel":"031-9526-9669","addr":"경기도 화성시 병점동 356-36번지 지1층 B02호","category":"일반휴게음식 - 스넥"},{"name":"앙포레 모리노헤어","tel":"031-237-3580","addr":"경기도 화성시 병점동 356-36번지","category":"보건위생 - 미용원"}]},{"lat":"37.207662598","long":"127.03544919","items":[{"name":"나의사진실","tel":"031-234-2968","addr":"경기도 화성시 병점동 349-22번지","category":"광학제품 - 사진관"},{"name":"저스코전자담배","tel":"031-8806-7400","addr":"경기도 화성시 병점동 349-22번지","category":"기타 - 기타 전문점"}]},{"lat":"37.207356582","long":"127.03419865","items":[{"name":"나이스가이","tel":"031-236-3994","addr":"경기도 화성시 병점동 383-5번지 1층","category":"보건위생 - 미용원"},{"name":"애플메이트 병점아이폰수리센터","tel":"","addr":"경기도 화성시 병점동 383-5번지 1층","category":"수리서비스 - 사무·통신기기수리"}]},{"lat":"37.208659731","long":"127.04502502","items":[{"name":"나이스클럽","tel":"031-223-7610","addr":"경기도 화성시 병점동 842-14번지 104호","category":"보건위생 - 미용원"},{"name":"삼부자축산","tel":"031-898-8844","addr":"경기도 화성시 병점동 842-14번지","category":"음료식품 - 정육점"},{"name":"에스티피 수학교습소","tel":"031-223-1105","addr":"경기도 화성시 병점동 842-14번지 승빌딩 202호 일부","category":"학원 - 보습학원"}]},{"lat":"37.20819154","long":"127.04403343","items":[{"name":"나진숙헤어","tel":"031-233-4434","addr":"경기도 화성시 병점동 842-20번지 1층 101호","category":"보건위생 - 미용원"},{"name":"레드구공","tel":"031-226-3050","addr":"경기도 화성시 병점동 842-20번지 1층 102호","category":"일반휴게음식 - 서양음식"},{"name":"뷰티#","tel":"031-225-4661","addr":"경기도 화성시 병점동 842-20번지 2층 202호","category":"보건위생 - 피부미용실"}]},{"lat":"37.207221391","long":"127.03433377","items":[{"name":"남도전","tel":"031-225-8366","addr":"경기도 화성시 병점동 382-16번지 105호","category":"일반휴게음식 - 일반한식"},{"name":"마니김밥","tel":"031-234-3090","addr":"경기도 화성시 병점동 382-16번지 103호","category":"일반휴게음식 - 스넥"}]},{"lat":"37.206635151","long":"127.036395","items":[{"name":"남원추어탕","tel":"031-232-5735","addr":"경기도 화성시 병점동 380-1번지","category":"일반휴게음식 - 일반한식"},{"name":"다인","tel":"031-223-7085","addr":"경기도 화성시 병점동 380-1번지","category":"의류 - 정장"},{"name":"안개꽃사랑","tel":"","addr":"경기도 화성시 병점동 380-1번지 2층 일부호","category":"일반휴게음식 - 주점"},{"name":"열린호프","tel":"031-224-7783","addr":"경기도 화성시 병점동 380-1번지","category":"일반휴게음식 - 주점"}]},{"lat":"37.206859927","long":"127.03806231","items":[{"name":"네네치킨병점1호점","tel":"031-234-9986","addr":"경기도 화성시 병점동 361-3번지 덕성빌딩 101호","category":"일반휴게음식 - 스넥"},{"name":"예쁜뜨락","tel":"031-304-0132","addr":"경기도 화성시 병점동 361-3번지 덕성빌딩 105호","category":"문화.취미 - 문화취미기타"},{"name":"제니스타 힐링포유병점1동점","tel":"031-3160-0863","addr":"경기도 화성시 병점동 361-3번지 덕성빌딩 102호","category":"보건위생 - 피부미용실"}]},{"lat":"37.208632935","long":"127.04436036","items":[{"name":"네일 쁨","tel":"031-235-7776","addr":"경기도 화성시 병점동 842-4번지 1층","category":"보건위생 - 피부미용실"},{"name":"추억의포차","tel":"031-232-7198","addr":"경기도 화성시 병점동 842-4번지 1층 일부호","category":"일반휴게음식 - 주점"},{"name":"치요남치킨(치킨과요리의만남)","tel":"031-225-8860","addr":"경기도 화성시 병점동 842-4번지 1층 일부호","category":"일반휴게음식 - 일반한식"}]},{"lat":"37.214462645","long":"127.04436355","items":[{"name":"네일탐","tel":"031-224-7978","addr":"경기도 화성시 병점동 845-1번지 이타운3 110호","category":"보건위생 - 피부미용실"},{"name":"동양체형교정연구소","tel":"031-233-9800","addr":"경기도 화성시 병점동 845-1번지 이타운3 406호","category":"보건위생 - 기타대인서비스"},{"name":"또봉이통닭병점점","tel":"031-224-7198","addr":"경기도 화성시 병점동 845-1번지 e-TOWN3 107호","category":"일반휴게음식 - 스넥"},{"name":"불닭발동대문엽기떡볶이병점점","tel":"031-235-8593","addr":"경기도 화성시 병점동 845-1번지 108 e-Town3","category":"일반휴게음식 - 일반한식"},{"name":"손발공주","tel":"031-223-9934","addr":"경기도 화성시 병점동 845-1번지 이타운3 209호","category":"보건위생 - 화장품"},{"name":"수에스테틱","tel":"","addr":"경기도 화성시 병점동 845-1번지 이타운3 309호","category":"보건위생 - 피부미용실"},{"name":"스마트디스플레이","tel":"070-8221-9770","addr":"경기도 화성시 병점동 845-1 이타운3.303","category":"전기제품 - 가전제품"},{"name":"알로(alo)","tel":"031-222-9567","addr":"경기도 화성시 병점동 845-1번지 E동 TOWN-31층 105","category":"의류 - 정장"},{"name":"엘지인테리어","tel":"031-221-1181","addr":"경기도 화성시 병점동 845-1번지 이타운3 103호","category":"건축자재 - 인테리어전문"},{"name":"영광기업","tel":"031-235-5559","addr":"경기도 화성시 병점동 845-1번지 e-TOWN3 902호","category":"용역 서비스 - 기타용역서비스"},{"name":"이즈미스시","tel":"031-221-1325","addr":"경기도 화성시 병점동 845-1번지 e-TOWN3 1층 109호","category":"일반휴게음식 - 일반한식"},{"name":"잉글리쉬팩토리영어교습소","tel":"070-8093-8210","addr":"경기도 화성시 병점동 845-1번지 이타운3 505호","category":"학원 - 외국어학원"},{"name":"주식회사 마담비","tel":"031-000-0000","addr":"경기도 화성시 병점동 845-1번지 이타운쓰리 602호","category":"신변잡화 - 기타잡화"},{"name":"지우코퍼레이션","tel":"031-227-0855","addr":"경기도 화성시 병점동 845-1번지 태안병점이타운쓰리 2층 205호","category":"의류 - 아동의류"},{"name":"컬러앤컷","tel":"031-231-9321","addr":"경기도 화성시 병점동 845-1번지 이타운3 104호","category":"보건위생 - 미용원"},{"name":"퀸&퀸 피부&바디","tel":"031-222-5532","addr":"경기도 화성시 병점동 845-1번지 이타운3 5층 506호","category":"보건위생 - 피부미용실"},{"name":"파파츠","tel":"031-267-4793","addr":"경기도 화성시 병점동 845-1번지 태안병점이타운쓰리 8층 801호","category":"전기제품 - 기타전기제품"},{"name":"푸른체험여행","tel":"031-258-3090","addr":"경기도 화성시 병점동 845-1번지 이타운3 607호","category":"용역 서비스 - 사무서비스"},{"name":"하이테크/원격지","tel":"031-237-2563","addr":"경기도 화성시 병점동 845-1번지 이-타운 902호","category":"기타 - 기타 전문점"}]},{"lat":"37.206273746","long":"127.03972923","items":[{"name":"노가리&Beer","tel":"031-232-1510","addr":"경기도 화성시 병점동 811번지 1,층","category":"일반휴게음식 - 일반한식"},{"name":"대박횟집","tel":"031-237-5954","addr":"경기도 화성시 병점동 811번지 병점프라자 1층 104호","category":"일반휴게음식 - 일식·회집"},{"name":"병점한의원","tel":"031-232-1075","addr":"경기도 화성시 병점동 811번지 병점프라자 2층","category":"의원 - 한의원"},{"name":"비발디","tel":"031-233-6199","addr":"경기도 화성시 병점동 811번지 병점프라자 3층 1호","category":"레저업소 - 노 래 방"},{"name":"청풍숯불갈비","tel":"031-239-0741","addr":"경기도 화성시 병점동 811번지","category":"일반휴게음식 - 일반한식"}]},{"lat":"37.200776551","long":"127.04239613","items":[{"name":"노란손수건","tel":"031-000-0000","addr":"경기도 화성시 병점동 501-5번지","category":"일반휴게음식 - 서양음식"}]},{"lat":"37.206714059","long":"127.04339053","items":[{"name":"노리놀이미술교습소","tel":"","addr":"경기도 화성시 병점동 860번지 구봉마을우남퍼스트빌 101호","category":"학원 - 예·체능계학원"}]},{"lat":"37.21083236","long":"127.04172544","items":[{"name":"노리아트미술교습소","tel":"031-236-5678","addr":"경기도 화성시 병점동 830-2번지 101호","category":"학원 - 예·체능계학원"},{"name":"목운실내조경","tel":"031-8003-4063","addr":"경기도 화성시 병점동 830-2번지 1층 102호","category":"건축자재 - 인테리어전문"}]},{"lat":"37.205499353","long":"127.0380842","items":[{"name":"누가의료기(병점점)","tel":"031-223-4266","addr":"경기도 화성시 병점동 364번지 글로리아빌딩 2층 202호","category":"보건위생 - 의료용품"},{"name":"라이또피씨(PC)방 병점점","tel":"070-7140-2222","addr":"경기도 화성시 병점동 364번지 글로리아빌딩 3층","category":"레저업소 - 기타레져업소"},{"name":"매일거기노래연습장","tel":"031-225-1247","addr":"경기도 화성시 병점동 364번지 글로리아빌딩 201호","category":"레저업소 - 노 래 방"},{"name":"영광철물","tel":"031-234-7177","addr":"경기도 화성시 병점동 364번지 글로리아빌딩","category":"건축자재 - 목재·석재·철물"},{"name":"영광철물(글로리아)","tel":"031-234-7177","addr":"경기도 화성시 병점동 364번지","category":"기타 - 기계공구"},{"name":"이츠굿병점점","tel":"031-267-1001","addr":"경기도 화성시 병점동 364번지 글로리아빌딩 1층 일부호","category":"일반휴게음식 - 일반한식"}]},{"lat":"37.201191493","long":"127.04097707","items":[{"name":"누리봄어린이집[아이행복]","tel":"031-8001-6211","addr":"경기도 화성시 병점동 872번지 화성병점양우내안애 104동 104호","category":"학원 - 유아원"}]},{"lat":"37.207662177","long":"127.03694744","items":[{"name":"늘푸른헤어샵","tel":"031-235-3297","addr":"경기도 화성시 병점동 348-23번지","category":"보건위생 - 미용원"},{"name":"대복","tel":"031-221-4525","addr":"경기도 화성시 병점동 348-23번지 104,105호","category":"일반휴게음식 - 중국식"},{"name":"대복짬뽕","tel":"031-221-4525","addr":"경기도 화성시 병점동 348-23번지 1층 103호","category":"일반휴게음식 - 중국식"},{"name":"이모네주물럭","tel":"031-000-0000","addr":"경기도 화성시 병점동 348-23번지 1층 102호","category":"일반휴게음식 - 일반한식"},{"name":"장수본가해장국","tel":"031-225-6265","addr":"경기도 화성시 병점동 348-23번지 1층 101호","category":"일반휴게음식 - 일반한식"}]},{"lat":"37.212325145","long":"127.04983753","items":[{"name":"다다닭","tel":"031-232-1599","addr":"경기도 화성시 병점동 850번지 안화동마을주공6단지 103호","category":"일반휴게음식 - 일반한식"},{"name":"돼지랑닭구이","tel":"031-237-8474","addr":"경기도 화성시 병점동 850번지 안화동마을주공6단지 105호","category":"일반휴게음식 - 일반한식"},{"name":"보예미안헤어","tel":"031-237-6161","addr":"경기도 화성시 병점동 850 안화동마을상가 104","category":"보건위생 - 미용원"},{"name":"주공마트","tel":"031-237-2250","addr":"경기도 화성시 병점동 850 인화동마을 상가-101","category":"유통업 영리 - 슈퍼마켓"},{"name":"찰리미용실","tel":"031-237-4222","addr":"경기도 화성시 병점동 850주공6단지상가201호일부","category":"보건위생 - 미용원"},{"name":"콜수선","tel":"031-224-5527","addr":"경기도 화성시 병점동 850번지 안화동마을주공6단지 203호","category":"수리서비스 - 세탁소"},{"name":"피니치니","tel":"031-238-3332","addr":"경기도 화성시 병점동 850번지 안화동마을주공6단지 상가동 102호","category":"일반휴게음식 - 스넥"}]},{"lat":"37.208857847","long":"127.04534056","items":[{"name":"다모아토바코","tel":"070-7452-4957","addr":"경기도 화성시 병점동 842-11번지 102호","category":"신변잡화 - 기타잡화"},{"name":"더봄","tel":"031-222-0034","addr":"경기도 화성시 병점동 842-11번지","category":"가구 - 기타가구"},{"name":"매코미통닭발","tel":"031-238-8930","addr":"경기도 화성시 병점동 842-11번지 101호","category":"일반휴게음식 - 일반한식"},{"name":"방방스타","tel":"031-233-3123","addr":"경기도 화성시 병점동 842-11번지 2층","category":"레저업소 - 기타레져업소"},{"name":"비손인테리어","tel":"031-233-0507","addr":"경기도 화성시 병점동 842-11번지 104호","category":"직물 - 카페트,커튼,천막,지물"}]},{"lat":"37.212478688","long":"127.04890256","items":[{"name":"다빈유통","tel":"031-231-9066","addr":"경기도 화성시 병점동 850번지 안화동마을주공6단지 605동 303호","category":"유통업 영리 - 기타유통업"},{"name":"주식회사엠에스종합물류","tel":"031-232-2352","addr":"경기도 화성시 병점동 850번지 안화동마을주공6단지 605동 1004호","category":"용역 서비스 - 기타용역서비스"}]},{"lat":"37.206380372","long":"127.04426901","items":[{"name":"다원어린이집[아이행복]","tel":"031-223-3559","addr":"경기도 화성시 병점동 860번지 구봉마을우남퍼스트빌 101동 104호","category":"학원 - 유아원"}]},{"lat":"37.213055634","long":"127.04817063","items":[{"name":"다이아 뷰티","tel":"","addr":"경기도 화성시 병점동 849번지 안화동마을주공7단지 703동 1003호","category":"보건위생 - 미용재료"}]},{"lat":"37.213468733","long":"127.05164078","items":[{"name":"다인마트","tel":"031-221-8969","addr":"경기도 화성시 병점동 203-7번지","category":"유통업 영리 - 슈퍼마켓"},{"name":"슈나이더 PC방","tel":"031-235-9093","addr":"경기도 화성시 병점동 203-7번지 1층 101~103호","category":"레저업소 - 기타레져업소"},{"name":"씨유병점다인점","tel":"031-221-8969","addr":"경기도 화성시 병점동 203-7번지 다인프라자 105호","category":"유통업 영리 - 편 의 점"},{"name":"예일약국","tel":"031-222-1108","addr":"경기도 화성시 병점동 203-7번지 1층 104호","category":"약국 - 약국"},{"name":"제이케이골프연습장 (JK골프연습장)","tel":"031-224-1722","addr":"경기도 화성시 병점동 203-7번지 지하1층","category":"레저업소 - 골프연습장"},{"name":"치뱅당구장","tel":"031-235-9856","addr":"경기도 화성시 병점동 203-7번지 다인프라자 202호","category":"학원 - 기타 교육기관"}]},{"lat":"37.20822065","long":"127.03753348","items":[{"name":"다인헤어","tel":"031-239-8289","addr":"경기도 화성시 병점동 345-77번지 로타리빌딩 102호","category":"보건위생 - 미용원"},{"name":"더 데이룸 카페(THE DAYROOM CAFE)","tel":"02-1111-1111","addr":"경기도 화성시 병점동 345-77번지 로타리빌딩 1층 103호","category":"일반휴게음식 - 서양음식"},{"name":"로즈","tel":"","addr":"경기도 화성시 병점동 345-77번지 로타리빌딩 103호","category":"문화.취미 - 문화취미기타"},{"name":"바른체형원","tel":"031-234-6328","addr":"경기도 화성시 병점동 345-77번지 로타리빌딩 202호,203호","category":"보건위생 - 기타대인서비스"},{"name":"뷰티렉스","tel":"031-239-4823","addr":"경기도 화성시 병점동 345-77번지","category":"회원제형태 - 기타4"},{"name":"크린토피아화성병점신한점","tel":"070-8262-3527","addr":"경기도 화성시 병점동 345-77번지 105호","category":"수리서비스 - 세탁소"},{"name":"행운슈퍼","tel":"031-226-9370","addr":"경기도 화성시 병점동 345-77번지 로타리빌딩 106호","category":"유통업 영리 - 슈퍼마켓"},{"name":"홍삼향기","tel":"031-235-5335","addr":"경기도 화성시 병점동 345-77번지","category":"건강식품 - 홍삼제품"}]},{"lat":"37.209148361","long":"127.03873928","items":[{"name":"다정어린이집[아이행복]","tel":"031-305-9837","addr":"경기도 화성시 병점동 866번지 신한에스빌1단지 108동 102호","category":"학원 - 유아원"}]},{"lat":"37.199830527","long":"127.04219288","items":[{"name":"다정펫","tel":"031-232-3885","addr":"경기도 화성시 병점동 501-1번지 병점성호아파트 201호","category":"문화.취미 - 애완동물"},{"name":"마루광고디자인","tel":"031-232-0345","addr":"경기도 화성시 병점동 501-1번지","category":"건축자재 - 인테리어전문"}]},{"lat":"37.208886026","long":"127.04200607","items":[{"name":"다현어린이집[아이행복]","tel":"031-234-2107","addr":"경기도 화성시 병점동 822번지 느치미마을주공2단지 203동 101호","category":"학원 - 유아원"}]},{"lat":"37.208956415","long":"127.04683889","items":[{"name":"단비어린이집[아이행복]","tel":"031-223-7554","addr":"경기도 화성시 병점동 858번지 신창비바훼밀리2차 201동 103호","category":"학원 - 유아원"}]},{"lat":"37.208524683","long":"127.04472079","items":[{"name":"달코미","tel":"070-997-9970","addr":"경기도 화성시 병점동 842-16번지 104호","category":"유통업 영리 - 슈퍼마켓"},{"name":"티바두마리치킨","tel":"031-226-7771","addr":"경기도 화성시 병점동 842-16번지 104호","category":"일반휴게음식 - 스넥"},{"name":"파리바게뜨(병점제일점)","tel":"031-234-8010","addr":"경기도 화성시 병점동 842-16번지 101,102호","category":"음료식품 - 제과점"},{"name":"헤어마켓","tel":"070-7789-9066","addr":"경기도 화성시 병점동 842-16번지","category":"보건위생 - 미용원"}]},{"lat":"37.208137544","long":"127.0438419","items":[{"name":"달콤찹찹","tel":"","addr":"경기도 화성시 병점동 842-22번지 1층 104호","category":"음료식품 - 기타음료식품"},{"name":"신데렐라 프로헤어","tel":"031-231-1733","addr":"경기도 화성시 병점동 842-22번지","category":"보건위생 - 미용원"},{"name":"오드리햅번","tel":"031-231-1162","addr":"경기도 화성시 병점동 842-22번지 103호","category":"의류 - 정장"},{"name":"오엠지러닝포리스트학원","tel":"031-233-2391","addr":"경기도 화성시 병점동 842-22번지 재성빌딩 2층","category":"회원제형태 - 학원"},{"name":"한우자리","tel":"031-236-7075","addr":"경기도 화성시 병점동 842-22번지","category":"음료식품 - 정육점"}]},{"lat":"37.210859933","long":"127.04003563","items":[{"name":"대박맛집","tel":"031-232-3536","addr":"경기도 화성시 병점동 826-6번지 1층","category":"일반휴게음식 - 일반한식"},{"name":"전주한옥찜닭","tel":"031-238-2282","addr":"경기도 화성시 병점동 826-6번지 1층 102호","category":"일반휴게음식 - 일반한식"}]},{"lat":"37.200659628","long":"127.04175402","items":[{"name":"대양수족관.냉동","tel":"031-374-8306","addr":"경기도 화성시 병점동 499-1번지","category":"문화.취미 - 수족관"}]},{"lat":"37.208049733","long":"127.0365646","items":[{"name":"대장간마을","tel":"031-222-3698","addr":"경기도 화성시 병점동 348-1번지 신안빌딩 104호","category":"일반휴게음식 - 일반한식"},{"name":"만두명가","tel":"031-223-2682","addr":"경기도 화성시 병점동 348-1번지","category":"일반휴게음식 - 스넥"},{"name":"명작노래연습장","tel":"031-221-4377","addr":"경기도 화성시 병점동 348-1번지 신안빌딩 2층 1호","category":"레저업소 - 노 래 방"},{"name":"서진이엔씨","tel":"031-223-8414","addr":"경기도 화성시 병점동 348-1 3층302-2호","category":"용역 서비스 - 사무서비스"},{"name":"응급실국물떡볶이 화성병점점","tel":"031-225-2119","addr":"경기도 화성시 병점동 348-1번지 신안빌딩 1층","category":"일반휴게음식 - 스넥"},{"name":"카페 크레마","tel":"031-233-3770","addr":"경기도 화성시 병점동 348-1번지 신안빌딩 1층 103호","category":"일반휴게음식 - 서양음식"}]},{"lat":"37.206383467","long":"127.03417571","items":[{"name":"댄스스포츠아카데미","tel":"031-221-0688","addr":"경기도 화성시 병점동 381-9번지 하나로빌딩 305호","category":"회원제형태 - 학원"},{"name":"란제리","tel":"031-251-9406","addr":"경기도 화성시 병점동 381-9번지 병점하나로빌딩 111호","category":"의류 - 내의판매"},{"name":"세븐일레븐병점역점","tel":"","addr":"경기도 화성시 병점동 381-9번지 병점하나로빌딩 108호","category":"유통업 영리 - 편 의 점"},{"name":"예피아","tel":"031-239-4489","addr":"경기도 화성시 병점동 381-9번지 외3필지 병점하나로빌딩 3층 303호","category":"회원제형태 - 기타1"}]},{"lat":"37.211964071","long":"127.05147082","items":[{"name":"댕기머리방","tel":"031-224-0130","addr":"경기도 화성시 병점동 201-2","category":"보건위생 - 미용원"}]},{"lat":"37.207217938","long":"127.04539597","items":[{"name":"더맑은샵","tel":"031-231-2707","addr":"경기도 화성시 병점동 859번지 느치미마을주공4단지 상가동 103호","category":"보건위생 - 화장품"}]},{"lat":"37.211075946","long":"127.04077926","items":[{"name":"도담도담한식뷔페","tel":"031-885-3580","addr":"경기도 화성시 병점동 828-3번지 1층","category":"일반휴게음식 - 일반한식"}]},{"lat":"37.213939834","long":"127.04496036","items":[{"name":"돌핀세척기","tel":"031-252-8901","addr":"경기도 화성시 병점동 819번지 안화동마을주공9단지 905동 1504호","category":"주방용구 - 주방용구"}]},{"lat":"37.199245918","long":"127.03883597","items":[{"name":"돌핀세척기 화성영업소","tel":"031-252-8901","addr":"경기도 화성시 병점동 510-22번지 1동 301호","category":"주방용구 - 주방용구"}]},{"lat":"37.208381159","long":"127.04286196","items":[{"name":"동실유치원[아이행복]","tel":"031-224-1114","addr":"경기도 화성시 병점동 259-8번지","category":"학원 - 유치원"}]},{"lat":"37.205581432","long":"127.03459218","items":[{"name":"동탄출장세차","tel":"","addr":"경기도 화성시 병점동 386-38번지 204호","category":"자동차정비 유지 - 세차장"}]},{"lat":"37.210832267","long":"127.04200708","items":[{"name":"두용농산","tel":"","addr":"경기도 화성시 병점동 831-6번지 301호","category":"음료식품 - 기타음료식품"},{"name":"디자인바라기","tel":"","addr":"경기도 화성시 병점동 831-6번지 병점동로얄빌 304호","category":"건축자재 - 인테리어전문"}]},{"lat":"37.217354336","long":"127.04614524","items":[{"name":"들꽃향기","tel":"031-231-1495","addr":"경기도 화성시 병점동 2-4번지","category":"문화.취미 - 화원"},{"name":"진다육","tel":"031-233-4191","addr":"경기도 화성시 병점동 2-4번지","category":"문화.취미 - 화원"}]},{"lat":"37.204887431","long":"127.03533535","items":[{"name":"디자인율","tel":"","addr":"경기도 화성시 병점동 374-5번지 인텔리스테이 629호","category":"용역 서비스 - 사무서비스"},{"name":"미니스톱 병점스테이점","tel":"031-1577-9621","addr":"경기도 화성시 병점동 374-5번지 101호","category":"유통업 영리 - 편 의 점"},{"name":"에벤에셀","tel":"031-212-6222","addr":"경기도 화성시 병점동 374-5번지 1층 106호","category":"수리서비스 - 세탁소"}]},{"lat":"37.208653392","long":"127.03668879","items":[{"name":"디케이푸드병점점","tel":"","addr":"경기도 화성시 병점동 347-10번지 용우빌딩 A동 1층 일부호","category":"일반휴게음식 - 일반한식"},{"name":"보보노래연습장","tel":"031-231-2547","addr":"경기도 화성시 병점동 347-10번지 A동 지하층","category":"레저업소 - 노 래 방"}]},{"lat":"37.204787589","long":"127.03789238","items":[{"name":"딸기온누리약국","tel":"031-224-0700","addr":"경기도 화성시 병점동 870번지 화성병점에스케이뷰 101동 107호","category":"약국 - 약국"},{"name":"마이럽","tel":"031-237-3300","addr":"경기도 화성시 병점동 870번지 화성병점에스케이뷰 101동 109호","category":"일반휴게음식 - 스넥"},{"name":"미소수제화","tel":"031-221-9208","addr":"경기도 화성시 병점동 870번지 화성병점에스케이뷰 101동 103호","category":"신변잡화 - 제화"},{"name":"유환산양산삼","tel":"031-352-4330","addr":"경기도 화성시 병점동 870번지 화성병점에스케이뷰 101동 402호","category":"음료식품 - 농·축·수산품"},{"name":"장우진동물병원","tel":"031-238-8275","addr":"경기도 화성시 병점동 870번지 화성병점에스케이뷰 101동 104호","category":"기타의료기관 - 동물병원"},{"name":"초록마당","tel":"031-233-2866","addr":"경기도 화성시 병점동 870번지 화성병점에스케이뷰 101동 1003호","category":"문화.취미 - 화원"},{"name":"코바코병점역점","tel":"031-239-6622","addr":"경기도 화성시 병점동 870번지 SK뷰상가 101동 105호","category":"일반휴게음식 - 일식·회집"}]},{"lat":"37.21331587","long":"127.0508746","items":[{"name":"똘요미루키하우스","tel":"070-7783-9919","addr":"경기도 화성시 병점동 850번지 안화동마을주공6단지 609동 14층 1호","category":"문화.취미 - 애완동물"},{"name":"마이펫스쿨","tel":"","addr":"경기도 화성시 병점동 850번지 안화동마을주공6단지 609동 1401호","category":"보건위생 - 기타대인서비스"}]},{"lat":"37.21066095","long":"127.04236748","items":[{"name":"똘이국밥","tel":"","addr":"경기도 화성시 병점동 833-6번지 서윤빌 1층 104호","category":"일반휴게음식 - 일반한식"},{"name":"이수헤어","tel":"","addr":"경기도 화성시 병점동 833-6번지 서윤빌 1층","category":"보건위생 - 미용원"},{"name":"청정수산","tel":"031-239-7888","addr":"경기도 화성시 병점동 833-6번지 서윤빌","category":"일반휴게음식 - 일반한식"}]},{"lat":"37.207553486","long":"127.03886244","items":[{"name":"뚝심이네","tel":"031-235-3690","addr":"경기도 화성시 병점동 357-14번지 101호","category":"일반휴게음식 - 일반한식"},{"name":"정우에어컨","tel":"","addr":"경기도 화성시 병점동 357-14번지 307호","category":"용역 서비스 - 기타용역서비스"},{"name":"지글보글 짝짝","tel":"031-236-2066","addr":"경기도 화성시 병점동 357-14번지 1층 102호","category":"일반휴게음식 - 일반한식"},{"name":"카페미지","tel":"070-8886-4114","addr":"경기도 화성시 병점동 357-14번지","category":"일반휴게음식 - 서양음식"}]},{"lat":"37.203013194","long":"127.03561616","items":[{"name":"뚱뗑이네홍어전문점","tel":"031-226-3304","addr":"경기도 화성시 병점동 296-3번지 삼환주택 B동 103호","category":"일반휴게음식 - 일반한식"}]},{"lat":"37.20830148","long":"127.03842346","items":[{"name":"라브리지","tel":"031-226-3391","addr":"경기도 화성시 병점동 345-57번지 하나빌 1층 상가","category":"보건위생 - 미용원"}]},{"lat":"37.210805079","long":"127.04248021","items":[{"name":"레드바니","tel":"","addr":"경기도 화성시 병점동 833-5번지 1층","category":"보건위생 - 피부미용실"},{"name":"바른손문구","tel":"031-225-1911","addr":"경기도 화성시 병점동 833-5번지 101호","category":"서적문구 - 문구용품"}]},{"lat":"37.21511955","long":"127.0467298","items":[{"name":"루시아","tel":"070-2547-8097","addr":"경기도 화성시 병점동 848번지 안화동마을주공8단지 804동 1004호","category":"의류 - 내의판매"}]},{"lat":"37.208463355","long":"127.03944866","items":[{"name":"루씨해법어학원","tel":"031-221-1633","addr":"경기도 화성시 병점동 867번지 신한에스빌2단지 2층","category":"학원 - 외국어학원"}]},{"lat":"37.208716092","long":"127.03797305","items":[{"name":"리치","tel":"070-4130-5187","addr":"경기도 화성시 병점동 345-59번지 정안태영빌 상가 1층","category":"의류 - 내의판매"},{"name":"일토","tel":"070-7897-8018","addr":"경기도 화성시 병점동 345-59번지 정안태영빌 1층 상가","category":"수리서비스 - 기타수리서비스"}]},{"lat":"37.197992626","long":"127.04152738","items":[{"name":"리틀어린이집[아이행복]","tel":"031-237-5664","addr":"경기도 화성시 병점동 506번지 송골마을우남퍼스트빌 관리동 1층","category":"학원 - 유아원"},{"name":"신엘리제음악학원","tel":"031-226-0088","addr":"경기도 화성시 병점동 506번지 우남퍼스트빌상가 B동 303호","category":"학원 - 예·체능계학원"},{"name":"우남마트","tel":"031-235-6945","addr":"경기도 화성시 병점동 506 송화마을우남3차상가 101","category":"유통업 영리 - 슈퍼마켓"},{"name":"유노디자인","tel":"031-238-3886","addr":"경기도 화성시 병점동 506","category":"용역 서비스 - 종합용역"}]},{"lat":"37.209407149","long":"127.04625336","items":[{"name":"리틀존어린이집[아이행복]","tel":"031-213-1867","addr":"경기도 화성시 병점동 820번지 안화동마을주공5단지 502동 102호","category":"학원 - 유아원"}]},{"lat":"37.207075994","long":"127.03867071","items":[{"name":"리폼하우스","tel":"031-235-0721","addr":"경기도 화성시 병점동 358-1번지 상호빌딩 리폼하우스 1층 1호","category":"수리서비스 - 세탁소"},{"name":"손톱공주","tel":"031-235-7541","addr":"경기도 화성시 병점동 358-1번지 1층 일부호","category":"보건위생 - 피부미용실"},{"name":"피부랑 속눈썹이랑","tel":"031-2287-7026","addr":"경기도 화성시 병점동 358-1번지 1층 2호","category":"보건위생 - 피부미용실"},{"name":"피자에땅","tel":"031-226-4477","addr":"경기도 화성시 병점동 358-1번지","category":"일반휴게음식 - 서양음식"},{"name":"히카리우동","tel":"070-7633-8942","addr":"경기도 화성시 병점동 358-1번지 1층 일부호","category":"일반휴게음식 - 일반한식"}]},{"lat":"37.206218861","long":"127.04228632","items":[{"name":"린토퍼니처","tel":"031-235-1880","addr":"경기도 화성시 병점동 292-1외1필지V-Town2103호,201호,204호","category":"가구 - 일반가구"}]},{"lat":"37.199939752","long":"127.03872366","items":[{"name":"림디","tel":"031-214-5746","addr":"경기도 화성시 병점동 522-3번지","category":"가구 - 일반가구"},{"name":"화성가전가구재활용센타","tel":"031-221-3313","addr":"경기도 화성시 병점동 522-3번지","category":"전기제품 - 가전제품"},{"name":"화성가전재활용센타","tel":"031-221-3313","addr":"경기도 화성시 병점동 522-3번지","category":"전기제품 - 가전제품"}]},{"lat":"37.208770534","long":"127.03666631","items":[{"name":"마마운동화이불빨래방","tel":"031-221-8482","addr":"경기도 화성시 병점동 347-14번지 103호","category":"수리서비스 - 세탁소"},{"name":"머리사랑","tel":"031-225-3660","addr":"경기도 화성시 병점동 347-14번지 102호","category":"보건위생 - 미용원"},{"name":"보보스포차","tel":"031-663-0447","addr":"경기도 화성시 병점동 347-14번지 101호","category":"일반휴게음식 - 일반한식"},{"name":"해피마미 산후케어","tel":"031-278-1196","addr":"경기도 화성시 병점동 347-14번지 2층 202호","category":"보건위생 - 기타대인서비스"}]},{"lat":"37.206525488","long":"127.04145287","items":[{"name":"맘스터치","tel":"031-236-1006","addr":"경기도 화성시 병점동 314-3번지 성진빌딩 1층 101~102호","category":"일반휴게음식 - 서양음식"},{"name":"베스킨라빈스화성병점2호점","tel":"031-232-3631","addr":"경기도 화성시 병점동 314-3 1층 104~105호","category":"음료식품 - 제과점"},{"name":"세경한의원","tel":"031-223-0101","addr":"경기도 화성시 병점동 314-3번지","category":"의원 - 한의원"},{"name":"수리야요가","tel":"031-232-1302","addr":"경기도 화성시 병점동 314-3번지 성진빌딩 2층 201호","category":"회원제형태 - 레져업소"},{"name":"작심공간","tel":"031-235-0701","addr":"경기도 화성시 병점동 314-3번지 성진빌딩 401-1호","category":"용역 서비스 - 사무서비스"},{"name":"작심독서실","tel":"031-235-0701","addr":"경기도 화성시 병점동 314-3번지 성진빌딩 401호","category":"학원 - 독서실"},{"name":"진안부대찌개","tel":"031-234-7972","addr":"경기도 화성시 병점동 314-3번지 성진빌딩 106.107호","category":"일반휴게음식 - 일반한식"},{"name":"허니비잉글리쉬카페보습학원","tel":"070-4404-0552","addr":"경기도 화성시 병점동 314-3번지 202호","category":"학원 - 보습학원"}]},{"lat":"37.208245555","long":"127.04416864","items":[{"name":"맛깔참죽","tel":"031-236-6288","addr":"경기도 화성시 병점동 842-19번지 104호","category":"일반휴게음식 - 스넥"},{"name":"바자","tel":"070-6877-1019","addr":"경기도 화성시 병점동 842-19번지 101호","category":"의류 - 정장"},{"name":"위더스영어교습소","tel":"031-306-0630","addr":"경기도 화성시 병점동 842-19번지","category":"회원제형태 - 학원"},{"name":"쿡Soon","tel":"031-225-9200","addr":"경기도 화성시 병점동 842-19번지 1층 3호","category":"음료식품 - 농·축·수산품"}]},{"lat":"37.202470896","long":"127.041203","items":[{"name":"맛맛나","tel":"031-222-2882","addr":"경기도 화성시 병점동 479-9번지","category":"일반휴게음식 - 스넥"},{"name":"병점골프연습장","tel":"031-222-2522","addr":"경기도 화성시 병점동 479-9번지 송곡빌딩 5층","category":"회원제형태 - 레져업소"},{"name":"보보치킨바베큐","tel":"031-222-8292","addr":"경기도 화성시 병점동 479-9번지 외1필지","category":"일반휴게음식 - 스넥"},{"name":"씨앤아이디자인","tel":"031-222-7940","addr":"경기도 화성시 병점동 479-9번지 송곡빌딩 4층","category":"건축자재 - 인테리어전문"},{"name":"왕수학교실통문장영어명문학원","tel":"031-204-4288","addr":"경기도 화성시 병점동 479-9번지 송곡빌딩 3층","category":"회원제형태 - 학원"},{"name":"쥬쥬헤어살롱","tel":"031-222-2768","addr":"경기도 화성시 병점동 479-9번지","category":"보건위생 - 미용원"},{"name":"한신곱창","tel":"031-221-7792","addr":"경기도 화성시 병점동 479-9번지","category":"일반휴게음식 - 일반한식"},{"name":"홍익아뜰리에미술학원","tel":"031-221-3388","addr":"경기도 화성시 병점동 479-9번지 송곡빌딩","category":"학원 - 예·체능계학원"}]},{"lat":"37.208499809","long":"127.0380856","items":[{"name":"맛있족 먹어보쌈","tel":"031-225-7845","addr":"경기도 화성시 병점동 345-49번지","category":"일반휴게음식 - 일반한식"}]},{"lat":"37.204607878","long":"127.03616881","items":[{"name":"맥스체대입시","tel":"","addr":"경기도 화성시 병점동 871번지 병점역효성해링턴플레이스 로비층","category":"학원 - 예·체능계학원"},{"name":"미르태권도장","tel":"031-221-2133","addr":"경기도 화성시 병점동 871번지 병점역효성해밍턴플레이스 107동 116-119호","category":"학원 - 예·체능계학원"},{"name":"세븐일레븐병점효성점","tel":"031-1577-0711","addr":"경기도 화성시 병점동 871번지 효성해링턴플레이스 106동 108,109호","category":"유통업 영리 - 편 의 점"},{"name":"신세계마취통증의학과의원","tel":"031-237-7577","addr":"경기도 화성시 병점동 871번지 화성병점효성 해링턴 플레이스 107동 205호,206호","category":"의원 - 의원"},{"name":"씨유병점인텔리안점","tel":"031-223-7737","addr":"경기도 화성시 병점동 871번지 병점역효성해링턴플레이스 107동 107,108호","category":"유통업 영리 - 편 의 점"},{"name":"헬스대통령/주식회사 라이 (LAI inc.)","tel":"031-232-0333","addr":"경기도 화성시 병점동 871번지 병점역효성해링턴플레이스 110동 B103호","category":"레저업소 - 헬스클럽"}]},{"lat":"37.215011046","long":"127.04774369","items":[{"name":"먹는샘풀(동원생수,참물)","tel":"031-233-3814","addr":"경기도 화성시 병점동 안화동마을주공8단지 808/101","category":"유통업 영리 - 기타유통업"}]},{"lat":"37.21063415","long":"127.04166901","items":[{"name":"먹방시대","tel":"031-232-1626","addr":"경기도 화성시 병점동 830-6번지 1층 전체호","category":"일반휴게음식 - 일반한식"}]},{"lat":"37.205382281","long":"127.03787012","items":[{"name":"명문서점","tel":"031-234-8488","addr":"경기도 화성시 병점동 364-4번지","category":"서적문구 - 일반서적"},{"name":"서울대동물종합병원","tel":"031-238-7979","addr":"경기도 화성시 병점동 364-4번지","category":"기타의료기관 - 동물병원"},{"name":"오복떡집","tel":"031-267-2346","addr":"경기도 화성시 병점동 364-4번지 1층","category":"음료식품 - 제과점"},{"name":"큰손종합장식","tel":"031-224-8225","addr":"경기도 화성시 병점동 364-4번지 금강빌딩","category":"직물 - 카페트,커튼,천막,지물"}]},{"lat":"37.2104718","long":"127.04216461","items":[{"name":"명일모터스","tel":"031-225-3110","addr":"경기도 화성시 병점동 833-8번지","category":"자동차정비 유지 - 자동차정비"}]},{"lat":"37.210769331","long":"127.04159022","items":[{"name":"명품옷수선","tel":"031-224-0852","addr":"경기도 화성시 병점동 830-1번지 1층","category":"수리서비스 - 세탁소"},{"name":"커피마마","tel":"031-226-2118","addr":"경기도 화성시 병점동 830-1번지 1층","category":"일반휴게음식 - 서양음식"}]},{"lat":"37.208464187","long":"127.03664364","items":[{"name":"묵은지","tel":"031-267-0131","addr":"경기도 화성시 병점동 347-10번지 B동 103호","category":"일반휴게음식 - 일반한식"},{"name":"생선구이","tel":"031-232-2329","addr":"경기도 화성시 병점동 347-10번지 B동 1층 103호","category":"일반휴게음식 - 일반한식"},{"name":"용인대TheBest복싱클럽","tel":"031-237-8212","addr":"경기도 화성시 병점동 347-10번지 용우빌딩 B동 B01호","category":"회원제형태 - 레져업소"},{"name":"해피엘엔비","tel":"032-225-8216","addr":"경기도 화성시 병점동 347-10번지 B동 2층","category":"보건위생 - 의료용품"}]},{"lat":"37.20332861","long":"127.0354248","items":[{"name":"물오름달 스물하루","tel":"","addr":"경기도 화성시 병점동 396-1번지 동원주택 401호","category":"신변잡화 - 액세서리"}]},{"lat":"37.208686938","long":"127.04452937","items":[{"name":"미니스톱 병점타운점","tel":"031-1577-9621","addr":"경기도 화성시 병점동 842-5번지 1층","category":"유통업 영리 - 편 의 점"},{"name":"통큰순대국","tel":"031-223-3288","addr":"경기도 화성시 병점동 842-5번지 일부 1층","category":"일반휴게음식 - 일반한식"},{"name":"홍's 비어","tel":"031-234-9817","addr":"경기도 화성시 병점동 842-5번지 102호","category":"일반휴게음식 - 주점"}]},{"lat":"37.202688773","long":"127.03578498","items":[{"name":"미랑","tel":"031-898-5655","addr":"경기도 화성시 병점동 396-5번지 금강근린주택 103호 104호","category":"보건위생 - 화장품"},{"name":"춘자헤어살롱","tel":"031-224-9262","addr":"경기도 화성시 병점동 396-5번지 102호","category":"보건위생 - 미용원"},{"name":"타임옵틱","tel":"070-8690-6180","addr":"경기도 화성시 병점동 396-5번지 지하1층","category":"보건위생 - 안경"}]},{"lat":"37.205075494","long":"127.03931185","items":[{"name":"미호(MIHO)","tel":"","addr":"경기도 화성시 병점동 431-4번지 B302호","category":"보건위생 - 화장품"}]},{"lat":"37.21304799","long":"127.04444164","items":[{"name":"민스헤어","tel":"031-225-6800","addr":"경기도 화성시 병점동 819번지 안화동마을주공9단지 상가동 105호","category":"보건위생 - 미용원"},{"name":"장수국수","tel":"031-221-1582","addr":"경기도 화성시 병점동 819번지 안화동마을주공9단지 107호","category":"일반휴게음식 - 일반한식"},{"name":"주공세탁","tel":"031-223-8588","addr":"경기도 화성시 병점동 819번지 안화동마을주공아파트 상가동 103호","category":"수리서비스 - 세탁소"}]},{"lat":"37.205193202","long":"127.03739692","items":[{"name":"밀겨울 (병점점)","tel":"031-233-4736","addr":"경기도 화성시 병점동 373-1번지","category":"일반휴게음식 - 일반한식"},{"name":"슈우슈팽","tel":"031-222-6683","addr":"경기도 화성시 병점동 373-1번지 2층","category":"일반휴게음식 - 중국식"},{"name":"주연테크컴퓨터병점점","tel":"031-226-6123","addr":"경기도 화성시 병점동 373-1번지 2호","category":"사무통신 - 컴퓨터"},{"name":"춘천골닭갈비","tel":"031-223-8333","addr":"경기도 화성시 병점동 373-1번지 1층 일부호","category":"일반휴게음식 - 일반한식"}]},{"lat":"37.20738143","long":"127.04158849","items":[{"name":"바다수산","tel":"031-231-1110","addr":"경기도 화성시 병점동 306-1번지 1층","category":"일반휴게음식 - 일반한식"}]},{"lat":"37.210715199","long":"127.04180424","items":[{"name":"바탕소 택스타일 아트","tel":"031-235-9324","addr":"경기도 화성시 병점동 830-3번지","category":"학원 - 예·체능계학원"},{"name":"순수치킨병점동탄점","tel":"031-222-6226","addr":"경기도 화성시 병점동 830-3번지 1층 101호","category":"일반휴게음식 - 스넥"}]},{"lat":"37.214135501","long":"127.05164121","items":[{"name":"반도(TG2)","tel":"070-8825-9115","addr":"경기도 화성시 병점동 203-24번지","category":"의류 - 정장"}]},{"lat":"37.210173776","long":"127.04416969","items":[{"name":"반하다(BANHADA)","tel":"","addr":"경기도 화성시 병점동 821번지 느치미마을주공뜨란채 303동 304호","category":"의류 - 정장"},{"name":"한사랑어린이집[아이행복]","tel":"031-221-6998","addr":"경기도 화성시 병점동 821번지 느치미마을주공뜨란채 303동 103호","category":"학원 - 유아원"}]},{"lat":"37.199326884","long":"127.03925277","items":[{"name":"발밤발밤","tel":"","addr":"경기도 화성시 병점동 510-4번지 병점타운 204호","category":"광학제품 - 사진관"}]},{"lat":"37.202327761","long":"127.03786871","items":[{"name":"벌말초등학교병설유치원[아이행복]","tel":"031-221-6361","addr":"경기도 화성시 병점동 415-2번지 화성벌말초등학교","category":"학원 - 유치원"}]},{"lat":"37.207832991","long":"127.03825426","items":[{"name":"벽지플러스장판","tel":"031-222-7704","addr":"경기도 화성시 병점동 356-7번지","category":"직물 - 카페트,커튼,천막,지물"},{"name":"제니 스타일(포에버대리점)","tel":"031-226-9824","addr":"경기도 화성시 병점동 356-7번지","category":"의류 - 정장"},{"name":"황실","tel":"070-8752-7042","addr":"경기도 화성시 병점동 356-7번지","category":"수리서비스 - 세탁소"},{"name":"황실옷수선","tel":"031-224-8756","addr":"경기도 화성시 병점동 356-7번지 101호","category":"수리서비스 - 세탁소"}]},{"lat":"37.207581664","long":"127.03486338","items":[{"name":"병점길요양보호사교육원","tel":"031-224-5915","addr":"경기도 화성시 병점동 349-10번지 3층 302호","category":"학원 - 기능학원"},{"name":"비젼미용실","tel":"031-232-7757","addr":"경기도 화성시 병점동 349-10번지 5층 2호 신성빌딩 일부","category":"보건위생 - 미용원"},{"name":"비젼미용학원","tel":"031-234-7757","addr":"경기도 화성시 병점동 349-10번지 신성빌딩5층 2호","category":"회원제형태 - 학원"},{"name":"수라다가","tel":"031-225-9271","addr":"경기도 화성시 병점동 349-10번지","category":"일반휴게음식 - 일반한식"}]},{"lat":"37.209193892","long":"127.03711711","items":[{"name":"병점뉴질랜드어린이집[아이행복]","tel":"031-222-7278","addr":"경기도 화성시 병점동 346-8번지","category":"학원 - 유아원"}]},{"lat":"37.21127255","long":"127.04555596","items":[{"name":"병점도서관 구내매점","tel":"031-668-0111","addr":"경기도 화성시 병점동 823번지","category":"음료식품 - 기타음료식품"}]},{"lat":"37.20596829","long":"127.03672138","items":[{"name":"병점정형외과","tel":"031-222-3324","addr":"경기도 화성시 병점동 371-1번지 1층","category":"의원 - 의원"}]},{"lat":"37.210021936","long":"127.0401366","items":[{"name":"병점중학교","tel":"","addr":"경기도 화성시 병점동 825번지 병점중학교","category":"학원 - 초중고교육기관"}]},{"lat":"37.200138156","long":"127.03813803","items":[{"name":"병점타이어프로","tel":"031-223-2522","addr":"경기도 화성시 병점동 525-3번지 1층 2호","category":"자동차정비 유지 - 자동차시트·타이어"}]},{"lat":"37.2076887","long":"127.038671","items":[{"name":"병점포차앤도야족발병점동탄점","tel":"031-237-8835","addr":"경기도 화성시 병점동 356-3번지 1층","category":"일반휴게음식 - 일반한식"}]},{"lat":"37.210642444","long":"127.04379819","items":[{"name":"병점햇살어린이집[아이행복]","tel":"031-221-1554","addr":"경기도 화성시 병점동 821번지 느치미마을주공3단지 302동 102호","category":"학원 - 유아원"},{"name":"펀펀요리스쿨","tel":"070-7840-6133","addr":"경기도 화성시 병점동 821번지 느치미마을주공3단지 302동 1603호","category":"학원 - 기능학원"}]},{"lat":"37.21329691","long":"127.05313903","items":[{"name":"보니따 다육","tel":"031-239-0955","addr":"경기도 화성시 병점동 211-1번지,외1필지(211-4)","category":"문화.취미 - 화원"}]},{"lat":"37.208381102","long":"127.04303094","items":[{"name":"보중정육식당","tel":"031-226-0009","addr":"경기도 화성시 병점동 259-9번지 1층","category":"음료식품 - 정육점"},{"name":"보중정육식당","tel":"031-226-0009","addr":"경기도 화성시 병점동 259-9번지 1층","category":"일반휴게음식 - 일반한식"},{"name":"에이스노래연습장","tel":"070--8658-5097","addr":"경기도 화성시 병점동 259-9번지 2층","category":"레저업소 - 노 래 방"}]},{"lat":"37.202078712","long":"127.02422765","items":[{"name":"복길이네한식뷔페","tel":"02-111-1111","addr":"경기도 화성시 병점동 755-2번지 1층","category":"일반휴게음식 - 일반한식"},{"name":"스마트전산","tel":"031-237-4119","addr":"경기도 화성시 병점동 755-2번지 (1층6,7,8,9,10호)","category":"사무통신 - 컴퓨터"},{"name":"오토코리아","tel":"031-224-1653","addr":"경기도 화성시 병점동 755-2번지","category":"자동차정비 유지 - 자동차정비"}]},{"lat":"37.207687425","long":"127.04267009","items":[{"name":"본스치킨","tel":"031-232-6011","addr":"경기도 화성시 병점동 300번지 1층 102호","category":"일반휴게음식 - 스넥"},{"name":"본스치킨","tel":"031-232-6011","addr":"경기도 화성시 병점동 300번지 102호","category":"일반휴게음식 - 스넥"},{"name":"소소","tel":"031-226-7141","addr":"경기도 화성시 병점동 300번지 1층 3호","category":"일반휴게음식 - 일반한식"},{"name":"치어스(병점점)","tel":"031-234-5933","addr":"경기도 화성시 병점동 300번지 1층","category":"일반휴게음식 - 주점"},{"name":"한국해동검도","tel":"031-235-3673","addr":"경기도 화성시 병점동 300번지 3층","category":"학원 - 예·체능계학원"}]},{"lat":"37.20560678","long":"127.04035973","items":[{"name":"뷰티걸","tel":"031-222-5719","addr":"경기도 화성시 병점동 431-55번지 두산 상가 205호","category":"회원제형태 - 기타4"},{"name":"샘물한의원","tel":"031-234-1075","addr":"경기도 화성시 병점동 431-55두산상가203~204호","category":"의원 - 한의원"},{"name":"서현보습학원","tel":"031-224-4408","addr":"경기도 화성시 병점동 431-55번지 두산제상가동제2층제201호,202호","category":"학원 - 보습학원"},{"name":"신풍떡볶이","tel":"031-222-3525","addr":"경기도 화성시 병점동 431-55번지 102호","category":"일반휴게음식 - 일반한식"},{"name":"지음인테리어","tel":"031-221-1034","addr":"경기도 화성시 병점동 431-55번지 상가동 1층 109호","category":"건축자재 - 인테리어전문"},{"name":"티파니","tel":"031-224-9535","addr":"경기도 화성시 병점동 431-55번지 남수원두산 상가 1층 103호","category":"신변잡화 - 귀금속"},{"name":"한우리 독서토론논술","tel":"031-234-1909","addr":"경기도 화성시 병점동 431-55번지 210호","category":"학원 - 보습학원"},{"name":"홍루이젠 병점점","tel":"070-7600-1513","addr":"경기도 화성시 병점동 431-55번지 101호","category":"일반휴게음식 - 서양음식"},{"name":"효소꼬마김밥","tel":"070-4217-3679","addr":"경기도 화성시 병점동 431-55번지 1층 113호","category":"일반휴게음식 - 일반한식"}]},{"lat":"37.201524424","long":"127.04236272","items":[{"name":"비니헤어","tel":"031-224-3244","addr":"경기도 화성시 병점동 868번지 병점임광그대가 상가동 107호","category":"보건위생 - 미용원"}]},{"lat":"37.210101999","long":"127.04327969","items":[{"name":"사계절통닭","tel":"031-239-9233","addr":"경기도 화성시 병점동 821번지 느치미마을주공3단지 상가동 102호","category":"일반휴게음식 - 스넥"},{"name":"주공그린마트","tel":"031-222-9945","addr":"경기도 화성시 병점동 821번지 주공3단지 상가 101호","category":"유통업 영리 - 슈퍼마켓"}]},{"lat":"37.208326601","long":"127.04430387","items":[{"name":"사랑하개","tel":"031-236-2777","addr":"경기도 화성시 병점동 842-18번지 102호","category":"문화.취미 - 애완동물"}]},{"lat":"37.210967926","long":"127.0404525","items":[{"name":"사주의 여왕","tel":"070-5118-2236","addr":"경기도 화성시 병점동 828-1번지 102호","category":"보건위생 - 기타대인서비스"},{"name":"영헤어염색방","tel":"031-202-1927","addr":"경기도 화성시 병점동 828-1번지 1층","category":"보건위생 - 미용원"},{"name":"힐링사주이야기","tel":"031-234-9611","addr":"경기도 화성시 병점동 828-1번지 1층 102호","category":"신변잡화 - 기타잡화"}]},{"lat":"37.215109393","long":"127.04972659","items":[{"name":"삼성화원","tel":"031-233-9222","addr":"경기도 화성시 병점동 6,6-1,6-2","category":"문화.취미 - 화원"},{"name":"웰빙농원","tel":"031-226-4288","addr":"경기도 화성시 병점동 6,6-1,6-2","category":"문화.취미 - 화원"},{"name":"터치플라워","tel":"031-223-0133","addr":"경기도 화성시 병점동 6번지 외1필지 6-2","category":"문화.취미 - 화원"},{"name":"한국 화훼","tel":"031-1588-3125","addr":"경기도 화성시 병점동 6,6-1,6-2","category":"문화.취미 - 화원"},{"name":"허브향기마을","tel":"031-224-1365","addr":"경기도 화성시 병점동 6,6-1,6-2","category":"문화.취미 - 화원"}]},{"lat":"37.208608295","long":"127.03684648","items":[{"name":"삼정산업","tel":"","addr":"경기도 화성시 병점동 347-17번지 용우빌라 B동 102호","category":"유통업 영리 - 기타유통업"}]},{"lat":"37.213747438","long":"127.05311679","items":[{"name":"생곡메밀막국수","tel":"031-235-2351","addr":"경기도 화성시 병점동 208번지","category":"일반휴게음식 - 일반한식"}]},{"lat":"37.206049302","long":"127.03700304","items":[{"name":"서울여성의원","tel":"031-233-4411","addr":"경기도 화성시 병점동 370번지","category":"의원 - 의원"}]},{"lat":"37.202884777","long":"127.0430055","items":[{"name":"세련헤어샵","tel":"031-223-3650","addr":"경기도 화성시 병점동 485 한신상가 206","category":"보건위생 - 미용원"},{"name":"햇살무늬떡사랑","tel":"031-231-2195","addr":"경기도 화성시 병점동 485한신@상가A-103","category":"음료식품 - 제과점"}]},{"lat":"37.199714227","long":"127.03959087","items":[{"name":"세민스크린","tel":"031-226-1872","addr":"경기도 화성시 병점동 514-4번지 4층","category":"레져용품 - 골프용품 전문점"},{"name":"에스엠스크린","tel":"031-226-1872","addr":"경기도 화성시 병점동 514-4번지 3층","category":"레져용품 - 골프용품 전문점"},{"name":"예당꽃돼지","tel":"031-234-0592","addr":"경기도 화성시 병점동 514-4번지 1층","category":"일반휴게음식 - 일반한식"}]},{"lat":"37.213523829","long":"127.04906092","items":[{"name":"세븐마트","tel":"031-235-3143","addr":"경기도 화성시 병점동 849번지 주공7단지에이상가 101호","category":"유통업 영리 - 슈퍼마켓"},{"name":"세븐세탁소","tel":"031-235-9945","addr":"경기도 화성시 병점동 849번지 주공7단지 상가 가동 101호","category":"수리서비스 - 세탁소"},{"name":"예랑어린이집[아이행복]","tel":"031-891-7179","addr":"경기도 화성시 병점동 849번지 안화동마을주공7단지관리동1층","category":"학원 - 유아원"},{"name":"초이살롱","tel":"031-233-3385","addr":"경기도 화성시 병점동 849번지 안화동마을주공7단지 상가동 103호","category":"보건위생 - 미용원"}]},{"lat":"37.206444269","long":"127.04183584","items":[{"name":"세븐일레븐.병점태성점","tel":"02-2127-5857","addr":"경기도 화성시 병점동 311외4필지태성빌딩105","category":"유통업 영리 - 편 의 점"},{"name":"진흥사진관","tel":"031-255-6741","addr":"경기도 화성시 병점동 311번지 203호","category":"광학제품 - 사진관"}]},{"lat":"37.208886174","long":"127.04155546","items":[{"name":"세븐일레븐병점주공점","tel":"031-1577-0711","addr":"경기도 화성시 병점동 822번지 느치미마을주공아파트 101호","category":"유통업 영리 - 편 의 점"},{"name":"태안중앙어린이집[아이행복]","tel":"031-237-9009","addr":"경기도 화성시 병점동 822번지 느치미마을주공2단지 관리동동 1층","category":"학원 - 유아원"}]},{"lat":"37.211165524","long":"127.04239028","items":[{"name":"소이퀸","tel":"031-223-0473","addr":"경기도 화성시 병점동 832-3번지 1층","category":"음료식품 - 기타음료식품"}]},{"lat":"37.208437166","long":"127.03660983","items":[{"name":"소장군돼지박사","tel":"031-235-0160","addr":"경기도 화성시 병점동 347-10번지 용우빌딩 1층 일부호","category":"일반휴게음식 - 일반한식"},{"name":"코코","tel":"031-234-1321","addr":"경기도 화성시 병점동 347-10번지","category":"의류 - 정장"}]},{"lat":"37.203186424","long":"127.02716796","items":[{"name":"솔푸드","tel":"031-223-7140","addr":"경기도 화성시 병점동 675 외 81필지(롯데건설 현장식당)","category":"일반휴게음식 - 일반한식"},{"name":"솔푸드","tel":"031-222-7140","addr":"경기도 화성시 병점동 675번지 외 81필지 (현대산업개발 현장식당)","category":"일반휴게음식 - 일반한식"}]},{"lat":"37.202020679","long":"127.04025658","items":[{"name":"송화초등학교병설유치원[아이행복]","tel":"031-223-6787","addr":"경기도 화성시 병점동 465-5번지 송화초등학교","category":"학원 - 유치원"}]},{"lat":"37.213163393","long":"127.04911703","items":[{"name":"수리수리","tel":"","addr":"경기도 화성시 병점동 849번지 안화동마을주공7단지 705동 502호","category":"학원 - 기타 교육기관"}]},{"lat":"37.210832204","long":"127.04219859","items":[{"name":"수앤수수학학원","tel":"031-223-0406","addr":"경기도 화성시 병점동 831-4번지 1층 상가","category":"학원 - 보습학원"}]},{"lat":"37.20679477","long":"127.04449454","items":[{"name":"수음악학원","tel":"031-221-0053","addr":"경기도 화성시 병점동 860번지 구봉마을우남퍼스트빌 상가B동 201호,202호","category":"학원 - 예·체능계학원"},{"name":"야꼬닭","tel":"031-221-0277","addr":"경기도 화성시 병점동 860번지 우남퍼스트빌상가 B동 103호","category":"일반휴게음식 - 스넥"}]},{"lat":"37.21038173","long":"127.04206317","items":[{"name":"수제청마을","tel":"031-241-1665","addr":"경기도 화성시 병점동 833-9번지 1층 102호","category":"일반휴게음식 - 서양음식"},{"name":"일루헤어","tel":"032-612-1414","addr":"경기도 화성시 병점동 833-9번지","category":"보건위생 - 미용원"}]},{"lat":"37.21106609","long":"127.04333653","items":[{"name":"수학공부방","tel":"031-000-0000","addr":"경기도 화성시 병점동 821번지 느치미마을주공3단지 301동 203호","category":"학원 - 기타 교육기관"}]},{"lat":"37.199859007","long":"127.03755218","items":[{"name":"슈퍼스토리","tel":"070-7607-7655","addr":"경기도 화성시 병점동 한일타운 101-503 11/","category":"의류 - 아동의류"}]},{"lat":"37.204966447","long":"127.04219555","items":[{"name":"스타트","tel":"031-222-7173","addr":"경기도 화성시 병점동 282번지 남수원두산A상가동 117동 119호","category":"일반휴게음식 - 일반한식"}]},{"lat":"37.204409634","long":"127.03622505","items":[{"name":"스테파니","tel":"031-231-8845","addr":"경기도 화성시 병점동 374-6 107-111","category":"의류 - 정장"}]},{"lat":"37.213522179","long":"127.05311665","items":[{"name":"시루향기병점능동점","tel":"031-234-3446","addr":"경기도 화성시 병점동 209번지 1층","category":"일반휴게음식 - 일반한식"}]},{"lat":"37.209327962","long":"127.04068826","items":[{"name":"시온어린이집[아이행복]","tel":"031-234-6735","addr":"경기도 화성시 병점동 822번지 느치미마을주공2단지 211동 103호","category":"학원 - 유아원"}]},{"lat":"37.205993638","long":"127.04217355","items":[{"name":"신양평해장국","tel":"031-226-8592","addr":"경기도 화성시 병점동 438번지 1층","category":"일반휴게음식 - 일반한식"},{"name":"일성식당","tel":"031-0000-0000","addr":"경기도 화성시 병점동 438번지 104, 105호","category":"일반휴게음식 - 일반한식"}]},{"lat":"37.210579887","long":"127.04227732","items":[{"name":"신한피아노교습소","tel":"031-286-6655","addr":"경기도 화성시 병점동 833-7번지 1층","category":"학원 - 예·체능계학원"}]},{"lat":"37.200083986","long":"127.03849845","items":[{"name":"썬넥스","tel":"031-221-8178","addr":"경기도 화성시 병점동 524-4번지 1층 103호","category":"자동차정비 유지 - 카인테리어"},{"name":"한일밥상","tel":"031-236-7941","addr":"경기도 화성시 병점동 524-4번지","category":"일반휴게음식 - 일반한식"}]},{"lat":"37.211021938","long":"127.04061025","items":[{"name":"썸타롱","tel":"","addr":"경기도 화성시 병점동 828-2번지 1층","category":"음료식품 - 기타음료식품"},{"name":"페리카나 병점점","tel":"031-236-9245","addr":"경기도 화성시 병점동 828-2번지 1층","category":"일반휴게음식 - 스넥"}]},{"lat":"37.207552645","long":"127.04153225","items":[{"name":"쎄진박스테이지샵","tel":"031-234-0356","addr":"경기도 화성시 병점동 305-1번지","category":"보건위생 - 미용원"}]},{"lat":"37.209130642","long":"127.0377254","items":[{"name":"아르떼음악학원","tel":"031-222-8165","addr":"경기도 화성시 병점동 345-2번지 병점빌딩 404호","category":"학원 - 예·체능계학원"}]},{"lat":"37.208884999","long":"127.04500262","items":[{"name":"아리랑불고기","tel":"031-223-7972","addr":"경기도 화성시 병점동 842-8번지 1층","category":"일반휴게음식 - 일반한식"}]},{"lat":"37.210634803","long":"127.03961869","items":[{"name":"아이솔어린이집[아이행복]","tel":"031-221-2001","addr":"경기도 화성시 병점동 827-2번지","category":"학원 - 유아원"}]},{"lat":"37.208076693","long":"127.03681245","items":[{"name":"아이조음키친","tel":"031-225-1331","addr":"경기도 화성시 병점동 348-26번지","category":"주방용구 - 주방용구"}]},{"lat":"37.208830996","long":"127.04483361","items":[{"name":"아쿠아그린정수기","tel":"","addr":"경기도 화성시 병점동 842-7번지 원호주택 103호","category":"주방용구 - 정수기"}]},{"lat":"37.210883952","long":"127.04864249","items":[{"name":"안화중학교","tel":"031-221-4734","addr":"경기도 화성시 병점동 853번지 안화중학교","category":"학원 - 초중고교육기관"}]},{"lat":"37.21255144","long":"127.04714515","items":[{"name":"안화초등학교","tel":"031-225-5578","addr":"경기도 화성시 병점동 851번지 안화초등학교","category":"학원 - 초중고교육기관"}]},{"lat":"37.208498244","long":"127.04300847","items":[{"name":"어린음악대태안원음악학원","tel":"031-223-2254","addr":"경기도 화성시 병점동 259-7번지 3층","category":"학원 - 예·체능계학원"},{"name":"커피정원","tel":"031-233-3239","addr":"경기도 화성시 병점동 259-7번지 1층 103호","category":"일반휴게음식 - 서양음식"},{"name":"하하호호 베이비카페","tel":"031-238-0636","addr":"경기도 화성시 병점동 259-7번지 2층","category":"일반휴게음식 - 서양음식"},{"name":"헤어살롱 서우","tel":"031-233-1998","addr":"경기도 화성시 병점동 259-7번지 1층 103호","category":"보건위생 - 미용원"}]},{"lat":"37.208454386","long":"127.03931348","items":[{"name":"에스빌어린이집[아이행복]","tel":"031-232-8491","addr":"경기도 화성시 병점동 867번지 신한에스빌2단지 202동 101호","category":"학원 - 유아원"}]},{"lat":"37.208498453","long":"127.04238889","items":[{"name":"에이치엘식품","tel":"031-421-9903","addr":"경기도 화성시 병점동 822번지 느치미마을주공2단지 205동 1003호","category":"건강식품 - 기타건강식품"},{"name":"연세영어교실","tel":"","addr":"경기도 화성시 병점동 822번지 느치미마을주공2단지 205동 102호","category":"학원 - 기타 교육기관"},{"name":"제일청과","tel":"031-111-1111","addr":"경기도 화성시 병점동 822번지 느치미마을주공2단지 205동 1003호","category":"음료식품 - 농·축·수산품"}]},{"lat":"37.2004997","long":"127.03411697","items":[{"name":"에이치엘화성","tel":"","addr":"경기도 화성시 병점동 556번지 동원빌라 102호","category":"건강식품 - 기타건강식품"}]},{"lat":"37.206715884","long":"127.03764544","items":[{"name":"에이펙스인텍","tel":"031-1611-4046","addr":"경기도 화성시 병점동 361-15번지 민성빌딩 101호","category":"건축자재 - 조명기구"},{"name":"유달칡냉면","tel":"031-235-2379","addr":"경기도 화성시 병점동 361-15번지","category":"일반휴게음식 - 일반한식"},{"name":"유진푸드","tel":"031-234-4992","addr":"경기도 화성시 병점동 361-15번지 101호","category":"일반휴게음식 - 일반한식"},{"name":"피자나라치킨공주(화성병점점)","tel":"031-898-7881","addr":"경기도 화성시 병점동 361-15번지 1층 일부호","category":"일반휴게음식 - 서양음식"}]},{"lat":"37.211048306","long":"127.04263806","items":[{"name":"엘두후스(Eldhus)","tel":"031-225-1523","addr":"경기도 화성시 병점동 833-3번지 1층 전체","category":"주방용구 - 주방용구"}]},{"lat":"37.208499769","long":"127.03822078","items":[{"name":"여백","tel":"031-111-1111","addr":"경기도 화성시 병점동 345-22번지 1층","category":"일반휴게음식 - 서양음식"}]},{"lat":"37.210824108","long":"127.03933715","items":[{"name":"여유","tel":"031-111-1111","addr":"경기도 화성시 병점동 826-2번지 1층 101호","category":"일반휴게음식 - 일반한식"},{"name":"왕성수산","tel":"031-236-8252","addr":"경기도 화성시 병점동 826-2번지 1층 102호","category":"음료식품 - 농·축·수산품"}]},{"lat":"37.207300792","long":"127.04016906","items":[{"name":"열린예술어린이집[아이행복]","tel":"031-222-7090","addr":"경기도 화성시 병점동 809번지 주공1단지아파트","category":"학원 - 유아원"}]},{"lat":"37.208662274","long":"127.0371394","items":[{"name":"영보꽃방","tel":"031-225-8303","addr":"경기도 화성시 병점동 345-65번지","category":"문화.취미 - 화원"}]},{"lat":"37.208941401","long":"127.03780417","items":[{"name":"영신한우전문점","tel":"031-222-2262","addr":"경기도 화성시 병점동 345-18번지","category":"음료식품 - 정육점"},{"name":"태안인쇄사","tel":"031-223-5940","addr":"경기도 화성시 병점동 345-18번지","category":"서적문구 - 출판 및 인쇄물"}]},{"lat":"37.210580786","long":"127.03947222","items":[{"name":"예담푸드","tel":"031-8031-5008","addr":"경기도 화성시 병점동 827-1번지 상가전체 1층","category":"일반휴게음식 - 일반한식"}]},{"lat":"37.209121213","long":"127.03912229","items":[{"name":"예지어린이집[아이행복]","tel":"031-305-2925","addr":"경기도 화성시 병점동 866번지 신한에스빌1단지 107동 101호","category":"학원 - 유아원"}]},{"lat":"37.207633456","long":"127.04238844","items":[{"name":"옛날집","tel":"031-237-4022","addr":"경기도 화성시 병점동 301-1번지","category":"일반휴게음식 - 일반한식"},{"name":"차호차호","tel":"031-223-5282","addr":"경기도 화성시 병점동 301-1번지 1층","category":"일반휴게음식 - 중국식"}]},{"lat":"37.213478463","long":"127.04986077","items":[{"name":"오토페이스(AUTOPACE)","tel":"031-253-0245","addr":"경기도 화성시 병점동 849번지 안화동마을주공7단지 706동 1404호","category":"자동차정비 유지 - 자동차부품"}]},{"lat":"37.213414452","long":"127.05217024","items":[{"name":"와바구이&샤브샤브부페","tel":"031-234-5298","addr":"경기도 화성시 병점동 203-26번지","category":"일반휴게음식 - 일반한식"}]},{"lat":"37.20995693","long":"127.04584812","items":[{"name":"완두콩어린이집[아이행복]","tel":"031-225-1756","addr":"경기도 화성시 병점동 820번지 안화동마을주공5단지 503동 104호","category":"학원 - 유아원"}]},{"lat":"37.202579006","long":"127.04124811","items":[{"name":"용인대월드태권도","tel":"031-225-8741","addr":"경기도 화성시 병점동 480-20번지 성곡빌딩 2층","category":"학원 - 예·체능계학원"}]},{"lat":"37.211300773","long":"127.04210871","items":[{"name":"우도막국수병점점","tel":"031-233-6557","addr":"경기도 화성시 병점동 832-1번지 다락방빌 1층 101호","category":"일반휴게음식 - 일반한식"}]},{"lat":"37.207859897","long":"127.03867108","items":[{"name":"우리모두마카롱을좋아해","tel":"031-000-0000","addr":"경기도 화성시 병점동 356-43번지","category":"일반휴게음식 - 서양음식"}]},{"lat":"37.211300615","long":"127.04258186","items":[{"name":"워시테리아 화성병점점","tel":"","addr":"경기도 화성시 병점동 833-1번지 인애빌 101호","category":"수리서비스 - 세탁소"}]},{"lat":"37.215407714","long":"127.04718062","items":[{"name":"윈시스템","tel":"031-111-1111","addr":"경기도 화성시 병점동 848번지 안화동마을주공8단지 807동 20층 3호","category":"수리서비스 - 가정용품수리"}]},{"lat":"37.206641262","long":"127.04542944","items":[{"name":"유진장식인테리어","tel":"070-8242-4309","addr":"경기도 화성시 병점동 859번지 느치미마을주공4단지 406동 206호","category":"건축자재 - 인테리어전문"}]},{"lat":"37.208551888","long":"127.04422514","items":[{"name":"육장갈비","tel":"031-236-0543","addr":"경기도 화성시 병점동 842-3번지 1층","category":"일반휴게음식 - 일반한식"}]},{"lat":"37.209859202","long":"127.04183759","items":[{"name":"윤선생IGSE병점태안학원","tel":"031-222-9222","addr":"경기도 화성시 병점동 835-1번지 401호","category":"학원 - 외국어학원"},{"name":"진성유치원[아이행복]","tel":"031-226-1935","addr":"경기도 화성시 병점동 835-1번지","category":"학원 - 유치원"},{"name":"태안태권도장","tel":"031-222-5548","addr":"경기도 화성시 병점동 835-1번지 403호","category":"회원제형태 - 학원"},{"name":"헨델음악학원","tel":"031-898-8686","addr":"경기도 화성시 병점동 835-1번지 보현빌딩 4층","category":"학원 - 예·체능계학원"}]},{"lat":"37.21021788","long":"127.04680582","items":[{"name":"이마트24 화성안화주공점","tel":"","addr":"경기도 화성시 병점동 820번지 안화동마을주공5단지 제상가동 101호","category":"유통업 영리 - 편 의 점"},{"name":"인테리어뷰","tel":"031-239-8804","addr":"경기도 화성시 병점동 820번지 105호 상가","category":"직물 - 카페트,커튼,천막,지물"},{"name":"하늘채어린이집[아이행복]","tel":"031-236-2079","addr":"경기도 화성시 병점동 820번지 안화동마을주공5단지 1층 관리동","category":"학원 - 유아원"}]},{"lat":"37.208580802","long":"127.03842359","items":[{"name":"이안인테리어","tel":"031-233-1600","addr":"경기도 화성시 병점동 345-55번지","category":"건축자재 - 인테리어전문"}]},{"lat":"37.203885864","long":"127.04014485","items":[{"name":"이주은영어학원","tel":"031-233-4523","addr":"경기도 화성시 병점동 817번지 신창1차 상가 1동 204호","category":"학원 - 보습학원"}]},{"lat":"37.210887069","long":"127.03969767","items":[{"name":"전설의짬뽕병점점","tel":"031-221-6364","addr":"경기도 화성시 병점동 826-4번지 1층","category":"일반휴게음식 - 중국식"}]},{"lat":"37.208409796","long":"127.0377814","items":[{"name":"정직팜플라워","tel":"031-222-7968","addr":"경기도 화성시 병점동 345-45번지","category":"문화.취미 - 화원"}]},{"lat":"37.208355717","long":"127.0378377","items":[{"name":"정헤어(미정헤어)","tel":"031-898-7333","addr":"경기도 화성시 병점동 345-50번지 102호","category":"보건위생 - 미용원"}]},{"lat":"37.210913945","long":"127.04019337","items":[{"name":"좋은사람OA","tel":"","addr":"경기도 화성시 병점동 826-7번지 102호","category":"사무통신 - 사무용 OA기기"},{"name":"태영막창","tel":"031-232-8592","addr":"경기도 화성시 병점동 826-7번지","category":"일반휴게음식 - 일반한식"}]},{"lat":"37.207689539","long":"127.03577589","items":[{"name":"주식회사한남엔지니어링","tel":"031-223-2119","addr":"경기도 화성시 병점동 349-30번지 하산빌딩 3층","category":"용역 서비스 - 기타용역서비스"},{"name":"최기방 정한재 한의원","tel":"031-239-2364","addr":"경기도 화성시 병점동 349-30번지","category":"의원 - 한의원"}]},{"lat":"37.205039514","long":"127.03910907","items":[{"name":"주연의류","tel":"031-892-8035","addr":"경기도 화성시 병점동 870번지 화성병점에스케이뷰 106동 902호","category":"의류 - 정장"}]},{"lat":"37.208470854","long":"127.04405611","items":[{"name":"중앙푸드","tel":"031-233-7878","addr":"경기도 화성시 병점동 842-2번지 102호","category":"일반휴게음식 - 일반한식"},{"name":"항아리","tel":"031-232-7787","addr":"경기도 화성시 병점동 842-2번지","category":"일반휴게음식 - 스넥"}]},{"lat":"37.213191063","long":"127.0474497","items":[{"name":"즐거운유치원[아이행복]","tel":"031-223-9223","addr":"경기도 화성시 병점동 854","category":"학원 - 유치원"}]},{"lat":"37.207131197","long":"127.03467168","items":[{"name":"착한가게 닭도리탕1호점","tel":"031-221-0805","addr":"경기도 화성시 병점동 382-12번지 1층","category":"일반휴게음식 - 일반한식"}]},{"lat":"37.206966989","long":"127.04147563","items":[{"name":"참교육학원","tel":"031-239-5849","addr":"경기도 화성시 병점동 813번지 3층 4층","category":"회원제형태 - 학원"}]},{"lat":"37.209787905","long":"127.03937045","items":[{"name":"창의놀이터어린이집[아이행복]","tel":"031-309-8607","addr":"경기도 화성시 병점동 866번지 신한에스빌1단지 103동 104호","category":"학원 - 유아원"}]},{"lat":"37.214911232","long":"127.04955748","items":[{"name":"초원농원","tel":"031-222-2250","addr":"경기도 화성시 병점동 6-1번지 6-2","category":"문화.취미 - 화원"}]},{"lat":"37.213576217","long":"127.05317301","items":[{"name":"초콜릿노래연습장","tel":"031-222-3110","addr":"경기도 화성시 병점동 209번지 ,2,3층","category":"레저업소 - 노 래 방"}]},{"lat":"37.213135359","long":"127.05161803","items":[{"name":"치킨뱅이","tel":"031-231-9856","addr":"경기도 화성시 병점동 203-23번지","category":"일반휴게음식 - 주점"}]},{"lat":"37.204038608","long":"127.04149667","items":[{"name":"치현 생수유통","tel":"031-222-4344","addr":"경기도 화성시 병점동 817 신창 119-106","category":"유통업 영리 - 기타유통업"}]},{"lat":"37.214496522","long":"127.05014305","items":[{"name":"카라꽃화원","tel":"031-234-9393","addr":"경기도 화성시 병점동 8-1번지","category":"문화.취미 - 화원"},{"name":"희림화원","tel":"031-225-1600","addr":"경기도 화성시 병점동 8-1번지","category":"문화.취미 - 화원"}]},{"lat":"37.211165422","long":"127.04269445","items":[{"name":"커피볶는우리동네","tel":"031-222-8033","addr":"경기도 화성시 병점동 833-2번지","category":"일반휴게음식 - 서양음식"}]},{"lat":"37.202443919","long":"127.04103402","items":[{"name":"커피에 반하다","tel":"031-226-6404","addr":"경기도 화성시 병점동 479-1번지 ,1,2층","category":"일반휴게음식 - 서양음식"},{"name":"커피에반하다 병점광은교회점","tel":"031-1111-1111","addr":"경기도 화성시 병점동 479-1번지 1,2층 일부호","category":"일반휴게음식 - 서양음식"}]},{"lat":"37.206328569","long":"127.03719467","items":[{"name":"커피파는 돈가스 집","tel":"031-237-7291","addr":"경기도 화성시 병점동 366-1번지 102호","category":"일반휴게음식 - 일반한식"},{"name":"화인코리아","tel":"031-226-3084","addr":"경기도 화성시 병점동 366-1번지 101호","category":"기타 - 기계공구"}]},{"lat":"37.207941041","long":"127.03850215","items":[{"name":"커피하루","tel":"031-234-5948","addr":"경기도 화성시 병점동 356-2번지","category":"일반휴게음식 - 스넥"}]},{"lat":"37.207525507","long":"127.04185892","items":[{"name":"코다리본가","tel":"031-235-1772","addr":"경기도 화성시 병점동 307-4번지","category":"일반휴게음식 - 일반한식"},{"name":"형원빌딩","tel":"070-4038-0544","addr":"경기도 화성시 병점동 307-4 307-3","category":"레저업소 - 당 구 장"}]},{"lat":"37.209164252","long":"127.04519428","items":[{"name":"퀸앤퀸즈","tel":"070-7728-2707","addr":"경기도 화성시 병점동 133-1번지 2층 전부호","category":"일반휴게음식 - 일반한식"}]},{"lat":"37.213882968","long":"127.05222687","items":[{"name":"크린토피아화성지사","tel":"031-225-1994","addr":"경기도 화성시 병점동 206번지","category":"수리서비스 - 세탁소"}]},{"lat":"37.210409099","long":"127.04102676","items":[{"name":"태안초등학교병설유치원[아이행복]","tel":"031-223-2363","addr":"경기도 화성시 병점동 824번지 태안초등학교","category":"학원 - 유치원"}]},{"lat":"37.212624275","long":"127.04508356","items":[{"name":"태양어린이집[아이행복]","tel":"031-305-8470","addr":"경기도 화성시 병점동 819번지 안화동마을주공9단지 908동 103호","category":"학원 - 유아원"}]},{"lat":"37.210914048","long":"127.03986667","items":[{"name":"태평양참치","tel":"031-221-5966","addr":"경기도 화성시 병점동 826-5번지","category":"일반휴게음식 - 일반한식"}]},{"lat":"37.2079747","long":"127.04570055","items":[{"name":"토실토실어린이집[아이행복]","tel":"031-231-1544","addr":"경기도 화성시 병점동 859번지 느치마을 주공아파트 402동 105호","category":"학원 - 유아원"}]},{"lat":"37.212965331","long":"127.04868881","items":[{"name":"톡톡플러스","tel":"070-7623-6228","addr":"경기도 화성시 병점동 849번지 안화동마을주공7단지 704동 104호","category":"회원제형태 - 학원"}]},{"lat":"37.207194431","long":"127.0340634","items":[{"name":"투썸플레이스 병점역점","tel":"031-228-6954","addr":"경기도 화성시 병점동 383-1번지 1층","category":"일반휴게음식 - 서양음식"}]},{"lat":"37.213189481","long":"127.05147161","items":[{"name":"파리바게트 동탄중앙점","tel":"","addr":"경기도 화성시 병점동 202번지 1층","category":"음료식품 - 제과점"}]},{"lat":"37.20504988","long":"127.03436666","items":[{"name":"파티조아","tel":"031-222-6111","addr":"경기도 화성시 병점동 387-4번지 동현빌딩 101호","category":"용역 서비스 - 종합용역"}]},{"lat":"37.210580014","long":"127.04189429","items":[{"name":"페트라영수전문학원","tel":"031-222-3992","addr":"경기도 화성시 병점동 830-4번지 1층","category":"학원 - 보습학원"}]},{"lat":"37.201857385","long":"127.04361322","items":[{"name":"한빛유치원[아이행복]","tel":"031-223-6566","addr":"경기도 화성시 병점동 455-11","category":"학원 - 유치원"}]},{"lat":"37.210715106","long":"127.04208587","items":[{"name":"한정식가연","tel":"031-273-5123","addr":"경기도 화성시 병점동 831-5번지 1층","category":"일반휴게음식 - 일반한식"}]},{"lat":"37.207743713","long":"127.03537037","items":[{"name":"할리스커피병점역점","tel":"031-223-0737","addr":"경기도 화성시 병점동 349-12번지","category":"일반휴게음식 - 서양음식"}]},{"lat":"37.210770087","long":"127.03920194","items":[{"name":"항아리보쌈","tel":"031-234-9678","addr":"경기도 화성시 병점동 826-1번지","category":"일반휴게음식 - 일반한식"}]},{"lat":"37.211300717","long":"127.04227769","items":[{"name":"해담골 명태간장조림","tel":"","addr":"경기도 화성시 병점동 832-2번지 1층","category":"일반휴게음식 - 일반한식"}]},{"lat":"37.198651235","long":"127.03882443","items":[{"name":"햇살어린이집[아이행복]","tel":"031-236-1004","addr":"경기도 화성시 병점동 520번지 한일타운 103동 108호","category":"학원 - 유아원"}]},{"lat":"37.207608665","long":"127.03497604","items":[{"name":"헤어카페","tel":"031-224-3286","addr":"경기도 화성시 병점동 349-8번지 3층","category":"보건위생 - 미용원"}]},{"lat":"37.201525495","long":"127.03900602","items":[{"name":"현대목재사","tel":"031-232-4175","addr":"경기도 화성시 병점동 471-3번지","category":"건축자재 - 목재·석재·철물"}]},{"lat":"37.208868368","long":"127.04089081","items":[{"name":"현에너지","tel":"031-235-1676","addr":"경기도 화성시 병점동 822 주공2단지 느치미마을 209-103","category":"연료판매점 - 기타연료"}]},{"lat":"37.213390685","long":"127.04357435","items":[{"name":"호반어린이집[아이행복]","tel":"031-221-5739","addr":"경기도 화성시 병점동 819번지 안화동마을주공9단지 903동 103호","category":"학원 - 유아원"}]},{"lat":"37.209049798","long":"127.03686921","items":[{"name":"홈푸드스토리 병점동탄점","tel":"031-225-9235","addr":"경기도 화성시 병점동 347-1번지 1층 일부호","category":"일반휴게음식 - 일반한식"}]},{"lat":"37.204991819","long":"127.04691544","items":[{"name":"화성시니어클럽 노노카페 (구봉산근린공원","tel":"031-8059-4349","addr":"경기도 화성시 병점동 865번지 1층","category":"일반휴게음식 - 서양음식"}]},{"lat":"37.206770078","long":"127.03719487","items":[{"name":"화성시니어클럽 노노카페 (병점1동 주민센","tel":"031-8059-4349","addr":"경기도 화성시 병점동 367번지 1층","category":"일반휴게음식 - 서양음식"}]},{"lat":"37.203076888","long":"127.03328447","items":[{"name":"화성시니어클럽 노노카페 (유앤아이센터점)","tel":"031-8059-4349","addr":"경기도 화성시 병점동 734번지 지하2층","category":"일반휴게음식 - 서양음식"},{"name":"화성시니어클럽 노노카페 (유앤아이센터점)","tel":"031-8059-4349","addr":"경기도 화성시 병점동 734번지 지하2층","category":"일반휴게음식 - 서양음식"},{"name":"화성시니어클럽노노카페 유앤아이센터 2호","tel":"031-8059-4349","addr":"경기도 화성시 병점동 734번지 1층","category":"일반휴게음식 - 서양음식"}]},{"lat":"37.208328725","long":"127.0377025","items":[{"name":"회무침전문점","tel":"070-4634-8871","addr":"경기도 화성시 병점동 345-79번지 1층","category":"일반휴게음식 - 일반한식"}]},{"lat":"37.211048415","long":"127.04231136","items":[{"name":"후라이드킹2019","tel":"031-000-0000","addr":"경기도 화성시 병점동 832-4번지 1층","category":"일반휴게음식 - 스넥"}]}]