[{"lat":"37.292076939","long":"127.15511833","items":[{"name":"(M.Y.B)마이비","tel":"031-111-1111","addr":"경기도 용인시 기흥구 청덕동 569번지 휴먼시아물푸레마을9단지아파트","category":"보건위생 - 화장품"}]},{"lat":"37.291238677","long":"127.14065892","items":[{"name":"(주)가온케이엘 (GaonKL.Ltd)","tel":"031-283-5170","addr":"경기도 용인시 기흥구 청덕동 526-5번지 101호","category":"용역 서비스 - 사무서비스"}]},{"lat":"37.290796914","long":"127.14088366","items":[{"name":"(주)그레이컵스","tel":"","addr":"경기도 용인시 기흥구 청덕동 533-7번지","category":"일반휴게음식 - 서양음식"},{"name":"그린컵스","tel":"031-000-0000","addr":"경기도 용인시 기흥구 청덕동 533-7번지 1층","category":"일반휴게음식 - 서양음식"}]},{"lat":"37.291320021","long":"127.14798944","items":[{"name":"(주)본우드","tel":"031-111-1111","addr":"경기도 용인시 기흥구 청덕동 556번지 3층 D305호","category":"건축자재 - 건축용 요업제품"},{"name":"(주)스위머스","tel":"031-338-5297","addr":"경기도 용인시 기흥구 청덕동 556번지","category":"레저업소 - 수 영 장"},{"name":"(주)시크릿허브코리아","tel":"070-8184-6700","addr":"경기도 용인시 기흥구 청덕동 556번지 용인테크노밸리 B동 8층 13호","category":"보건위생 - 화장품"},{"name":"(주)에이치제이테크윈","tel":"031-229-3159","addr":"경기도 용인시 기흥구 청덕동 556번지 용인테크노밸리 A동 805호","category":"신변잡화 - 기타잡화"},{"name":"(주)케이씨유","tel":"031-229-3536","addr":"경기도 용인시 기흥구 청덕동 556번지 용인테크노밸리 B동 313호","category":"사무통신 - 컴퓨터"},{"name":"About Coffee/이태앤디자인(주) 용인테크노","tel":"031-607-8881","addr":"경기도 용인시 기흥구 청덕동 556번지 지하1층","category":"일반휴게음식 - 서양음식"},{"name":"GS25청덕테크노점","tel":"","addr":"경기도 용인시 기흥구 청덕동 556번지 용인테크노밸리 A동 113호","category":"유통업 영리 - 편 의 점"},{"name":"S-CAR WASH/(주)스티그마","tel":"031-229-3113","addr":"경기도 용인시 기흥구 청덕동 556번지 지-디 208호","category":"자동차정비 유지 - 세차장"},{"name":"다온 3D스캔","tel":"031-229-3013","addr":"경기도 용인시 기흥구 청덕동 556번지 용인테크노밸리 B동 10층 5호","category":"용역 서비스 - 소프트웨어"},{"name":"다원상사","tel":"031-283-6055","addr":"경기도 용인시 기흥구 청덕동 556번지 용인테크노벨리지식산업센터 2층 C205호","category":"사무통신 - 사무용 OA기기"},{"name":"다인한식뷔페","tel":"031-299-2775","addr":"경기도 용인시 기흥구 청덕동 556번지 용인테크노밸리 D동 지하1층 105,106호","category":"일반휴게음식 - 일반한식"},{"name":"달콤커피 용인테크노밸리점","tel":"031-299-2970","addr":"경기도 용인시 기흥구 청덕동 556번지 용인테크노밸리 D동 지층 101호","category":"일반휴게음식 - 서양음식"},{"name":"디자인 오디(Design ODI)","tel":"031-229-3007","addr":"경기도 용인시 기흥구 청덕동 556번지 용인테크노밸리 C동 2층 C201호","category":"용역 서비스 - 사무서비스"},{"name":"라스타 용인테크노밸리점","tel":"031-299-2645","addr":"경기도 용인시 기흥구 청덕동 556번지 용인테크노밸리 지식산업센터 지하1층 L-E107동","category":"일반휴게음식 - 스넥"},{"name":"매니패스터(Manifester)","tel":"","addr":"경기도 용인시 기흥구 청덕동 556번지 용인테크노밸리 C동 202호","category":"학원 - 예·체능계학원"},{"name":"메가박스중앙(주)용인테크노밸리","tel":"031-229-3566","addr":"경기도 용인시 기흥구 청덕동 556번지 용인테크노밸리 지하1층","category":"문화.취미 - 영화관"},{"name":"반장즉석떡볶이 용인테크노밸리점","tel":"031-299-2790","addr":"경기도 용인시 기흥구 청덕동 556번지 용인테크노밸리 E동 101호","category":"일반휴게음식 - 일반한식"},{"name":"써브마린","tel":"031-1644-5297","addr":"경기도 용인시 기흥구 청덕동 556번지 E동 지하2층 G-E202,203,204","category":"레저업소 - 수 영 장"},{"name":"써브마린","tel":"031-1644-5297","addr":"경기도 용인시 기흥구 청덕동 556번지 용인테크노밸리 E동 지하2층 G-E202,203,204호","category":"레저업소 - 수 영 장"},{"name":"아르벨","tel":"031-299-2870","addr":"경기도 용인시 기흥구 청덕동 556번지 용인테크노밸리 B동 1008호","category":"가구 - 일반가구"},{"name":"에듀바비 동탄지사","tel":"070-7160-9919","addr":"경기도 용인시 기흥구 청덕동 556번지 용인테크노밸리 A동 2층 214호","category":"학원 - 기타 교육기관"},{"name":"에이치피아이(HPI)","tel":"031-478-3111","addr":"경기도 용인시 기흥구 청덕동 556번지 용인테크노밸리 B동 10층 1011호","category":"건축자재 - 보일러·펌프·샷시"},{"name":"엘바이오시스템","tel":"031-275-4477","addr":"경기도 용인시 기흥구 청덕동 556번지 9층 A910호","category":"서적문구 - 과학기자재"},{"name":"오호디자인랩","tel":"","addr":"경기도 용인시 기흥구 청덕동 556번지 용인테크노밸리 D동 5층 9호","category":"서적문구 - 기타서적문구"},{"name":"용인테크노밸리 곤리운영위원회","tel":"031-299-2621","addr":"경기도 용인시 기흥구 청덕동 556번지 용인테크노밸리","category":"자동차정비 유지 - 주차장"},{"name":"육대장 용인테크노밸리점","tel":"031-299-2655","addr":"경기도 용인시 기흥구 청덕동 556번지 테크노밸리지식산업센터 지하1층 L-D103호","category":"일반휴게음식 - 일반한식"},{"name":"인테그랄 컴","tel":"031-299-2797","addr":"경기도 용인시 기흥구 청덕동 556번지 용인테크노밸리 C동 지층 204호","category":"전기제품 - 기타전기제품"},{"name":"조엘테크(Joel Tech)","tel":"02-6014-5365","addr":"경기도 용인시 기흥구 청덕동 556번지 용인테크노밸리 B동 510호","category":"보건위생 - 의료용품"},{"name":"주식회사 감성","tel":"031-299-2646","addr":"경기도 용인시 기흥구 청덕동 556번지 용인테크노밸리 D동 302호","category":"용역 서비스 - 사무서비스"},{"name":"주식회사 교아당","tel":"","addr":"경기도 용인시 기흥구 청덕동 556번지 용인테크노밸리 A동 901호","category":"음료식품 - 기타음료식품"},{"name":"주식회사 굿데이탁송","tel":"031-229-3141","addr":"경기도 용인시 기흥구 청덕동 556번지 용인테크노밸리 A동 803호","category":"자동차정비 유지 - 견인서비스"},{"name":"주식회사 디카트","tel":"031-283-9301","addr":"경기도 용인시 기흥구 청덕동 556번지 용인테크노밸리 D동 9층 905호","category":"자동차판매 - 기타운송"},{"name":"주식회사 라스칼라코리아","tel":"031-229-3310","addr":"경기도 용인시 기흥구 청덕동 556번지 용인테크노밸리 C동 1006호","category":"서적문구 - 과학기자재"},{"name":"주식회사 메디스코리아(MEDISE KOREA. LTD)","tel":"070-5220-2120","addr":"경기도 용인시 기흥구 청덕동 556번지 용인테크노밸리 B동 414호","category":"전기제품 - 기타전기제품"},{"name":"주식회사 블루티움","tel":"031-229-3579","addr":"경기도 용인시 기흥구 청덕동 556번지 용인테크노밸리 D동 313호","category":"전기제품 - 기타전기제품"},{"name":"주식회사 스위머스","tel":"00-1644-5297","addr":"경기도 용인시 기흥구 청덕동 556번지 용인테크노밸리 지2층 E202호","category":"레저업소 - 수 영 장"},{"name":"주식회사 에이치엘","tel":"070-8862-6635","addr":"경기도 용인시 기흥구 청덕동 556번지 용인테크노벨리 D동 6층 601호","category":"전기제품 - 기타전기제품"},{"name":"주식회사 타카커피","tel":"02-1599-7017","addr":"경기도 용인시 기흥구 청덕동 556번지 용인테크노밸리 B102호","category":"일반휴게음식 - 서양음식"},{"name":"주식회사 하진코퍼레이션","tel":"031-321-8102","addr":"경기도 용인시 기흥구 청덕동 556번지 용인테크노밸리 C동 201호","category":"건축자재 - 페인트"},{"name":"주식회사엠알오서비스","tel":"031-299-2770","addr":"경기도 용인시 기흥구 청덕동 556번지 용인테크노밸리 1층 비101호","category":"사무통신 - 기타 사무용품"},{"name":"지오메딕스","tel":"031-000-0000","addr":"경기도 용인시 기흥구 청덕동 556번지 용인테크노밸리 D동 지층 205호","category":"전기제품 - 기타전기제품"},{"name":"창공아이디 (ID)","tel":"031-281-6701","addr":"경기도 용인시 기흥구 청덕동 556번지 용인테크노밸리 B동 7층 714호","category":"직물 - 카페트,커튼,천막,지물"},{"name":"토프레소 용인테크노밸리점","tel":"070-7862-1697","addr":"경기도 용인시 기흥구 청덕동 556번지 용인테크노벨리 지하1층 L-E118호","category":"일반휴게음식 - 서양음식"},{"name":"프라빈커피 용인테크노밸리점","tel":"031-299-2763","addr":"경기도 용인시 기흥구 청덕동 556번지 용인테크노밸리 A동 108호","category":"일반휴게음식 - 서양음식"},{"name":"피카소&돈키호테","tel":"031-263-9292","addr":"경기도 용인시 기흥구 청덕동 556번지 1층 비114호","category":"일반휴게음식 - 일반한식"},{"name":"필라스","tel":"031-273-0405","addr":"경기도 용인시 기흥구 청덕동 556번지 용인테크노밸리 D동 301호","category":"사무통신 - 통신기기"},{"name":"황제황칠","tel":"","addr":"경기도 용인시 기흥구 청덕동 556번지 용인테크노밸리 C동 910호","category":"음료식품 - 기타음료식품"}]},{"lat":"37.290788363","long":"127.14048894","items":[{"name":"(주)빠델라","tel":"070-8292-6899","addr":"경기도 용인시 기흥구 청덕동 533-5번지 101호","category":"일반휴게음식 - 서양음식"}]},{"lat":"37.29551368","long":"127.15210272","items":[{"name":"(주)에듀스토리","tel":"031-302-7676","addr":"경기도 용인시 기흥구 청덕동 502-4번지 가나프라자1차 502호","category":"학원 - 예·체능계학원"},{"name":"TB태권도","tel":"031-274-9114","addr":"경기도 용인시 기흥구 청덕동 502-4번지 가나프라자1차 401호 402호","category":"학원 - 예·체능계학원"},{"name":"물푸레건강","tel":"031-275-7848","addr":"경기도 용인시 기흥구 청덕동 502-4번지 가나프라자 1차","category":"회원제형태 - 건강식품"},{"name":"물푸레단비한의원","tel":"031-693-6845","addr":"경기도 용인시 기흥구 청덕동 502-4번지 가나프라자1차 301호","category":"의원 - 한의원"},{"name":"스튜디오키쉬","tel":"070-7563-0625","addr":"경기도 용인시 기흥구 청덕동 502-4번지 가나프라자1차","category":"광학제품 - 사진관"},{"name":"알파 청덕점","tel":"070-4210-7110","addr":"경기도 용인시 기흥구 청덕동 502-4번지 가나프라자1차 203호","category":"서적문구 - 문구용품"},{"name":"연세물푸레소아청소년과","tel":"031-275-7848","addr":"경기도 용인시 기흥구 청덕동 502-4번지 가나프라자1차 303호","category":"의원 - 의원"},{"name":"정예보습학원","tel":"031-282-0506","addr":"경기도 용인시 기흥구 청덕동 502-4번지 가나프라자1차 403호 창덕동","category":"학원 - 보습학원"},{"name":"청덕더올림 수학학원","tel":"","addr":"경기도 용인시 기흥구 청덕동 502-4번지 가나프라자1차 202호 일부","category":"학원 - 보습학원"},{"name":"청덕빈음악학원","tel":"031-285-5944","addr":"경기도 용인시 기흥구 청덕동 502-4번지 가나프라자1차 302호","category":"학원 - 예·체능계학원"},{"name":"파리바게트 용인청덕점","tel":"031-285-8253","addr":"경기도 용인시 기흥구 청덕동 502-4번지 가나프라자1차 106호","category":"음료식품 - 제과점"}]},{"lat":"37.296288558","long":"127.15210425","items":[{"name":"1:1수학코치학원","tel":"070-8836-1001","addr":"경기도 용인시 기흥구 청덕동 502-1번지 503호","category":"회원제형태 - 학원"},{"name":"Liesgen Haus","tel":"070-8845-8166","addr":"경기도 용인시 기흥구 청덕동 502-1번지 일월프라자 101호","category":"일반휴게음식 - 서양음식"},{"name":"감탄 청덕점","tel":"031-285-2830","addr":"경기도 용인시 기흥구 청덕동 502-1번지 일월프라자 106호","category":"일반휴게음식 - 스넥"},{"name":"고봉민김밥인(용인청덕점)","tel":"031-283-0575","addr":"경기도 용인시 기흥구 청덕동 502-1번지 일월프라자 108호","category":"일반휴게음식 - 일반한식"},{"name":"당구장씨드","tel":"031-703-0424","addr":"경기도 용인시 기흥구 청덕동 502-1번지","category":"레저업소 - 당 구 장"},{"name":"더웨이브헤어살롱","tel":"031-274-4431","addr":"경기도 용인시 기흥구 청덕동 502-1번지 일월프라자 201호","category":"보건위생 - 미용원"},{"name":"멜론PC방","tel":"031-896-4413","addr":"경기도 용인시 기흥구 청덕동 502-1번지 일월프라자 402호","category":"레저업소 - 기타레져업소"},{"name":"물푸레해법중국어교습소","tel":"070-7437-9586","addr":"경기도 용인시 기흥구 청덕동 502-1번지 503호","category":"학원 - 외국어학원"},{"name":"베스트축산","tel":"031-287-9990","addr":"경기도 용인시 기흥구 청덕동 502-1번지 103호","category":"음료식품 - 정육점"},{"name":"본죽물푸레마을점","tel":"031-693-5515","addr":"경기도 용인시 기흥구 청덕동 502-1번지 일월프라자 107호","category":"일반휴게음식 - 일반한식"},{"name":"수미세상","tel":"070-7868-9260","addr":"경기도 용인시 기흥구 청덕동 502-1번지 201호","category":"보건위생 - 화장품"},{"name":"아이디스튜디오(ID studio)","tel":"031-217-8008","addr":"경기도 용인시 기흥구 청덕동 502-1번지 일월프라자 501,502호","category":"레저업소 - 헬스클럽"},{"name":"아이앤미가정의학과의원","tel":"031-286-5588","addr":"경기도 용인시 기흥구 청덕동 502-1번지 일월프라자 302호,303호","category":"의원 - 의원"},{"name":"아이앤미가정의학과의원","tel":"031-286-5588","addr":"경기도 용인시 기흥구 청덕동 502-1번지 일원프리지 302호","category":"의원 - 의원"},{"name":"엘스트링 음학 교습소","tel":"","addr":"경기도 용인시 기흥구 청덕동 502-1번지 일월프라자 106호","category":"학원 - 예·체능계학원"},{"name":"위블럭(WE block)","tel":"031-274-0244","addr":"경기도 용인시 기흥구 청덕동 502-1번지","category":"서적문구 - 완구점"},{"name":"자성당구장","tel":"031-274-0693","addr":"경기도 용인시 기흥구 청덕동 502-1번지 401호","category":"레저업소 - 당 구 장"},{"name":"창덕럭셔리노래연습장","tel":"031-275-0752","addr":"경기도 용인시 기흥구 청덕동 502-1번지 일월프라자 3층 301호","category":"레저업소 - 노 래 방"},{"name":"춘하추동","tel":"031-286-9288","addr":"경기도 용인시 기흥구 청덕동 502-1번지 일월프라자 102호","category":"일반휴게음식 - 일반한식"},{"name":"프라미스음악학원","tel":"031-275-1191","addr":"경기도 용인시 기흥구 청덕동 502-1번지 일월프라자 2층 203호","category":"학원 - 예·체능계학원"},{"name":"프라미스음악학원","tel":"031-275-1191","addr":"경기도 용인시 기흥구 청덕동 502-1번지 일월프라자 2층 203호","category":"학원 - 예·체능계학원"},{"name":"호미만가","tel":"031-284-7772","addr":"경기도 용인시 기흥구 청덕동 502-1번지 202호","category":"일반휴게음식 - 서양음식"}]},{"lat":"37.291402298","long":"127.14701973","items":[{"name":"88부대찌개","tel":"031-282-8879","addr":"경기도 용인시 기흥구 청덕동 554-2번지 1층","category":"일반휴게음식 - 일반한식"}]},{"lat":"37.295014153","long":"127.15521447","items":[{"name":"88한낙지","tel":"031-284-1860","addr":"경기도 용인시 기흥구 청덕동 298-9번지 1층","category":"일반휴게음식 - 일반한식"}]},{"lat":"37.291292644","long":"127.14827132","items":[{"name":"BBQ청덕점","tel":"031-275-8280","addr":"경기도 용인시 기흥구 청덕동 250-1호반베르디움상가106,107호","category":"일반휴게음식 - 서양음식"}]},{"lat":"37.295153271","long":"127.15210201","items":[{"name":"BHC용인 청덕점","tel":"031-287-0371","addr":"경기도 용인시 기흥구 청덕동 502-6번지 가나프라자2차 104호","category":"일반휴게음식 - 스넥"},{"name":"광교반점","tel":"031-281-8259","addr":"경기도 용인시 기흥구 청덕동 502-6번지 가나프라자2차 201호","category":"일반휴게음식 - 일반한식"},{"name":"마녀영수학원","tel":"031-282-8270","addr":"경기도 용인시 기흥구 청덕동 502-6번지 가나프라자2차 5층","category":"학원 - 보습학원"},{"name":"승피자","tel":"031-281-0249","addr":"경기도 용인시 기흥구 청덕동 502-6번지 가나프라자2차 1층 103호","category":"일반휴게음식 - 서양음식"},{"name":"에이플러스영수학원","tel":"","addr":"경기도 용인시 기흥구 청덕동 502-6번지 가나프라자2차 501호","category":"학원 - 보습학원"},{"name":"이디야커피 용인물푸레마을점","tel":"031-287-6402","addr":"경기도 용인시 기흥구 청덕동 502-6번지 가나프라자2차 1층 102호,103호 일부","category":"일반휴게음식 - 서양음식"},{"name":"초원축산","tel":"031-274-1599","addr":"경기도 용인시 기흥구 청덕동 502-6번지 가나프라자 101호","category":"음료식품 - 정육점"},{"name":"한스어패럴","tel":"031-897-0874","addr":"경기도 용인시 기흥구 청덕동 502-6번지 101호-1","category":"의류 - 정장"}]},{"lat":"37.291650581","long":"127.14284751","items":[{"name":"GOOD PLAN (굿플랜)","tel":"02-1522-9942","addr":"경기도 용인시 기흥구 청덕동 529-3번지 102호","category":"음료식품 - 기타음료식품"}]},{"lat":"37.291623244","long":"127.14310685","items":[{"name":"GRATIA CAFE","tel":"031-283-2004","addr":"경기도 용인시 기흥구 청덕동 529-5번지 1층","category":"일반휴게음식 - 서양음식"}]},{"lat":"37.292711985","long":"127.15171375","items":[{"name":"GS25용인청덕점","tel":"02-2006-2485","addr":"경기도 용인시 기흥구 청덕동 565번지 휴먼시아물푸레 상가 101호","category":"유통업 영리 - 편 의 점"},{"name":"소우리축산","tel":"031-287-9211","addr":"경기도 용인시 기흥구 청덕동 565번지 휴먼시아물푸레마을 상가동 103호","category":"음료식품 - 정육점"}]},{"lat":"37.291288981","long":"127.14385054","items":[{"name":"GS25청덕빌리지점","tel":"","addr":"경기도 용인시 기흥구 청덕동 537-1번지 1층","category":"유통업 영리 - 편 의 점"}]},{"lat":"37.291789875","long":"127.14690769","items":[{"name":"GS25청덕타운점","tel":"","addr":"경기도 용인시 기흥구 청덕동 551-9번지","category":"유통업 영리 - 편 의 점"}]},{"lat":"37.292068725","long":"127.14729166","items":[{"name":"J라인네일","tel":"031-281-4287","addr":"경기도 용인시 기흥구 청덕동 555-2번지 102호","category":"보건위생 - 피부미용실"},{"name":"물푸레사계절밥상","tel":"031-287-0668","addr":"경기도 용인시 기흥구 청덕동 555-2번지 101호","category":"일반휴게음식 - 일반한식"}]},{"lat":"37.290768722","long":"127.14187602","items":[{"name":"YK 세웅 엘이디조명","tel":"031-281-1767","addr":"경기도 용인시 기흥구 청덕동 534-6번지 1층","category":"건축자재 - 조명기구"}]},{"lat":"37.290741201","long":"127.14229324","items":[{"name":"가가스포츠","tel":"031-322-5669","addr":"경기도 용인시 기흥구 청덕동 535-2번지 101호","category":"레져용품 - 스포츠·레져용품"},{"name":"홍반장커피","tel":"070-6253-3253","addr":"경기도 용인시 기흥구 청덕동 535-2번지 1층","category":"주방용구 - 주방용구"}]},{"lat":"37.293350972","long":"127.15230145","items":[{"name":"가온교육정보","tel":"","addr":"경기도 용인시 기흥구 청덕동 565번지 휴먼시아물푸레마을7단지아파트","category":"용역 서비스 - 소프트웨어"},{"name":"오물조물 신나는 아동요리","tel":"","addr":"경기도 용인시 기흥구 청덕동 565번지 휴먼시아물푸레마을7단지아파트","category":"문화.취미 - 문화취미기타"},{"name":"티제이공조","tel":"","addr":"경기도 용인시 기흥구 청덕동 565번지 휴먼시아물푸레마을7단지아파트","category":"용역 서비스 - 기타용역서비스"}]},{"lat":"37.292042737","long":"127.14643452","items":[{"name":"감동수산","tel":"070-2570-9142","addr":"경기도 용인시 기흥구 청덕동 547-5번지 1층 일부","category":"음료식품 - 농·축·수산품"},{"name":"감동장어","tel":"031-283-4884","addr":"경기도 용인시 기흥구 청덕동 547-5번지","category":"일반휴게음식 - 일반한식"}]},{"lat":"37.290817045","long":"127.14668029","items":[{"name":"갤러리카페","tel":"031-275-7008","addr":"경기도 용인시 기흥구 청덕동 552-7번지 지하1층","category":"일반휴게음식 - 서양음식"},{"name":"캐릭터","tel":"","addr":"경기도 용인시 기흥구 청덕동 552-7번지","category":"문화.취미 - 화랑"}]},{"lat":"37.291818816","long":"127.14532889","items":[{"name":"경성갈매기살","tel":"031-286-3392","addr":"경기도 용인시 기흥구 청덕동 546-2번지 대림프라자 105,107,108호","category":"일반휴게음식 - 일반한식"},{"name":"경성회수산","tel":"031-287-6211","addr":"경기도 용인시 기흥구 청덕동 546-2번지 대림프라자 106호","category":"일반휴게음식 - 일식·회집"},{"name":"만나","tel":"031-285-2536","addr":"경기도 용인시 기흥구 청덕동 546-2 대림프라자 104~108호","category":"일반휴게음식 - 스넥"},{"name":"세진환경","tel":"031-281-6312","addr":"경기도 용인시 기흥구 청덕동 구성택지개발지구 1-2 브럭 대림프라자 103","category":"용역 서비스 - 기타용역서비스"},{"name":"잔칫날","tel":"031-274-1266","addr":"경기도 용인시 기흥구 청덕동 546-2번지 대림프라자 104호","category":"일반휴게음식 - 일반한식"}]},{"lat":"37.294514071","long":"127.15168346","items":[{"name":"경희대슈퍼키즈태권도","tel":"031-693-8582","addr":"경기도 용인시 기흥구 청덕동 502-9번지 한양프라자 5층","category":"학원 - 예·체능계학원"},{"name":"모닝마트(하모니구성점)","tel":"031-693-8041","addr":"경기도 용인시 기흥구 청덕동 502-9번지 한양프라자","category":"유통업 영리 - 슈퍼마켓"},{"name":"올레김밥","tel":"031-282-4473","addr":"경기도 용인시 기흥구 청덕동 502-9번지 한양프라자 1층","category":"일반휴게음식 - 스넥"},{"name":"휘트니스모두","tel":"031-282-6788","addr":"경기도 용인시 기흥구 청덕동 502-9번지 한양프라자 4층","category":"레저업소 - 헬스클럽"}]},{"lat":"37.302207219","long":"127.16654192","items":[{"name":"골프AJ","tel":"070-7420-7774","addr":"경기도 용인시 기흥구 청덕동 80-2번지","category":"레저업소 - 골프연습장"},{"name":"주식회사 비에스푸드 용인지점","tel":"031-1644-3137","addr":"경기도 용인시 기흥구 청덕동 80-2번지 88컨트리클럽","category":"일반휴게음식 - 일반한식"},{"name":"주식회사 펜타앤 88골프장점","tel":"031-261-6243","addr":"경기도 용인시 기흥구 청덕동 80-2번지 2층","category":"레져용품 - 골프용품 전문점"},{"name":"지엠에이 주식회사","tel":"070-7836-5678","addr":"경기도 용인시 기흥구 청덕동 80-2번지 3층 실외골프연습장","category":"레저업소 - 골프연습장"},{"name":"필디셔닝(Filedtioning)","tel":"070-8158-6057","addr":"경기도 용인시 기흥구 청덕동 80-2번지 88호 컨트리클럽","category":"회원제형태 - 레져업소"}]},{"lat":"37.294928087","long":"127.15204517","items":[{"name":"공터영어청덕센터학원","tel":"031-283-3709","addr":"경기도 용인시 기흥구 청덕동 502-7번지 우성프라자 301호","category":"학원 - 보습학원"},{"name":"명문음악학원","tel":"031-410-3468","addr":"경기도 용인시 기흥구 청덕동 502-7번지 우성프라자 402호","category":"학원 - 예·체능계학원"},{"name":"미미플라워&가드닝","tel":"031-287-8082","addr":"경기도 용인시 기흥구 청덕동 502-7번지 우성프라자 103호","category":"문화.취미 - 화원"},{"name":"블럭하임","tel":"031-281-7595","addr":"경기도 용인시 기흥구 청덕동 502-7번지 우성프라자 201호","category":"서적문구 - 완구점"},{"name":"신데렐라","tel":"","addr":"경기도 용인시 기흥구 청덕동 502-7번지 우성프라자 1층 102-2호","category":"보건위생 - 미용원"},{"name":"어썸 피티(AWESOME PT)","tel":"031-283-0215","addr":"경기도 용인시 기흥구 청덕동 502-7번지 우성프라자 202호","category":"레저업소 - 헬스클럽"},{"name":"정쌤학원","tel":"031-283-5700","addr":"경기도 용인시 기흥구 청덕동 502-7번지 우성프라자 401호","category":"학원 - 보습학원"},{"name":"청덕올리브미술학원","tel":"070-4418-0105","addr":"경기도 용인시 기흥구 청덕동 502-7번지 우성프라자 302호","category":"학원 - 예·체능계학원"},{"name":"커피베이구성점","tel":"031-283-7171","addr":"경기도 용인시 기흥구 청덕동 502-7번지 우성프라자 1층 103호","category":"일반휴게음식 - 서양음식"},{"name":"훌랄라 청덕1점","tel":"031-287-1113","addr":"경기도 용인시 기흥구 청덕동 502-7번지 우성프라자 104호","category":"일반휴게음식 - 일반한식"}]},{"lat":"37.292205426","long":"127.14601755","items":[{"name":"구성노인전문요양원","tel":"031-287-6699","addr":"경기도 용인시 기흥구 청덕동 546-5번지","category":"기타의료기관 - 기타의료기관 및 기타"}]},{"lat":"37.295849291","long":"127.15032143","items":[{"name":"구성선약국","tel":"031-8013-4749","addr":"경기도 용인시 기흥구 청덕동 503번지 휴먼시아물푸레마을 상가동 B101호","category":"약국 - 약국"},{"name":"구성선약국","tel":"031-8013-4749","addr":"경기도 용인시 기흥구 청덕동 503번지 물푸레마을 상가 101호","category":"약국 - 약국"},{"name":"또봉이통닭 청덕점","tel":"031-287-9285","addr":"경기도 용인시 기흥구 청덕동 503번지 휴먼시아물푸레마을상가동B102호","category":"일반휴게음식 - 스넥"},{"name":"서울햇님소아청소년과","tel":"031-261-6288","addr":"경기도 용인시 기흥구 청덕동 503번지 휴먼시아물푸레마을5단지아파트 103호","category":"의원 - 의원"},{"name":"아르떼피아노교습소","tel":"031-693-7857","addr":"경기도 용인시 기흥구 청덕동 503번지 휴먼시아물푸레마을5단지아파트 B동 106호","category":"학원 - 예·체능계학원"},{"name":"페르소나","tel":"070-8719-5017","addr":"경기도 용인시 기흥구 청덕동 503번지 휴먼시아물푸레마을상가동 B104호","category":"보건위생 - 미용원"}]},{"lat":"37.289656292","long":"127.13769012","items":[{"name":"국민레카8","tel":"031-372-2711","addr":"경기도 용인시 기흥구 청덕동 396-4번지 1층","category":"자동차정비 유지 - 견인서비스"},{"name":"삼성공업사","tel":"031-275-4488","addr":"경기도 용인시 기흥구 청덕동 396-4번지","category":"자동차정비 유지 - 자동차정비"},{"name":"피제이(P. J)모터 서비스 센터","tel":"031-287-6500","addr":"경기도 용인시 기흥구 청덕동 396-4번지","category":"자동차정비 유지 - 자동차정비"}]},{"lat":"37.28976773","long":"127.13474696","items":[{"name":"그린광고","tel":"031-285-1814","addr":"경기도 용인시 기흥구 청덕동 385-1번지 103호","category":"건축자재 - 인테리어전문"},{"name":"극동건재","tel":"031-256-4191","addr":"경기도 용인시 기흥구 청덕동 385-1번지","category":"건축자재 - 기타건축자재"},{"name":"카시스템","tel":"031-283-3175","addr":"경기도 용인시 기흥구 청덕동 385-1,5호~6호","category":"자동차정비 유지 - 가타자동차서비스"}]},{"lat":"37.297088581","long":"127.15359457","items":[{"name":"꽃이야나무야 용인수원","tel":"031-000-0000","addr":"경기도 용인시 기흥구 청덕동 497번지 물푸레마을4단지경남아너스빌","category":"문화.취미 - 화원"}]},{"lat":"37.28815361","long":"127.14368681","items":[{"name":"꽃향기요양원","tel":"031-283-4321","addr":"경기도 용인시 기흥구 청덕동 203-13번지","category":"기타의료기관 - 기타의료기관 및 기타"}]},{"lat":"37.293294806","long":"127.15395917","items":[{"name":"나리피아노교습소","tel":"031-281-7271","addr":"경기도 용인시 기흥구 청덕동 567번지 용인구성호반베르디움물푸레 816동 102호","category":"학원 - 예·체능계학원"},{"name":"두발짱헤어","tel":"031-274-5217","addr":"경기도 용인시 기흥구 청덕동 567번지 물푸레마을8단지호반베르디움","category":"보건위생 - 미용원"},{"name":"러블리헤어","tel":"031-693-7763","addr":"경기도 용인시 기흥구 청덕동 567번지 물푸레마을8단지호반베르디움","category":"보건위생 - 미용원"},{"name":"율의모리노리","tel":"070-4215-2463","addr":"경기도 용인시 기흥구 청덕동 567번지 용인구성호반베르디움물푸레마을 816동 103호","category":"의류 - 정장"},{"name":"차칸곱창","tel":"031-281-5583","addr":"경기도 용인시 기흥구 청덕동 567번지 물푸레마을8단지호반베르디움","category":"일반휴게음식 - 일반한식"},{"name":"헤어공작소","tel":"031-281-5075","addr":"경기도 용인시 기흥구 청덕동 567번지 물푸레마을8단지호반베르디움 816동 108호","category":"보건위생 - 미용원"}]},{"lat":"37.290907954","long":"127.14601509","items":[{"name":"네시사십사분","tel":"070-8870-8063","addr":"경기도 용인시 기흥구 청덕동 552-1번지 지하","category":"문화.취미 - 민예·공예품"}]},{"lat":"37.297906446","long":"127.15520902","items":[{"name":"농업회사법인 성진축산 주식회사","tel":"02-2038-0075","addr":"경기도 용인시 기흥구 청덕동 49-1번지","category":"음료식품 - 정육점"}]},{"lat":"37.294712012","long":"127.15190941","items":[{"name":"농협목우촌웰빙마을구성청덕점","tel":"031-286-8887","addr":"경기도 용인시 기흥구 청덕동 502-8번지 청덕프라자 102호","category":"음료식품 - 정육점"},{"name":"물푸레창의수학교습소","tel":"031-000-0000","addr":"경기도 용인시 기흥구 청덕동 502-8번지 청덕프라자 4층","category":"학원 - 보습학원"},{"name":"물푸레컴퓨터교습소","tel":"","addr":"경기도 용인시 기흥구 청덕동 502-8번지 청덕프라자 404호","category":"학원 - 컴퓨터학원"},{"name":"미미플라워 & 카페","tel":"031-1111-1111","addr":"경기도 용인시 기흥구 청덕동 502-8번지 청덕프라자 102호 일부호","category":"일반휴게음식 - 서양음식"},{"name":"보스톤 아름다운 치과","tel":"031-274-2857","addr":"경기도 용인시 기흥구 청덕동 502-8번지 청덕프라자 401호","category":"의원 - 치과의원"},{"name":"보스톤아름다운치과","tel":"031-274-2857","addr":"경기도 용인시 기흥구 청덕동 502-8번지 청덕프라자 401호","category":"의원 - 치과의원"},{"name":"보스톤아름다운치과","tel":"031-274-2857","addr":"경기도 용인시 기흥구 청덕동 502-8번지 청덕프라자 401호","category":"의원 - 치과의원"},{"name":"석사경희대태권도","tel":"031-287-9053","addr":"경기도 용인시 기흥구 청덕동 502-8번지 청덕프라자 201호","category":"학원 - 예·체능계학원"},{"name":"슬림바디 필라테스","tel":"031-282-9733","addr":"경기도 용인시 기흥구 청덕동 502-8번지 청덕프라자 5층 502호","category":"레저업소 - 헬스클럽"},{"name":"이든네이처 용인동백지사","tel":"031-275-9700","addr":"경기도 용인시 기흥구 청덕동 502-8번지 청덕프라자 302호","category":"보건위생 - 화장품"},{"name":"제우스 영수학원","tel":"031-274-1994","addr":"경기도 용인시 기흥구 청덕동 502-8번지 청덕프라자 201호","category":"학원 - 보습학원"},{"name":"제이와이잉글리쉬아카데미학원","tel":"070-8141-7454","addr":"경기도 용인시 기흥구 청덕동 502-8번지 청덕프라자 5층 501호","category":"학원 - 보습학원"},{"name":"한스수학교습소","tel":"031-000-0000","addr":"경기도 용인시 기흥구 청덕동 502-8번지 청덕프라자 402호","category":"학원 - 보습학원"}]},{"lat":"37.294761649","long":"127.15538313","items":[{"name":"누들로드(주)","tel":"02-1111-1111","addr":"경기도 용인시 기흥구 청덕동 298-21번지","category":"의류 - 정장"},{"name":"빌더스어학원","tel":"031-274-6866","addr":"경기도 용인시 기흥구 청덕동 298-21번지 2층","category":"학원 - 외국어학원"}]},{"lat":"37.291629967","long":"127.14502404","items":[{"name":"누아즈(NUAGE)","tel":"031-286-5026","addr":"경기도 용인시 기흥구 청덕동 546-1번지 주공프라자 102호","category":"음료식품 - 제과점"},{"name":"두원메디칼","tel":"070-4200-2031","addr":"경기도 용인시 기흥구 청덕동 구성지구상업용지1-1주공프라자204","category":"보건위생 - 의료용품"},{"name":"불닭발땡초동대문엽기떡볶이용인청덕점","tel":"031-287-8591","addr":"경기도 용인시 기흥구 청덕동 546-1번지 주공프라자 101호","category":"일반휴게음식 - 일반한식"},{"name":"사랑나무데이케어센터","tel":"031-287-0027","addr":"경기도 용인시 기흥구 청덕동 546-1번지 주공프라자 2층","category":"기타의료기관 - 기타의료기관 및 기타"},{"name":"사랑나무요양원","tel":"031-287-0075","addr":"경기도 용인시 기흥구 청덕동 546-1번지 주공프라자 3,4,5층","category":"기타의료기관 - 기타의료기관 및 기타"},{"name":"오톤(AUTONE)","tel":"031-274-5125","addr":"경기도 용인시 기흥구 청덕동 546-1번지 주공프라자 106호","category":"자동차정비 유지 - 윤활유 전문 판매"},{"name":"치킨카페 (꼬&비)","tel":"031-000-0000","addr":"경기도 용인시 기흥구 청덕동 546-1번지 주공프라자 1층 109호","category":"일반휴게음식 - 일반한식"},{"name":"하이컴정보통신","tel":"031-281-0256","addr":"경기도 용인시 기흥구 청덕동 546-1번지 주공프라자 104호","category":"사무통신 - 사무용 OA기기"},{"name":"하이컴정보통신","tel":"031-281-0256","addr":"경기도 용인시 기흥구 청덕동 546-1번지 주공프라자 104호","category":"사무통신 - 사무용 OA기기"},{"name":"홍짬뽕","tel":"031-282-8220","addr":"경기도 용인시 기흥구 청덕동 546-1번지 주공프라자 107,108호","category":"일반휴게음식 - 중국식"}]},{"lat":"37.291123789","long":"127.14635383","items":[{"name":"늘찬교육","tel":"031-000-0000","addr":"경기도 용인시 기흥구 청덕동 553-1번지 101호","category":"서적문구 - 일반서적"},{"name":"윈드킹","tel":"","addr":"경기도 용인시 기흥구 청덕동 553-1번지 101호","category":"자동차정비 유지 - 카인테리어"}]},{"lat":"37.296027305","long":"127.1520699","items":[{"name":"늘푸른이비인후과","tel":"031-274-2577","addr":"경기도 용인시 기흥구 청덕동 502-2번지 구성프라자 301호","category":"의원 - 의원"},{"name":"맥수학전문학원","tel":"","addr":"경기도 용인시 기흥구 청덕동 502-2번지 구성프라자 401호","category":"학원 - 보습학원"},{"name":"미소야","tel":"031-286-4253","addr":"경기도 용인시 기흥구 청덕동 502-2번지 구성프라자 102호","category":"일반휴게음식 - 일반한식"},{"name":"바른안경원","tel":"031-283-8084","addr":"경기도 용인시 기흥구 청덕동 502-2번지","category":"보건위생 - 안경"},{"name":"백플러스 수학교습소","tel":"","addr":"경기도 용인시 기흥구 청덕동 502-2번지 구성프라자 2층 202호","category":"학원 - 보습학원"},{"name":"비상매쓰캔수신학원","tel":"031-285-5992","addr":"경기도 용인시 기흥구 청덕동 502-2번지 구성프라자 503호","category":"회원제형태 - 학원"},{"name":"사랑약국","tel":"031-275-5750","addr":"경기도 용인시 기흥구 청덕동 502-2번지 구성프라자 107호","category":"약국 - 약국"},{"name":"알고스어학원","tel":"031-287-0533","addr":"경기도 용인시 기흥구 청덕동 502-2번지 구성프라자 202호","category":"회원제형태 - 학원"},{"name":"우리내과의원","tel":"031-281-3375","addr":"경기도 용인시 기흥구 청덕동 502-2번지 구성프라자 302호","category":"의원 - 의원"},{"name":"청덕홍익하우미술교습소","tel":"031-693-7752","addr":"경기도 용인시 기흥구 청덕동 502-2번지 구성프라자 402호","category":"학원 - 예·체능계학원"},{"name":"치킨마루","tel":"031-8005-8839","addr":"경기도 용인시 기흥구 청덕동 502-2번지 구성프라자 105호","category":"일반휴게음식 - 스넥"},{"name":"플란트치과","tel":"031-275-2890","addr":"경기도 용인시 기흥구 청덕동 502-2번지 구성프라자 303호","category":"의원 - 치과의원"},{"name":"피아노포르테음악학원","tel":"031-693-5777","addr":"경기도 용인시 기흥구 청덕동 502-2번지 구성프라자 502호","category":"학원 - 예·체능계학원"},{"name":"한국OA경기영업소","tel":"02-523-0140","addr":"경기도 용인시 기흥구 청덕동 502-2번지 구성프라자 107호","category":"가구 - 기타가구"},{"name":"한체대석사복싱클럽","tel":"031-282-7988","addr":"경기도 용인시 기흥구 청덕동 502-2번지 구성프라자 201호","category":"레저업소 - 헬스클럽"},{"name":"햇살떡","tel":"031-285-3001","addr":"경기도 용인시 기흥구 청덕동 502-2번지 구성프라자 103호","category":"음료식품 - 제과점"}]},{"lat":"37.288207215","long":"127.14407033","items":[{"name":"다잡아누수전문설비","tel":"031-282-1538","addr":"경기도 용인시 기흥구 청덕동 203-10번지 가동","category":"용역 서비스 - 종합용역"}]},{"lat":"37.287268324","long":"127.1379114","items":[{"name":"대성철물골재","tel":"031-283-2142","addr":"경기도 용인시 기흥구 청덕동 392-13번지 아름다운가구","category":"건축자재 - 기타건축자재"},{"name":"무이프랑주식회사","tel":"031-284-3368","addr":"경기도 용인시 기흥구 청덕동 392-13번지","category":"가구 - 일반가구"}]},{"lat":"37.289872675","long":"127.14526883","items":[{"name":"대추나무집","tel":"031-286-1034","addr":"경기도 용인시 기흥구 청덕동 216번지","category":"일반휴게음식 - 일반한식"},{"name":"청송가든","tel":"031-233-0162","addr":"경기도 용인시 기흥구 청덕동 216번지 1층 일부","category":"일반휴게음식 - 일반한식"}]},{"lat":"37.294184676","long":"127.15563008","items":[{"name":"덕암물산 주식회사","tel":"031-281-2239","addr":"경기도 용인시 기흥구 청덕동 150-3번지 1층","category":"약국 - 제약회사"}]},{"lat":"37.295122493","long":"127.15504552","items":[{"name":"덕하우스","tel":"031-753-4567","addr":"경기도 용인시 기흥구 청덕동 298-7번지 1층","category":"일반휴게음식 - 일반한식"}]},{"lat":"37.299822836","long":"127.15029535","items":[{"name":"돌샘국어교습소","tel":"031-275-7795","addr":"경기도 용인시 기흥구 청덕동 488번지 휴먼시아물푸레마을3단지아파트 101호 나상가동","category":"회원제형태 - 학원"},{"name":"물푸레한솔플러스수학교습소","tel":"031-285-3035","addr":"경기도 용인시 기흥구 청덕동 488번지 휴먼시아물푸레마을 상가 204호","category":"회원제형태 - 학원"},{"name":"반디수학","tel":"031-283-2457","addr":"경기도 용인시 기흥구 청덕동 488번지 휴먼시아물푸레마을3단지아파트 101호 나상가동","category":"회원제형태 - 학원"},{"name":"씨유용인휴먼시아스카이점","tel":"031-274-7588","addr":"경기도 용인시 기흥구 청덕동 488번지 휴먼시아3단지 가상가동 106호","category":"유통업 영리 - 편 의 점"},{"name":"헤어넷","tel":"031-275-0664","addr":"경기도 용인시 기흥구 청덕동 488번지 휴먼시아물푸레마을 상가 208호","category":"보건위생 - 미용원"}]},{"lat":"37.287161597","long":"127.14442924","items":[{"name":"동부급식","tel":"031-287-4323","addr":"경기도 용인시 기흥구 청덕동 482청덕마을광도와이드빌102-901","category":"음료식품 - 기타음료식품"}]},{"lat":"37.291124363","long":"127.14588018","items":[{"name":"드플로르(de flore)","tel":"031-285-5591","addr":"경기도 용인시 기흥구 청덕동 551-1번지","category":"일반휴게음식 - 일반한식"}]},{"lat":"37.289294865","long":"127.13858038","items":[{"name":"들온정","tel":"031-264-5282","addr":"경기도 용인시 기흥구 청덕동 394-1번지","category":"일반휴게음식 - 일반한식"}]},{"lat":"37.293566032","long":"127.15323793","items":[{"name":"디바잉","tel":"031-000-0000","addr":"경기도 용인시 기흥구 청덕동 567번지 물푸레마을8단지호반베르디움","category":"용역 서비스 - 사무서비스"},{"name":"제이엠지(JMG)","tel":"070-7692-2788","addr":"경기도 용인시 기흥구 청덕동 567번지 용인구성호반베르디움물푸레마 807동 101호","category":"보건위생 - 안경"}]},{"lat":"37.291487903","long":"127.14326448","items":[{"name":"딥스아동청소년발달센터","tel":"031-285-5208","addr":"경기도 용인시 기흥구 청덕동 529-11번지 1층","category":"보건위생 - 기타대인서비스"}]},{"lat":"37.291012909","long":"127.14109833","items":[{"name":"따스한 동물병원","tel":"031-8013-0075","addr":"경기도 용인시 기흥구 청덕동 528-1번지 1층","category":"기타의료기관 - 동물병원"}]},{"lat":"37.290295671","long":"127.13799575","items":[{"name":"떡낭자","tel":"031-284-7942","addr":"경기도 용인시 기흥구 청덕동 540-1번지 근린상가 1","category":"음료식품 - 제과점"},{"name":"장지리가마솥해장국","tel":"031-274-8709","addr":"경기도 용인시 기흥구 청덕동 540-1번지 근린상가 1층 5.6호","category":"일반휴게음식 - 일반한식"},{"name":"청덕갈비촌","tel":"031-693-6552","addr":"경기도 용인시 기흥구 청덕동 540-1번지 102호,103호","category":"일반휴게음식 - 일반한식"},{"name":"하이컴정보통신","tel":"070-7579-2659","addr":"경기도 용인시 기흥구 청덕동 540-1 구성택지개발지구근린상가 7","category":"사무통신 - 컴퓨터"}]},{"lat":"37.295445718","long":"127.1487981","items":[{"name":"라인디자인","tel":"031-8005-7694","addr":"경기도 용인시 기흥구 청덕동 506번지 휴먼시아물푸레마을2단지아파트","category":"건축자재 - 인테리어전문"}]},{"lat":"37.291150382","long":"127.14671476","items":[{"name":"램프스탠드커피","tel":"031-283-1365","addr":"경기도 용인시 기흥구 청덕동 553-5번지","category":"일반휴게음식 - 서양음식"}]},{"lat":"37.295096831","long":"127.14674483","items":[{"name":"로뎀헤어라인","tel":"031-693-9858","addr":"경기도 용인시 기흥구 청덕동 513번지 휴먼시아물푸레마을 상가동 103호","category":"보건위생 - 미용원"},{"name":"청덕해법영어교습소","tel":"031-4232-1505","addr":"경기도 용인시 기흥구 청덕동 513번지 휴먼시아물푸레마을 104호","category":"회원제형태 - 학원"}]},{"lat":"37.292133822","long":"127.15290803","items":[{"name":"롯데칠성남대문상회","tel":"02-3474-9512","addr":"경기도 용인시 기흥구 청덕동 569 휴먼시아물푸레마을 906-401","category":"음료식품 - 기타음료식품"}]},{"lat":"37.291873467","long":"127.1521632","items":[{"name":"리본트리","tel":"070-8739-4554","addr":"경기도 용인시 기흥구 청덕동 569번지 휴먼시아물푸레마을9단지아파트","category":"회원제형태 - 기타4"}]},{"lat":"37.295240363","long":"127.14726389","items":[{"name":"리본플라워","tel":"031-252-3474","addr":"경기도 용인시 기흥구 청덕동 513번지 휴먼시아물푸레마을1단지아파트","category":"문화.취미 - 화원"}]},{"lat":"37.300175648","long":"127.14915688","items":[{"name":"릴리앤메이","tel":"","addr":"경기도 용인시 기흥구 청덕동 488번지 휴먼시아물푸레마을3단지아파트","category":"문화.취미 - 화원"}]},{"lat":"37.287539851","long":"127.14457655","items":[{"name":"마가의 다락방","tel":"","addr":"경기도 용인시 기흥구 청덕동 482-1번지 청덕마을광도와이드빌 102동 1301호","category":"의류 - 정장"},{"name":"스파크분당중앙대리점","tel":"031-266-0635","addr":"경기도 용인시 기흥구 청덕동 482-1번지 청덕마을광도와이드빌 105동 1404호","category":"유통업 영리 - 기타유통업"},{"name":"아이러브진","tel":"070-4248-6298","addr":"경기도 용인시 기흥구 청덕동 482-1번지 청덕마을광도와이드빌 106동 103호","category":"회원제형태 - 기타1"},{"name":"용인하수구막힘변기뚫음누수탐지/혁신설비","tel":"","addr":"경기도 용인시 기흥구 청덕동 482-1번지 청덕마을광도와이드빌 103동 504호","category":"수리서비스 - 기타수리서비스"},{"name":"큐싸인광고기획","tel":"031-321-7444","addr":"경기도 용인시 기흥구 청덕동 482-1번지 청덕마을광도와이드빌아파트 상가 207호","category":"용역 서비스 - 사무서비스"},{"name":"헤어","tel":"031-275-6018","addr":"경기도 용인시 기흥구 청덕동 482-1번지 청덕마을광도와이드빌 상가동 102호","category":"보건위생 - 미용원"}]},{"lat":"37.291238454","long":"127.14085064","items":[{"name":"마렌","tel":"031-283-0828","addr":"경기도 용인시 기흥구 청덕동 526-4번지 1층 101호","category":"보건위생 - 피부미용실"},{"name":"써틴","tel":"031-000-0000","addr":"경기도 용인시 기흥구 청덕동 526-4번지 1층","category":"문화.취미 - 문화취미기타"},{"name":"카페포레","tel":"031-284-9995","addr":"경기도 용인시 기흥구 청덕동 526-4번지 1층 일부","category":"일반휴게음식 - 서양음식"}]},{"lat":"37.290235401","long":"127.14332982","items":[{"name":"마실","tel":"031-274-3700","addr":"경기도 용인시 기흥구 청덕동 406-5번지 2층 일부","category":"일반휴게음식 - 일반한식"},{"name":"민스포츠","tel":"031-287-8950","addr":"경기도 용인시 기흥구 청덕동 406-5번지","category":"레져용품 - 스포츠·레져용품"},{"name":"청강매운탕","tel":"031-284-5009","addr":"경기도 용인시 기흥구 청덕동 406-5번지","category":"일반휴게음식 - 일반한식"},{"name":"풀무원녹즙 용인기흥북부오피스가맹점","tel":"031-000-0000","addr":"경기도 용인시 기흥구 청덕동 406-5번지 203호","category":"건강식품 - 기타건강식품"}]},{"lat":"37.300461448","long":"127.15118763","items":[{"name":"맘앤케어","tel":"070-7533-7876","addr":"경기도 용인시 기흥구 청덕동 488번지 휴먼시아물푸레마을 332동 1103호","category":"보건위생 - 기타대인서비스"},{"name":"에코미스트","tel":"070-4090-9007","addr":"경기도 용인시 기흥구 청덕동 488번지 휴먼시아물푸레마을3단지아파트","category":"회원제형태 - 기타4"}]},{"lat":"37.289767302","long":"127.13513039","items":[{"name":"매일유업구성보급소","tel":"031-283-0588","addr":"경기도 용인시 기흥구 청덕동 383-2번지","category":"음료식품 - 기타음료식품"},{"name":"용인자동차정비공업사","tel":"031-284-1702","addr":"경기도 용인시 기흥구 청덕동 383-2번지 2필지","category":"자동차정비 유지 - 자동차정비"}]},{"lat":"37.2907964","long":"127.14132348","items":[{"name":"멍스라이프","tel":"031-281-5004","addr":"경기도 용인시 기흥구 청덕동 534-2번지 1층","category":"문화.취미 - 애완동물"}]},{"lat":"37.290795977","long":"127.14168436","items":[{"name":"몽쁘띠베베","tel":"031-285-9313","addr":"경기도 용인시 기흥구 청덕동 534-4번지 101,102호","category":"용역 서비스 - 사무서비스"}]},{"lat":"37.297149588","long":"127.1552075","items":[{"name":"무극사","tel":"031-275-3417","addr":"경기도 용인시 기흥구 청덕동 309번지","category":"기타 - 비영리/대상"},{"name":"미미","tel":"","addr":"경기도 용인시 기흥구 청덕동 309번지","category":"신변잡화 - 기타잡화"}]},{"lat":"37.293727599","long":"127.1537232","items":[{"name":"무직타이거","tel":"070-7788-9849","addr":"경기도 용인시 기흥구 청덕동 567번지 물푸레마을8단지호반베르디움","category":"서적문구 - 출판 및 인쇄물"},{"name":"아띠랑스 플로스(Attirance flos)","tel":"","addr":"경기도 용인시 기흥구 청덕동 567번지 물푸레마을8단지호반베르디움","category":"문화.취미 - 화원"}]},{"lat":"37.295497316","long":"127.15078315","items":[{"name":"미디어 임팩트","tel":"031-255-5215","addr":"경기도 용인시 기흥구 청덕동 503번지 휴먼시아물푸레마을5단지아파트","category":"회원제형태 - 기타4"},{"name":"주식회사카야","tel":"031-693-8197","addr":"경기도 용인시 기흥구 청덕동 503번지 휴먼시아물푸레마을5단지아파트 505동 1605호","category":"회원제형태 - 기타1"}]},{"lat":"37.291278806","long":"127.15215074","items":[{"name":"미랑스킨케어","tel":"","addr":"경기도 용인시 기흥구 청덕동 569번지 휴먼시아물푸레마을9단지아파트","category":"보건위생 - 화장품"}]},{"lat":"37.291291182","long":"127.14198976","items":[{"name":"민트보빈","tel":"031-306-3479","addr":"경기도 용인시 기흥구 청덕동 528-7번지 1층 102호","category":"의류 - 정장"},{"name":"혜윰","tel":"070-8814-0777","addr":"경기도 용인시 기흥구 청덕동 528-7번지 101호","category":"일반휴게음식 - 서양음식"}]},{"lat":"37.291290917","long":"127.14221531","items":[{"name":"바다를담다 용인점","tel":"02-111-1111","addr":"경기도 용인시 기흥구 청덕동 528-9번지 1층 102호","category":"음료식품 - 농·축·수산품"},{"name":"스칼렛뷰티","tel":"031-275-6171","addr":"경기도 용인시 기흥구 청덕동 528-9번지 102호","category":"보건위생 - 피부미용실"},{"name":"슬로우 제인","tel":"031-282-5289","addr":"경기도 용인시 기흥구 청덕동 528-9번지 1층","category":"의류 - 정장"},{"name":"하이래쉬","tel":"070-0000-0000","addr":"경기도 용인시 기흥구 청덕동 528-9번지 1층 101(일부)호","category":"보건위생 - 피부미용실"}]},{"lat":"37.294628738","long":"127.14638304","items":[{"name":"바디스펙","tel":"031-215-5751","addr":"경기도 용인시 기흥구 청덕동 513번지 휴먼시아물푸레마을1단지아파트","category":"회원제형태 - 레져업소"}]},{"lat":"37.290876911","long":"127.14181984","items":[{"name":"배리굿","tel":"070-8822-8129","addr":"경기도 용인시 기흥구 청덕동 534-5번지 101호","category":"의류 - 기타의류"}]},{"lat":"37.29435227","long":"127.15137864","items":[{"name":"백운한우축산","tel":"031-285-4381","addr":"경기도 용인시 기흥구 청덕동 502-10번지 102호","category":"일반휴게음식 - 일반한식"},{"name":"백운한우축산","tel":"031-285-4381","addr":"경기도 용인시 기흥구 청덕동 502-10번지","category":"음료식품 - 정육점"},{"name":"스피드메이트 청덕점","tel":"031-282-5222","addr":"경기도 용인시 기흥구 청덕동 502-10번지","category":"자동차정비 유지 - 자동차정비"},{"name":"워시테리아 용인청덕점","tel":"","addr":"경기도 용인시 기흥구 청덕동 502-10번지 1층 103호","category":"수리서비스 - 세탁소"},{"name":"헤어스토리","tel":"031-309-0519","addr":"경기도 용인시 기흥구 청덕동 502-10번지 105호","category":"보건위생 - 미용원"}]},{"lat":"37.29123894","long":"127.14043337","items":[{"name":"밸런스드에이치(balanced_H)","tel":"","addr":"경기도 용인시 기흥구 청덕동 526-1번지 1층 상가","category":"자동차정비 유지 - 자동차부품"}]},{"lat":"37.300010896","long":"127.15122058","items":[{"name":"보들 천연비누","tel":"","addr":"경기도 용인시 기흥구 청덕동 488번지 휴먼시아물푸레마을3단지아파트","category":"신변잡화 - 기타잡화"}]},{"lat":"37.298046571","long":"127.15129567","items":[{"name":"보물섬","tel":"070-8232-8851","addr":"경기도 용인시 기흥구 청덕동 488번지 휴먼시아물푸레마을3단지아파트","category":"서적문구 - 완구점"}]},{"lat":"37.297154177","long":"127.15159843","items":[{"name":"블록엔로보","tel":"070-8613-0968","addr":"경기도 용인시 기흥구 청덕동 491-19번지","category":"회원제형태 - 학원"}]},{"lat":"37.298625081","long":"127.14980804","items":[{"name":"비손","tel":"031-8017-5872","addr":"경기도 용인시 기흥구 청덕동 488번지 휴먼시아물푸레마을3단지아파트","category":"자동차정비 유지 - 카인테리어"},{"name":"에이코스서비스","tel":"070-8278-2400","addr":"경기도 용인시 기흥구 청덕동 488번지 휴먼시아물푸레마을3단지아파트","category":"보건위생 - 기타대인서비스"}]},{"lat":"37.290796624","long":"127.14113177","items":[{"name":"빈샌드클래식/주식회사빈샌드코리아","tel":"070-4109-1526","addr":"경기도 용인시 기흥구 청덕동 534-1번지 1층","category":"일반휴게음식 - 서양음식"}]},{"lat":"37.290875755","long":"127.14280097","items":[{"name":"샘솔에듀","tel":"031-284-5059","addr":"경기도 용인시 기흥구 청덕동 531-7번지 1층 102호","category":"서적문구 - 기타서적문구"}]},{"lat":"37.288602761","long":"127.14482664","items":[{"name":"선미음향","tel":"031-283-2888","addr":"경기도 용인시 기흥구 청덕동 202-2","category":"용역 서비스 - 사무서비스"}]},{"lat":"37.289871941","long":"127.14587781","items":[{"name":"세이프아이","tel":"031-274-9221","addr":"경기도 용인시 기흥구 청덕동 214-2번지 106호","category":"자동차정비 유지 - 자동차부품"},{"name":"주식회사 에스알티(SRT Co.Ltd.)","tel":"031-216-8974","addr":"경기도 용인시 기흥구 청덕동 214-2번지 가동 105호","category":"건축자재 - 페인트"}]},{"lat":"37.291373634","long":"127.14082833","items":[{"name":"소닷(SODOT)","tel":"031-284-0321","addr":"경기도 용인시 기흥구 청덕동 526-3번지 1층 101호 SODOT","category":"신변잡화 - 기타잡화"}]},{"lat":"37.295093357","long":"127.14957561","items":[{"name":"소품샵","tel":"031-892-5322","addr":"경기도 용인시 기흥구 청덕동 506번지 휴먼시아물푸레마을2단지아파트","category":"가구 - 기타가구"}]},{"lat":"37.297872929","long":"127.15323523","items":[{"name":"수학전문과외교실 열린 학당","tel":"070-7405-0531","addr":"경기도 용인시 기흥구 청덕동 497번지 물푸레마을4단지경남아너스빌","category":"회원제형태 - 학원"}]},{"lat":"37.295700419","long":"127.15405421","items":[{"name":"스마트러닝교재","tel":"031-8005-7990","addr":"경기도 용인시 기흥구 청덕동 499번지 휴먼시아물푸레마을6단지아파트","category":"서적문구 - 기타서적문구"}]},{"lat":"37.289207479","long":"127.13618946","items":[{"name":"신성미트마켓","tel":"031-265-0475","addr":"경기도 용인시 기흥구 청덕동 389-14번지","category":"음료식품 - 정육점"}]},{"lat":"37.291408117","long":"127.14215914","items":[{"name":"아고라 케이터링","tel":"02-2052-9800","addr":"경기도 용인시 기흥구 청덕동 528-8번지","category":"일반휴게음식 - 일반한식"}]},{"lat":"37.291319809","long":"127.14062524","items":[{"name":"아이티씨(ITC)","tel":"070-8261-0691","addr":"경기도 용인시 기흥구 청덕동 526-2번지 202호","category":"회원제형태 - 학원"}]},{"lat":"37.295793039","long":"127.15206944","items":[{"name":"아침마당 농수산물센터(청덕점)","tel":"031-274-1616","addr":"경기도 용인시 기흥구 청덕동 502-3번지 1층","category":"유통업 영리 - 슈퍼마켓"}]},{"lat":"37.29121684","long":"127.15127098","items":[{"name":"압구정헤어샵","tel":"031-275-9939","addr":"경기도 용인시 기흥구 청덕동 569번지 휴먼시아물푸레마을 상가동B104호","category":"보건위생 - 미용원"},{"name":"한솔조이풀청덕영어교습소","tel":"070-7514-8599","addr":"경기도 용인시 기흥구 청덕동 569번지 물푸레마을 상가동 지1층 B105호","category":"학원 - 외국어학원"},{"name":"한솔플러스청덕수학교습소","tel":"031-8081-0113","addr":"경기도 용인시 기흥구 청덕동 569번지 휴먼시아물푸레마을 상가동 B103호","category":"학원 - 보습학원"}]},{"lat":"37.291128215","long":"127.14265483","items":[{"name":"어크로스 더 테이블","tel":"031-000-0000","addr":"경기도 용인시 기흥구 청덕동 531-9번지 상가 1층 101호","category":"문화.취미 - 문화취미기타"}]},{"lat":"37.295818514","long":"127.15329881","items":[{"name":"엄마손반찬","tel":"031-287-7544","addr":"경기도 용인시 기흥구 청덕동 499번지 휴먼시아물푸레마을 104호","category":"음료식품 - 기타음료식품"},{"name":"월드세탁","tel":"031-274-0046","addr":"경기도 용인시 기흥구 청덕동 499 휴먼시아물푸레마을 상가-101","category":"수리서비스 - 세탁소"}]},{"lat":"37.289149976","long":"127.13921164","items":[{"name":"에스워터(주)","tel":"031-296-4759","addr":"경기도 용인시 기흥구 청덕동 421-2번지","category":"기타 - 기계공구"},{"name":"행복한임마누엘","tel":"031-284-0047","addr":"경기도 용인시 기흥구 청덕동 421-2번지","category":"보건위생 - 미용재료"}]},{"lat":"37.29509098","long":"127.15148159","items":[{"name":"에어컨청소유지관리 동백그린케어서비스","tel":"031-285-7168","addr":"경기도 용인시 기흥구 청덕동 503번지 휴먼시아물푸레마을5단지아파트","category":"용역 서비스 - 기타용역서비스"}]},{"lat":"37.295525904","long":"127.14953134","items":[{"name":"에코케어","tel":"031-337-2242","addr":"경기도 용인시 기흥구 청덕동 506번지 휴먼시아물푸레마을 204동 503호","category":"회원제형태 - 기타1"},{"name":"요니센트","tel":"","addr":"경기도 용인시 기흥구 청덕동 506번지 휴먼시아물푸레마을2단지아파트","category":"문화.취미 - 문화취미기타"}]},{"lat":"37.290816867","long":"127.1468269","items":[{"name":"에클레시아","tel":"031-000-0000","addr":"경기도 용인시 기흥구 청덕동 552-8번지 지1층상가","category":"일반휴게음식 - 일반한식"}]},{"lat":"37.28844144","long":"127.1441046","items":[{"name":"연원코킹","tel":"031-284-0203","addr":"경기도 용인시 기흥구 청덕동 203-10번지 가동 1층","category":"건축자재 - 인테리어전문"}]},{"lat":"37.290317906","long":"127.14213457","items":[{"name":"영광스포츠","tel":"","addr":"경기도 용인시 기흥구 청덕동 542-4번지 206호","category":"레져용품 - 스포츠·레져용품"},{"name":"웰빙산약초건강원","tel":"070-8876-1771","addr":"경기도 용인시 기흥구 청덕동 542-4번지 101호","category":"건강식품 - 기타건강식품"},{"name":"주식회사 와이앤씨개발","tel":"031-285-3232","addr":"경기도 용인시 기흥구 청덕동 542-4번지 104호","category":"기타 - 기계공구"}]},{"lat":"37.298531017","long":"127.15296585","items":[{"name":"예쁜비누세상","tel":"031-715-9666","addr":"경기도 용인시 기흥구 청덕동 497번지 물푸레마을4단지경남아너스빌","category":"신변잡화 - 기타잡화"}]},{"lat":"37.292545273","long":"127.14810456","items":[{"name":"오토라이더","tel":"070-8968-3598","addr":"경기도 용인시 기흥구 청덕동 555-8번지 201호","category":"자동차판매 - 이륜차판매"},{"name":"참맛감자탕과부대찌개","tel":"031-285-0736","addr":"경기도 용인시 기흥구 청덕동 555-8번지 1층","category":"일반휴게음식 - 일반한식"}]},{"lat":"37.287763822","long":"127.13796867","items":[{"name":"우송가든","tel":"031-284-2766","addr":"경기도 용인시 기흥구 청덕동 392-4번지 외1필지","category":"일반휴게음식 - 일반한식"}]},{"lat":"37.29007186","long":"127.14446852","items":[{"name":"워시존동백점","tel":"031-274-1236","addr":"경기도 용인시 기흥구 청덕동 219-2번지","category":"자동차정비 유지 - 세차장"}]},{"lat":"37.291126931","long":"127.14373746","items":[{"name":"원앤탑","tel":"031-274-0218","addr":"경기도 용인시 기흥구 청덕동 537-2번지 1층","category":"서적문구 - 과학기자재"}]},{"lat":"37.295151618","long":"127.14614719","items":[{"name":"원플라워","tel":"031-264-5564","addr":"경기도 용인시 기흥구 청덕동 513번지 휴먼시아물푸레마을1단지아파트","category":"문화.취미 - 화원"}]},{"lat":"37.294699365","long":"127.14757864","items":[{"name":"웰빙코리아","tel":"","addr":"경기도 용인시 기흥구 청덕동 513번지 휴먼시아물푸레마을1단지아파트","category":"직물 - 침구·수예점"},{"name":"주현스포츠","tel":"","addr":"경기도 용인시 기흥구 청덕동 513번지","category":"의류 - 스포츠의류"}]},{"lat":"37.291038631","long":"127.14221484","items":[{"name":"유림음악사","tel":"031-286-3598","addr":"경기도 용인시 기흥구 청덕동 532-2번지 102호","category":"회원제형태 - 서적"}]},{"lat":"37.292680652","long":"127.15509699","items":[{"name":"윤향","tel":"031-275-4724","addr":"경기도 용인시 기흥구 청덕동 569번지 휴먼시아물푸레마을9단지아파트","category":"문화.취미 - 문화취미기타"}]},{"lat":"37.294565064","long":"127.14687915","items":[{"name":"은디자인","tel":"031-265-4112","addr":"경기도 용인시 기흥구 청덕동 513번지 휴먼시아물푸레마을1단지아파트","category":"건축자재 - 인테리어전문"}]},{"lat":"37.291012249","long":"127.1416622","items":[{"name":"이다원","tel":"031-266-0280","addr":"경기도 용인시 기흥구 청덕동 528-12번지 1층","category":"일반휴게음식 - 서양음식"}]},{"lat":"37.289872268","long":"127.14560715","items":[{"name":"장어마을","tel":"031-283-9295","addr":"경기도 용인시 기흥구 청덕동 215-4번지","category":"일반휴게음식 - 일반한식"}]},{"lat":"37.295593323","long":"127.14597886","items":[{"name":"저작거리","tel":"031-339-4614","addr":"경기도 용인시 기흥구 청덕동 513번지 휴먼시아물푸레마을1단지아파트","category":"회원제형태 - 기타1"}]},{"lat":"37.298975525","long":"127.15057567","items":[{"name":"제이 앤 제이 러브","tel":"","addr":"경기도 용인시 기흥구 청덕동 488번지 휴먼시아물푸레마을3단지아파트","category":"신변잡화 - 액세서리"}]},{"lat":"37.295001528","long":"127.15096263","items":[{"name":"제이비오티","tel":"","addr":"경기도 용인시 기흥구 청덕동 503번지 휴먼시아물푸레마을5단지아파트","category":"보건위생 - 화장품"}]},{"lat":"37.291236431","long":"127.14257609","items":[{"name":"제이스토리","tel":"070-8831-8617","addr":"경기도 용인시 기흥구 청덕동 531-1번지 202호","category":"사무통신 - 컴퓨터"}]},{"lat":"37.287962343","long":"127.13770966","items":[{"name":"제이앤에이","tel":"031-8005-5151","addr":"경기도 용인시 기흥구 청덕동 391-3번지 G동 1층","category":"자동차정비 유지 - 윤활유 전문 판매"}]},{"lat":"37.295130034","long":"127.15618462","items":[{"name":"제이존(J-Zone)","tel":"031-284-3927","addr":"경기도 용인시 기흥구 청덕동 298-17번지 2층","category":"일반휴게음식 - 일반한식"},{"name":"제이존(Trampoline)","tel":"031-284-3927","addr":"경기도 용인시 기흥구 청덕동 298-17번지 2층","category":"레저업소 - 기타레져업소"}]},{"lat":"37.292294196","long":"127.15432933","items":[{"name":"제주수산","tel":"031-284-3412","addr":"경기도 용인시 기흥구 청덕동 569번지 휴먼시아물푸레마을9단지아파트","category":"음료식품 - 농·축·수산품"},{"name":"주사위","tel":"031-1544-7354","addr":"경기도 용인시 기흥구 청덕동 569번지 휴먼시아물푸레마을9단지아파트","category":"회원제형태 - 기타4"}]},{"lat":"37.290816661","long":"127.14699606","items":[{"name":"조유당","tel":"031-111-1111","addr":"경기도 용인시 기흥구 청덕동 552-9번지 1층","category":"일반휴게음식 - 일반한식"}]},{"lat":"37.292149638","long":"127.14743843","items":[{"name":"조은식당","tel":"031-283-8984","addr":"경기도 용인시 기흥구 청덕동 555-3번지 상가 1층","category":"일반휴게음식 - 일반한식"}]},{"lat":"37.297341855","long":"127.15281687","items":[{"name":"조이스쿨체험학습","tel":"031-8005-8336","addr":"경기도 용인시 기흥구 청덕동 497번지 물푸레마을4단지경남아너스빌","category":"학원 - 기타 교육기관"}]},{"lat":"37.287900827","long":"127.14410359","items":[{"name":"주식회사 니드플러스","tel":"031-263-8828","addr":"경기도 용인시 기흥구 청덕동 203-2번지 나동","category":"음료식품 - 기타음료식품"}]},{"lat":"37.29124069","long":"127.14654577","items":[{"name":"주식회사파워디거","tel":"031-693-7222","addr":"경기도 용인시 기흥구 청덕동 553-3번지","category":"기타 - 기계공구"}]},{"lat":"37.289880242","long":"127.14646424","items":[{"name":"지인방(소품이예쁜집)","tel":"031-283-0306","addr":"경기도 용인시 기흥구 청덕동 209-5번지 1층","category":"가구 - 기타가구"}]},{"lat":"37.297680828","long":"127.15549053","items":[{"name":"참우돈가","tel":"031-274-4020","addr":"경기도 용인시 기흥구 청덕동 50번지","category":"일반휴게음식 - 일반한식"}]},{"lat":"37.297905792","long":"127.15571655","items":[{"name":"참우돈가/주식회사 청덕에프엔비","tel":"031-274-2128","addr":"경기도 용인시 기흥구 청덕동 50-1번지","category":"음료식품 - 정육점"}]},{"lat":"37.289819682","long":"127.14437783","items":[{"name":"청덕모터스주식회사","tel":"031-8005-5050","addr":"경기도 용인시 기흥구 청덕동 219-5번지","category":"자동차정비 유지 - 자동차정비"},{"name":"청덕차유리","tel":"031-285-0093","addr":"경기도 용인시 기흥구 청덕동 219-5번지","category":"자동차정비 유지 - 자동차부품"}]},{"lat":"37.291546462","long":"127.14702","items":[{"name":"청춘다방","tel":"031-885-6576","addr":"경기도 용인시 기흥구 청덕동 554-1번지 102호","category":"일반휴게음식 - 서양음식"}]},{"lat":"37.300926542","long":"127.15390676","items":[{"name":"초의통상","tel":"031-693-6101","addr":"경기도 용인시 기흥구 청덕동 29번지","category":"주방용구 - 주방용구"}]},{"lat":"37.291267145","long":"127.14701947","items":[{"name":"춘자매고기국수","tel":"031-282-9479","addr":"경기도 용인시 기흥구 청덕동 554-3번지 1층","category":"일반휴게음식 - 일반한식"}]},{"lat":"37.291596746","long":"127.1426557","items":[{"name":"카페529","tel":"031-111-1111","addr":"경기도 용인시 기흥구 청덕동 529-2번지 1층","category":"일반휴게음식 - 서양음식"}]},{"lat":"37.289623353","long":"127.13493842","items":[{"name":"크리에이티브 윤디자인","tel":"070-4147-2329","addr":"경기도 용인시 기흥구 청덕동 383-1번지","category":"용역 서비스 - 사무서비스"}]},{"lat":"37.297566782","long":"127.15307672","items":[{"name":"크린토피아","tel":"031-282-8500","addr":"경기도 용인시 기흥구 청덕동 497번지 물푸레마을경남아너스빌 104호","category":"수리서비스 - 세탁소"}]},{"lat":"37.291182103","long":"127.14280154","items":[{"name":"탑스킨솔루션","tel":"031-281-0085","addr":"경기도 용인시 기흥구 청덕동 531-3번지 201호","category":"회원제형태 - 기타1"}]},{"lat":"37.296843879","long":"127.15471064","items":[{"name":"태림모터스","tel":"031-282-3114","addr":"경기도 용인시 기흥구 청덕동 307-1번지","category":"자동차정비 유지 - 자동차정비"}]},{"lat":"37.294518199","long":"127.15551798","items":[{"name":"티파니코스메틱","tel":"031-285-5568","addr":"경기도 용인시 기흥구 청덕동 298-27번지","category":"보건위생 - 화장품"}]},{"lat":"37.292468893","long":"127.15156666","items":[{"name":"파시다로","tel":"031-308-2673","addr":"경기도 용인시 기흥구 청덕동 565번지 휴먼시아물푸레마을7단지아파트","category":"문화.취미 - 문화취미기타"}]},{"lat":"37.30012952","long":"127.15002526","items":[{"name":"패러리걸즈","tel":"031-281-0907","addr":"경기도 용인시 기흥구 청덕동 488번지 휴먼시아물푸레마을3단지아파트","category":"용역 서비스 - 사무서비스"}]},{"lat":"37.290762195","long":"127.13974458","items":[{"name":"펫더제인","tel":"031-711-3303","addr":"경기도 용인시 기흥구 청덕동 533-1번지 1층","category":"광학제품 - 사진관"}]},{"lat":"37.291243659","long":"127.15144019","items":[{"name":"피시컴119(Pccom119)","tel":"080-803-0119","addr":"경기도 용인시 기흥구 청덕동 569번지 휴먼시아물푸레마을9단지아파트","category":"회원제형태 - 기타4"},{"name":"홈써비스","tel":"","addr":"경기도 용인시 기흥구 청덕동 569번지 휴먼시아물푸레마을9단지아파트","category":"보건위생 - 피부미용실"}]},{"lat":"37.295781196","long":"127.14708447","items":[{"name":"학림원","tel":"","addr":"경기도 용인시 기흥구 청덕동 513번지 휴먼시아물푸레마을1단지아파트","category":"용역 서비스 - 사무서비스"}]},{"lat":"37.297014391","long":"127.15524106","items":[{"name":"한기성 궁중병과","tel":"031-281-0525","addr":"경기도 용인시 기흥구 청덕동 309-2번지","category":"음료식품 - 기타음료식품"}]},{"lat":"37.294957068","long":"127.15048886","items":[{"name":"한음스팀","tel":"031-287-4582","addr":"경기도 용인시 기흥구 청덕동 503번지 휴먼시아물푸레마을5단지아파트","category":"자동차정비 유지 - 세차장"}]},{"lat":"37.290741426","long":"127.14210152","items":[{"name":"헬프랩 (HELPLAB)","tel":"070-8637-7946","addr":"경기도 용인시 기흥구 청덕동 535-1번지 1층","category":"의류 - 정장"}]},{"lat":"37.289432302","long":"127.13657328","items":[{"name":"현우드","tel":"031-693-6161","addr":"경기도 용인시 기흥구 청덕동 389-1번지","category":"건축자재 - 목재·석재·철물"}]}]