[{"lat":"37.168664235","long":"126.96587286","items":[{"name":"(주)비엘정공건드릴","tel":"031-366-6486","addr":"경기도 화성시 정남면 오일리 370-2번지 A동","category":"기타 - 기계공구"},{"name":"완바M&D","tel":"031-609-7550","addr":"경기도 화성시 정남면 오일리 370-2번지","category":"기타 - 기계공구"},{"name":"태성몰드","tel":"031-8059-6792","addr":"경기도 화성시 정남면 오일리 370-2번지 A B동","category":"기타 - 기계공구"}]},{"lat":"37.165692473","long":"126.97172888","items":[{"name":"대한농산","tel":"031-353-7665","addr":"경기도 화성시 정남면 오일리 261-3번지","category":"음료식품 - 농·축·수산품"}]},{"lat":"37.169105788","long":"126.96600775","items":[{"name":"비엘산업","tel":"","addr":"경기도 화성시 정남면 오일리 369번지","category":"기타 - 기계공구"}]},{"lat":"37.167358112","long":"126.96714577","items":[{"name":"순금정","tel":"031-353-5521","addr":"경기도 화성시 정남면 오일리 324번지","category":"일반휴게음식 - 일반한식"}]},{"lat":"37.168420052","long":"126.96309195","items":[{"name":"엘와이엔","tel":"031-366-6756","addr":"경기도 화성시 정남면 오일리 373-9","category":"기타 - 기계공구"}]},{"lat":"37.168888613","long":"126.963148","items":[{"name":"우성냉동","tel":"","addr":"경기도 화성시 정남면 오일리 382-10번지 2동","category":"전기제품 - 냉열기기"}]},{"lat":"37.169249534","long":"126.96467908","items":[{"name":"좋은환경","tel":"031-354-0289","addr":"경기도 화성시 정남면 오일리 378-6번지 외3필지","category":"용역 서비스 - 종합용역"}]},{"lat":"37.16705212","long":"126.96837314","items":[{"name":"주식회사 삼영목재","tel":"031-352-8909","addr":"경기도 화성시 정남면 오일리 327-2번지","category":"건축자재 - 목재·석재·철물"}]},{"lat":"37.172359924","long":"126.9707015","items":[{"name":"주식회사 팡팡","tel":"031-354-0359","addr":"경기도 화성시 정남면 오일리 117-6번지","category":"레져용품 - 스포츠·레져용품"}]},{"lat":"37.174224348","long":"126.96809964","items":[{"name":"탑(TOP)채널","tel":"031-352-7442","addr":"경기도 화성시 정남면 오일리 75번지","category":"전기제품 - 기타전기제품"}]}]