[{"lat":"37.529737669","long":"127.16681143","items":[{"name":"(유)푸드프린스","tel":"031-111-1111","addr":"경기도 하남시 초이동 623-1번지","category":"음료식품 - 농·축·수산품"}]},{"lat":"37.544846316","long":"127.16745555","items":[{"name":"(주) 더빅토리아","tel":"031-000-0000","addr":"경기도 하남시 초이동 64-2번지 4층","category":"의류 - 정장"},{"name":"강동종합주방","tel":"02-472-0550","addr":"경기도 하남시 초이동 64-2번지","category":"주방용구 - 주방용식기"},{"name":"동서울종합주방","tel":"02-472-0880","addr":"경기도 하남시 초이동 64-2번지 2층","category":"주방용구 - 주방용식기"}]},{"lat":"37.530878614","long":"127.16917844","items":[{"name":"(주) 케이크를부탁해","tel":"031-1666-5612","addr":"경기도 하남시 초이동 418-1번지","category":"음료식품 - 기타음료식품"}]},{"lat":"37.541628162","long":"127.16862524","items":[{"name":"(주)강동씨제이","tel":"031-000-0000","addr":"경기도 하남시 초이동 97-10번지","category":"음료식품 - 기타음료식품"}]},{"lat":"37.537489548","long":"127.17081109","items":[{"name":"(주)국대한우","tel":"070-8672-1657","addr":"경기도 하남시 초이동 277-1번지","category":"음료식품 - 정육점"}]},{"lat":"37.534433015","long":"127.17234293","items":[{"name":"(주)글로벌컨설팅","tel":"02-000-0000","addr":"경기도 하남시 초이동 322-66번지 1층","category":"일반휴게음식 - 일반한식"}]},{"lat":"37.544594868","long":"127.17322591","items":[{"name":"(주)나비에","tel":"02-422-1221","addr":"경기도 하남시 초이동 174-2번지","category":"보건위생 - 미용재료"},{"name":"제일수선","tel":"02-429-2666","addr":"경기도 하남시 초이동 174-2번지","category":"수리서비스 - 세탁소"},{"name":"터줏대감","tel":"02-427-1558","addr":"경기도 하남시 초이동 174-2번지 1층","category":"일반휴게음식 - 일반한식"}]},{"lat":"37.529295715","long":"127.16714986","items":[{"name":"(주)대현","tel":"02-400-3123","addr":"경기도 하남시 초이동 624번지","category":"건축자재 - 기타건축자재"}]},{"lat":"37.528817499","long":"127.16764659","items":[{"name":"(주)리싸이클오피스","tel":"031-1600-6457","addr":"경기도 하남시 초이동 625-1번지","category":"가구 - 기타가구"}]},{"lat":"37.534650531","long":"127.17144962","items":[{"name":"(주)명가축산에프앤디","tel":"02-442-9266","addr":"경기도 하남시 초이동 322-125번지","category":"음료식품 - 정육점"},{"name":"(주)장흥출장부페","tel":"02-481-0772","addr":"경기도 하남시 초이동 322-125번지 1층","category":"일반휴게음식 - 일반한식"},{"name":"썬골프존","tel":"02-428-2288","addr":"경기도 하남시 초이동 322-125번지","category":"회원제형태 - 레져업소"}]},{"lat":"37.53479472","long":"127.17142732","items":[{"name":"(주)비앤에스인터내셔널","tel":"02-469-6077","addr":"경기도 하남시 초이동 322-114번지 1층","category":"음료식품 - 기타음료식품"}]},{"lat":"37.542564008","long":"127.17573327","items":[{"name":"(주)신우금속","tel":"02-427-4205","addr":"경기도 하남시 초이동 198-2번지","category":"건축자재 - 기타건축자재"}]},{"lat":"37.537759005","long":"127.17140004","items":[{"name":"(주)아이티리소스","tel":"02-478-9353","addr":"경기도 하남시 초이동 261-5번지","category":"신변잡화 - 기타잡화"},{"name":"HD스마트캠(강동총판)","tel":"02-429-1098","addr":"경기도 하남시 초이동 261-5번지","category":"사무통신 - 통신기기"},{"name":"정원팩토리 (주)","tel":"02-429-7045","addr":"경기도 하남시 초이동 261-5번지","category":"건축자재 - 인테리어전문"}]},{"lat":"37.544037972","long":"127.16562067","items":[{"name":"(주)알트리","tel":"02-566-3769","addr":"경기도 하남시 초이동 61-1","category":"문화.취미 - 화원"}]},{"lat":"37.541017314","long":"127.17367037","items":[{"name":"(주)에버샤인","tel":"02-429-8855","addr":"경기도 하남시 초이동 151번지","category":"신변잡화 - 기타잡화"},{"name":"건영케이에이치","tel":"031-429-1124","addr":"경기도 하남시 초이동 151번지","category":"기타 - 기계공구"}]},{"lat":"37.540181076","long":"127.15945701","items":[{"name":"(주)우리냉열산업","tel":"02-2231-9402","addr":"경기도 하남시 초이동 29-2번지","category":"전기제품 - 냉열기기"},{"name":"갈도낚시","tel":"02-428-3515","addr":"경기도 하남시 초이동 29-2번지","category":"레져용품 - 스포츠·레져용품"},{"name":"서광냉열","tel":"02-2235-8787","addr":"경기도 하남시 초이동 29-2번지 다동 7호","category":"전기제품 - 기타전기제품"},{"name":"일우상사","tel":"02-2250-1750","addr":"경기도 하남시 초이동 29-2번지 외6필지 나-1","category":"전기제품 - 냉열기기"}]},{"lat":"37.530459464","long":"127.17248102","items":[{"name":"(주)웰컴우드","tel":"02-428-5624","addr":"경기도 하남시 초이동 436-1번지","category":"건축자재 - 기타건축자재"}]},{"lat":"37.534846394","long":"127.1730906","items":[{"name":"(주)제이원푸드빌","tel":"02-3426-6233","addr":"경기도 하남시 초이동 322-96번지","category":"음료식품 - 정육점"}]},{"lat":"37.535151404","long":"127.17400773","items":[{"name":"(주)죽선물산","tel":"031-569-5586","addr":"경기도 하남시 초이동 322-18번지","category":"음료식품 - 농·축·수산품"}]},{"lat":"37.535207032","long":"127.17292171","items":[{"name":"(주)태성그린푸드","tel":"031-791-8804","addr":"경기도 하남시 초이동 322-122번지","category":"음료식품 - 정육점"}]},{"lat":"37.536931404","long":"127.17048172","items":[{"name":"(주)홍철기업","tel":"02-471-4122","addr":"경기도 하남시 초이동 276-11번지","category":"건축자재 - 기타건축자재"}]},{"lat":"37.538843065","long":"127.17564548","items":[{"name":"(주)휴먼과학","tel":"02-442-3543","addr":"경기도 하남시 초이동 217-8번지","category":"서적문구 - 과학기자재"},{"name":"휴먼과학","tel":"02-403-3474","addr":"경기도 하남시 초이동 217-8번지","category":"서적문구 - 과학기자재"},{"name":"휴면과학/원격지","tel":"02-442-3543","addr":"경기도 하남시 초이동 217-8번지","category":"기타 - 기타 전문점"}]},{"lat":"37.544622924","long":"127.1725131","items":[{"name":"365타이어 초이점","tel":"031-111-1111","addr":"경기도 하남시 초이동 171-8번지","category":"자동차정비 유지 - 자동차시트·타이어"}]},{"lat":"37.544711228","long":"127.17375801","items":[{"name":"BNN KOREA(비엔엔 코리아)","tel":"070-7760-2129","addr":"경기도 하남시 초이동 175-5번지 2층","category":"서적문구 - 과학기자재"},{"name":"서경일식","tel":"02-444-9445","addr":"경기도 하남시 초이동 175-5번지","category":"일반휴게음식 - 일식·회집"},{"name":"퍼펙트","tel":"031-3426-7282","addr":"경기도 하남시 초이동 175-5번지 1층","category":"자동차정비 유지 - 카인테리어"},{"name":"현자동차","tel":"02-441-4048","addr":"경기도 하남시 초이동 175-5번지","category":"자동차정비 유지 - 자동차부품"}]},{"lat":"37.544425227","long":"127.17215055","items":[{"name":"GS25초이중앙점","tel":"080-555-2525","addr":"경기도 하남시 초이동 168-2번지 1층","category":"유통업 영리 - 편 의 점"},{"name":"꼬꼬천국","tel":"","addr":"경기도 하남시 초이동 168-2번지","category":"일반휴게음식 - 주점"},{"name":"인삼마을","tel":"02-429-3335","addr":"경기도 하남시 초이동 168-2번지","category":"건강식품 - 기타건강식품"}]},{"lat":"37.541788798","long":"127.17598041","items":[{"name":"GS25하남장군점","tel":"02-2006-2118","addr":"경기도 하남시 초이동 203-5번지","category":"유통업 영리 - 편 의 점"}]},{"lat":"37.544565382","long":"127.16862043","items":[{"name":"가나안농원","tel":"02-426-6279","addr":"경기도 하남시 초이동 72-1번지","category":"문화.취미 - 화원"},{"name":"뜰에가득다육","tel":"02-441-3025","addr":"경기도 하남시 초이동 72-1번지","category":"문화.취미 - 화원"},{"name":"벧엘꽃농원","tel":"02-442-1016","addr":"경기도 하남시 초이동 72-1","category":"문화.취미 - 화원"},{"name":"보라빛하늘","tel":"02-441-9935","addr":"경기도 하남시 초이동 72-1번지","category":"문화.취미 - 화원"}]},{"lat":"37.534928605","long":"127.17231011","items":[{"name":"강남종합주방","tel":"02-407-2415","addr":"경기도 하남시 초이동 321-1번지","category":"전기제품 - 가전제품"}]},{"lat":"37.543873791","long":"127.16706869","items":[{"name":"강동그린원예","tel":"031-442-4318","addr":"경기도 하남시 초이동 65-10번지","category":"문화.취미 - 화원"}]},{"lat":"37.539346088","long":"127.17045318","items":[{"name":"강동제경","tel":"02-428-5171","addr":"경기도 하남시 초이동 259-3번지","category":"건축자재 - 유리"}]},{"lat":"37.541484921","long":"127.16139461","items":[{"name":"겨울나무 가든센터","tel":"031-428-2236","addr":"경기도 하남시 초이동 43-1번지 212호","category":"문화.취미 - 화원"},{"name":"경희꽃농원","tel":"02-441-9878","addr":"경기도 하남시 초이동 43-1번지","category":"문화.취미 - 화원"},{"name":"대성플라워","tel":"02-481-8822","addr":"경기도 하남시 초이동 43-1번지 2호","category":"문화.취미 - 화원"},{"name":"동서울화분자재총판","tel":"02-3427-5949","addr":"경기도 하남시 초이동 43-1","category":"문화.취미 - 화원"},{"name":"상록식물원","tel":"02-429-9979","addr":"경기도 하남시 초이동 43-1번지","category":"문화.취미 - 화원"},{"name":"애림꽃농원","tel":"02-427-3127","addr":"경기도 하남시 초이동 43-1번지 11호","category":"문화.취미 - 화원"},{"name":"유리꽃방","tel":"02-441-0388","addr":"경기도 하남시 초이동 43-1번지 동서울화훼단지 10호","category":"문화.취미 - 화원"},{"name":"천일꽃직매장","tel":"02-428-1048","addr":"경기도 하남시 초이동 43-1번지","category":"문화.취미 - 화원"},{"name":"초원농원","tel":"02-426-8770","addr":"경기도 하남시 초이동 43-1","category":"문화.취미 - 화원"},{"name":"혜란원","tel":"02-427-5887","addr":"경기도 하남시 초이동 43-1","category":"문화.취미 - 화원"},{"name":"화란방","tel":"02-2292-2236","addr":"경기도 하남시 초이동 43-1.2","category":"문화.취미 - 화원"}]},{"lat":"37.543981373","long":"127.16745365","items":[{"name":"경호농원","tel":"02-427-4794","addr":"경기도 하남시 초이동 65-8번지","category":"문화.취미 - 화원"},{"name":"상원농원","tel":"031-427-9003","addr":"경기도 하남시 초이동 65-8번지","category":"문화.취미 - 화원"}]},{"lat":"37.541044621","long":"127.17347808","items":[{"name":"계영산업","tel":"02-474-5544","addr":"경기도 하남시 초이동 151-7번지","category":"건축자재 - 건축용 요업제품"}]},{"lat":"37.537372179","long":"127.17098054","items":[{"name":"금강식당","tel":"031-0000-0000","addr":"경기도 하남시 초이동 277-8번지 1층","category":"일반휴게음식 - 일반한식"},{"name":"씨유하남초이점","tel":"031-898-6566","addr":"경기도 하남시 초이동 277-8번지","category":"유통업 영리 - 편 의 점"}]},{"lat":"37.531180357","long":"127.16601133","items":[{"name":"금용자동차공업사","tel":"02-442-5244","addr":"경기도 하남시 초이동 404-1번지","category":"자동차정비 유지 - 자동차정비"},{"name":"프로당구장","tel":"070-7245-6700","addr":"경기도 하남시 초이동 404-1번지 2층","category":"레저업소 - 당 구 장"}]},{"lat":"37.544098264","long":"127.16762364","items":[{"name":"꽃세상","tel":"02-430-5837","addr":"경기도 하남시 초이동 65-7번지","category":"문화.취미 - 화원"}]},{"lat":"37.545125237","long":"127.17406447","items":[{"name":"남매자동차부품상사","tel":"02-427-5379","addr":"경기도 하남시 초이동 175-2번지","category":"자동차정비 유지 - 자동차부품"}]},{"lat":"37.53418074","long":"127.17234236","items":[{"name":"노블스타일주식회사","tel":"02-482-7179","addr":"경기도 하남시 초이동 322-106번지","category":"자동차정비 유지 - 자동차부품"}]},{"lat":"37.534956978","long":"127.17137111","items":[{"name":"논두렁추어탕","tel":"02-451-9404","addr":"경기도 하남시 초이동 322-59번지","category":"일반휴게음식 - 일반한식"},{"name":"세븐일레븐하남초이점","tel":"","addr":"경기도 하남시 초이동 322-59번지 1층","category":"유통업 영리 - 편 의 점"},{"name":"창조기획","tel":"031-3428-0182","addr":"경기도 하남시 초이동 322-59번지","category":"신변잡화 - 기타잡화"}]},{"lat":"37.535206788","long":"127.17309142","items":[{"name":"누마스타서울","tel":"031-429-6104","addr":"경기도 하남시 초이동 322-123번지","category":"주방용구 - 주방용구"},{"name":"누마스타세척기서울강북대리점","tel":"02-446-6104","addr":"경기도 하남시 초이동 322-123번지 ING빌딩 101호","category":"주방용구 - 주방용구"},{"name":"누마스타세척기서울북부대리점","tel":"02-429-6108","addr":"경기도 하남시 초이동 322-123번지 ING빌딩 102호","category":"주방용구 - 주방용구"},{"name":"유니콘코리아 세척기","tel":"031-851-7443","addr":"경기도 하남시 초이동 322-123번지 2층","category":"주방용구 - 주방용구"}]},{"lat":"37.536509303","long":"127.17578718","items":[{"name":"늘봄농원","tel":"02-426-7008","addr":"경기도 하남시 초이동 305-11번지","category":"문화.취미 - 화원"}]},{"lat":"37.534099651","long":"127.17234218","items":[{"name":"다담씨에스","tel":"02-426-0362","addr":"경기도 하남시 초이동 322-107번지","category":"일반휴게음식 - 일반한식"}]},{"lat":"37.535843104","long":"127.17542359","items":[{"name":"다미가한식부페","tel":"031-875-2018","addr":"경기도 하남시 초이동 301-10번지 1층","category":"일반휴게음식 - 일반한식"},{"name":"수제화 명가","tel":"02-441-9245","addr":"경기도 하남시 초이동 301-10번지 1층 일부","category":"신변잡화 - 제화"}]},{"lat":"37.538176536","long":"127.17550816","items":[{"name":"다솜 특수체육교실","tel":"031-406-4556","addr":"경기도 하남시 초이동 218-4,9","category":"회원제형태 - 학원"}]},{"lat":"37.542566365","long":"127.1741152","items":[{"name":"다원세차","tel":"","addr":"경기도 하남시 초이동 182-2번지 302호","category":"자동차정비 유지 - 세차장"}]},{"lat":"37.53911996","long":"127.15790468","items":[{"name":"다정퍼니처","tel":"02-470-5344","addr":"경기도 하남시 초이동 28번지","category":"주방용구 - 주방용구"}]},{"lat":"37.529239601","long":"127.16862046","items":[{"name":"닥터 베이스볼","tel":"031-1111-1111","addr":"경기도 하남시 초이동 624-5번지 한설식품하남공장 5층 1호","category":"레져용품 - 스포츠·레져용품"},{"name":"주식회사 에프유에스(FUS)","tel":"02-403-8844","addr":"경기도 하남시 초이동 624-5번지 한설식품하남공장 405호","category":"용역 서비스 - 사무서비스"},{"name":"한설식품 구내 뷔페식당/(주)노다지","tel":"02-3013-7333","addr":"경기도 하남시 초이동 624-5번지 한설식품하남공장 1층","category":"일반휴게음식 - 위탁급식업"}]},{"lat":"37.535406953","long":"127.17173418","items":[{"name":"닷츠 컴퍼니","tel":"","addr":"경기도 하남시 초이동 319-5번지 1층 101호","category":"일반휴게음식 - 서양음식"},{"name":"루헨쇼파&수입매트리스.식탁(송파하남점)","tel":"02-442-1121","addr":"경기도 하남시 초이동 319-5번지 B동 지하1층","category":"가구 - 일반가구"},{"name":"육아대장 (하남점)","tel":"","addr":"경기도 하남시 초이동 319-5번지 A동 3층","category":"의류 - 아동의류"}]},{"lat":"37.531870952","long":"127.16828687","items":[{"name":"대건","tel":"02-3427-2797","addr":"경기도 하남시 초이동 423-1번지 다동","category":"주방용구 - 주방용구"}]},{"lat":"37.526539344","long":"127.16668","items":[{"name":"대건금속산업주식회사","tel":"02-429-0136","addr":"경기도 하남시 초이동 494-2번지","category":"건축자재 - 기타건축자재"}]},{"lat":"37.537815447","long":"127.17598254","items":[{"name":"대륙비브씨(PVC)상사","tel":"02-441-0560","addr":"경기도 하남시 초이동 291-3번지","category":"건축자재 - 기타건축자재"}]},{"lat":"37.533736253","long":"127.17442311","items":[{"name":"대명카공업사","tel":"02-442-8297","addr":"경기도 하남시 초이동 316-4번지","category":"자동차정비 유지 - 자동차정비"}]},{"lat":"37.542457603","long":"127.16167955","items":[{"name":"대몽길동LPG충전소","tel":"02-3426-9986","addr":"경기도 하남시 초이동 46번지","category":"연료판매점 - GS 가스충전소"}]},{"lat":"37.536483156","long":"127.15553453","items":[{"name":"대사골식당/유한회사 더키위","tel":"02-428-1500","addr":"경기도 하남시 초이동 10-2번지","category":"일반휴게음식 - 일반한식"}]},{"lat":"37.5407394","long":"127.15967316","items":[{"name":"대성전기철물","tel":"02-441-5691","addr":"경기도 하남시 초이동 39-9번지","category":"전기제품 - 기타전기제품"}]},{"lat":"37.526123158","long":"127.16792349","items":[{"name":"대연휠타","tel":"02-408-0721","addr":"경기도 하남시 초이동 528번지","category":"자동차정비 유지 - 자동차부품"}]},{"lat":"37.533620811","long":"127.17325752","items":[{"name":"대한가스텍","tel":"02-421-2704","addr":"경기도 하남시 초이동 322-33번지 202호","category":"기타 - 기타 전문점"}]},{"lat":"37.530652506","long":"127.16978886","items":[{"name":"대화고무로-라","tel":"02-478-1969","addr":"경기도 하남시 초이동 429번지","category":"기타 - 기타 전문점"}]},{"lat":"37.54023616","long":"127.17179032","items":[{"name":"대화산업사","tel":"02-427-0842","addr":"경기도 하남시 초이동 137-1번지","category":"유통업 영리 - 기타유통업"}]},{"lat":"37.542260328","long":"127.16097759","items":[{"name":"더샵 갤러리","tel":"031-442-1231","addr":"경기도 하남시 초이동 45번지","category":"가구 - 일반가구"}]},{"lat":"37.533962466","long":"127.17375611","items":[{"name":"도드람양돈협동조합 하남지점","tel":"02-3663-9805","addr":"경기도 하남시 초이동 322-38번지 외1필지건물번호75","category":"음료식품 - 정육점"}]},{"lat":"37.542903279","long":"127.17164924","items":[{"name":"도시장게","tel":"02-6737-1066","addr":"경기도 하남시 초이동 165-8번지","category":"일반휴게음식 - 일반한식"},{"name":"백임왕순대국","tel":"02-428-9998","addr":"경기도 하남시 초이동 165-8번지","category":"일반휴게음식 - 일반한식"}]},{"lat":"37.541761852","long":"127.17592377","items":[{"name":"독불장군","tel":"02-426-8975","addr":"경기도 하남시 초이동 203-7번지","category":"일반휴게음식 - 일반한식"}]},{"lat":"37.543957348","long":"127.17170819","items":[{"name":"동남정비공업사","tel":"02-426-3002","addr":"경기도 하남시 초이동 79-4번지","category":"자동차정비 유지 - 자동차정비"}]},{"lat":"37.54465521","long":"127.16881299","items":[{"name":"동문","tel":"031-428-9292","addr":"경기도 하남시 초이동 74-2번지","category":"일반휴게음식 - 일반한식"}]},{"lat":"37.539095704","long":"127.17539714","items":[{"name":"동서가설산업","tel":"02-441-4520","addr":"경기도 하남시 초이동 222-1번지","category":"건축자재 - 기타건축자재"}]},{"lat":"37.542456667","long":"127.17520121","items":[{"name":"동성","tel":"031-3426-3107","addr":"경기도 하남시 초이동 201-4번지","category":"기타 - 기계공구"}]},{"lat":"37.544371006","long":"127.17226359","items":[{"name":"동원냉동산업","tel":"02-426-1723","addr":"경기도 하남시 초이동 168-3","category":"전기제품 - 냉열기기"},{"name":"초이반점","tel":"02-442-9515","addr":"경기도 하남시 초이동 168-3번지","category":"일반휴게음식 - 중국식"}]},{"lat":"37.542155868","long":"127.17136468","items":[{"name":"동이디자인","tel":"070-6248-6576","addr":"경기도 하남시 초이동 162-1번지","category":"용역 서비스 - 사무서비스"}]},{"lat":"37.544402808","long":"127.16890296","items":[{"name":"들꽃식물원","tel":"02-507-6045","addr":"경기도 하남시 초이동 71번지","category":"문화.취미 - 화원"},{"name":"만물농원","tel":"02-427-2111","addr":"경기도 하남시 초이동 71","category":"문화.취미 - 화원"},{"name":"영지식물원","tel":"02-429-2312","addr":"경기도 하남시 초이동 71","category":"문화.취미 - 화원"}]},{"lat":"37.535600086","long":"127.17525331","items":[{"name":"디오 베네디또","tel":"031-792-3927","addr":"경기도 하남시 초이동 310-3번지 1층","category":"일반휴게음식 - 서양음식"}]},{"lat":"37.540820339","long":"127.15978648","items":[{"name":"또오리","tel":"02-429-0202","addr":"경기도 하남시 초이동 39번지","category":"일반휴게음식 - 일반한식"}]},{"lat":"37.54190044","long":"127.17355923","items":[{"name":"라인기획","tel":"","addr":"경기도 하남시 초이동 159-2번지","category":"건축자재 - 인테리어전문"}]},{"lat":"37.538569179","long":"127.17189971","items":[{"name":"로니엔리키","tel":"02-3426-3337","addr":"경기도 하남시 초이동 260-1번지 2동","category":"음료식품 - 기타음료식품"},{"name":"주식회사 국동푸드","tel":"031-000-0000","addr":"경기도 하남시 초이동 250-2번지","category":"음료식품 - 기타음료식품"}]},{"lat":"37.535238949","long":"127.17576162","items":[{"name":"로또유통","tel":"02-3013-8747","addr":"경기도 하남시 초이동 299-1","category":"음료식품 - 기타음료식품"}]},{"lat":"37.542870706","long":"127.17548504","items":[{"name":"마스타스크린골프연습장","tel":"02-442-9777","addr":"경기도 하남시 초이동 198-6번지 2층 201,202호","category":"레저업소 - 스크린골프"},{"name":"칠성제화주식회사","tel":"02-486-9280","addr":"경기도 하남시 초이동 198-6번지 101호","category":"신변잡화 - 제화"},{"name":"효성스즈끼하남대리점","tel":"031-791-5552","addr":"경기도 하남시 초이동 198-6번지","category":"자동차판매 - 이륜차판매"}]},{"lat":"37.542540889","long":"127.17304019","items":[{"name":"만능자동차","tel":"02-427-2783","addr":"경기도 하남시 초이동 161-10번지 1층 2호","category":"자동차정비 유지 - 카인테리어"}]},{"lat":"37.543038346","long":"127.17170612","items":[{"name":"만정준한의원","tel":"02-426-7222","addr":"경기도 하남시 초이동 165-7번지 1층","category":"의원 - 한의원"}]},{"lat":"37.541763516","long":"127.16847845","items":[{"name":"메밀랑.메밀랑카페","tel":"02-427-8890","addr":"경기도 하남시 초이동 96번지","category":"일반휴게음식 - 일반한식"},{"name":"식도락샤브칼국수","tel":"02-514-9999","addr":"경기도 하남시 초이동 96번지","category":"일반휴게음식 - 일반한식"}]},{"lat":"37.542014326","long":"127.17578857","items":[{"name":"명가","tel":"02-428-3358","addr":"경기도 하남시 초이동 202-1번지","category":"일반휴게음식 - 일반한식"}]},{"lat":"37.543457328","long":"127.16195324","items":[{"name":"명성기업","tel":"","addr":"경기도 하남시 초이동 49번지","category":"건축자재 - 목재·석재·철물"},{"name":"열리미","tel":"02-422-9575","addr":"경기도 하남시 초이동 49번지","category":"건축자재 - 보일러·펌프·샷시"}]},{"lat":"37.529431495","long":"127.17306698","items":[{"name":"명일도아","tel":"031-111-1111","addr":"경기도 하남시 초이동 437-1번지","category":"건축자재 - 기타건축자재"}]},{"lat":"37.5367324","long":"127.17103567","items":[{"name":"명장","tel":"02-441-9007","addr":"경기도 하남시 초이동 276-8번지 1층","category":"건축자재 - 인테리어전문"}]},{"lat":"37.54484671","long":"127.16717266","items":[{"name":"명진석유주식회사","tel":"02-3426-8175","addr":"경기도 하남시 초이동 62-1번지","category":"연료판매점 - 주유소"},{"name":"초이주유소","tel":"02-3426-8175","addr":"경기도 하남시 초이동 62-1번지 (62-2.62-3)","category":"연료판매점 - GS주유소"}]},{"lat":"37.542929872","long":"127.17195481","items":[{"name":"몽땅 배터리","tel":"02-429-3377","addr":"경기도 하남시 초이동 164-7번지 1층 104호","category":"자동차정비 유지 - 자동차부품"}]},{"lat":"37.541433315","long":"127.17259639","items":[{"name":"몽땅비어","tel":"02-429-5199","addr":"경기도 하남시 초이동 161-28번지 1층","category":"일반휴게음식 - 주점"}]},{"lat":"37.545153036","long":"127.1735327","items":[{"name":"무봉리 순대국&감자탕","tel":"02-426-1066","addr":"경기도 하남시 초이동 174-4번지 2층","category":"일반휴게음식 - 일반한식"}]},{"lat":"37.544899949","long":"127.16776119","items":[{"name":"미래식물원","tel":"031-481-9085","addr":"경기도 하남시 초이동 64-4번지","category":"문화.취미 - 화원"},{"name":"타이어 대한민국","tel":"02-427-3800","addr":"경기도 하남시 초이동 64-4번지 1층","category":"자동차정비 유지 - 자동차시트·타이어"}]},{"lat":"37.541432158","long":"127.17339976","items":[{"name":"미래제화연구소","tel":"02-3427-0389","addr":"경기도 하남시 초이동 152-2번지","category":"신변잡화 - 제화"},{"name":"해성창호","tel":"031-796-7712","addr":"경기도 하남시 초이동 152-2번지","category":"건축자재 - 보일러·펌프·샷시"}]},{"lat":"37.544706599","long":"127.1707028","items":[{"name":"미림화원","tel":"02-428-8688","addr":"경기도 하남시 초이동 76-3번지","category":"문화.취미 - 화원"}]},{"lat":"37.540461486","long":"127.17173426","items":[{"name":"범한테크노","tel":"02-428-6265","addr":"경기도 하남시 초이동 136번지","category":"자동차정비 유지 - 자동차부품"},{"name":"이오일","tel":"02-428-6265","addr":"경기도 하남시 초이동 136번지","category":"자동차정비 유지 - 윤활유 전문 판매"}]},{"lat":"37.544208829","long":"127.17226322","items":[{"name":"벨리체","tel":"02-428-1090","addr":"경기도 하남시 초이동 168-5번지","category":"가구 - 일반가구"}]},{"lat":"37.543318087","long":"127.17140124","items":[{"name":"보성햄프렉스 주식회사","tel":"02-3428-8283","addr":"경기도 하남시 초이동 80-9번지","category":"직물 - 침구·수예점"}]},{"lat":"37.540760248","long":"127.17695112","items":[{"name":"부라더 타일","tel":"02-427-9040","addr":"경기도 하남시 초이동 206번지","category":"건축자재 - 건축용 요업제품"}]},{"lat":"37.543794783","long":"127.1719794","items":[{"name":"부릉부릉빵빵","tel":"02-3427-2122","addr":"경기도 하남시 초이동 167-5번지","category":"자동차정비 유지 - 자동차정비"}]},{"lat":"37.545008519","long":"127.17378132","items":[{"name":"부자자동차공업사","tel":"02-426-3138","addr":"경기도 하남시 초이동 175번지 1층","category":"자동차정비 유지 - 자동차정비"}]},{"lat":"37.54520853","long":"127.17253705","items":[{"name":"브이아이피짐(VIPGYM) 2호점","tel":"02-1234-1234","addr":"경기도 하남시 초이동 172-1번지 정경빌딩 2층","category":"레저업소 - 헬스클럽"}]},{"lat":"37.543956635","long":"127.17220607","items":[{"name":"빈티지모터스코리아","tel":"070-7405-8450","addr":"경기도 하남시 초이동 168-12번지","category":"자동차판매 - 이륜차판매"}]},{"lat":"37.532989068","long":"127.15418107","items":[{"name":"산내들농원","tel":"02-481-5394","addr":"경기도 하남시 초이동 1-1번지","category":"문화.취미 - 화원"}]},{"lat":"37.543375421","long":"127.17537305","items":[{"name":"삼미자동기계","tel":"02-428-3077","addr":"경기도 하남시 초이동 198-1번지","category":"기타 - 기계공구"}]},{"lat":"37.527989443","long":"127.16703387","items":[{"name":"삼성발전기","tel":"02-442-4963","addr":"경기도 하남시 초이동 482-1번지","category":"기타 - 기타 전문점"}]},{"lat":"37.540958462","long":"127.17072835","items":[{"name":"삼운종합목재","tel":"02-426-2611","addr":"경기도 하남시 초이동 131번지","category":"건축자재 - 기타건축자재"}]},{"lat":"37.531815562","long":"127.16270915","items":[{"name":"삼원푸드서비스","tel":"","addr":"경기도 하남시 초이동 384-1번지","category":"음료식품 - 기타음료식품"}]},{"lat":"37.530850179","long":"127.17017396","items":[{"name":"삼정기업","tel":"02-3426-7723","addr":"경기도 하남시 초이동 429-1번지","category":"기타 - 기계공구"}]},{"lat":"37.542121431","long":"127.17647905","items":[{"name":"상일동화물류","tel":"02-442-0811","addr":"경기도 하남시 초이동 195번지","category":"기타 - 기타 전문점"}]},{"lat":"37.537013946","long":"127.15614659","items":[{"name":"샘꽃난원","tel":"02-3418-3307","addr":"경기도 하남시 초이동 10-6번지","category":"문화.취미 - 화원"}]},{"lat":"37.534399603","long":"127.15728395","items":[{"name":"샘나는집","tel":"031-442-6163","addr":"경기도 하남시 초이동 17-3번지 1층","category":"일반휴게음식 - 일반한식"}]},{"lat":"37.541203694","long":"127.1628197","items":[{"name":"샤론농장","tel":"02-441-3979","addr":"경기도 하남시 초이동 산32번지","category":"문화.취미 - 화원"}]},{"lat":"37.544984241","long":"127.17186893","items":[{"name":"서부농업협동조합초이지점","tel":"02-429-2545","addr":"경기도 하남시 초이동 171-3번지","category":"유통업 비영리 - 농,축협 직영매장"}]},{"lat":"37.544513371","long":"127.17350861","items":[{"name":"서부음식점","tel":"02-429-0977","addr":"경기도 하남시 초이동 177-6번지 1층","category":"일반휴게음식 - 일반한식"},{"name":"서부정육점","tel":"02-429-0977","addr":"경기도 하남시 초이동 177-6번지","category":"음료식품 - 정육점"}]},{"lat":"37.524818571","long":"127.16659705","items":[{"name":"서울방화문.삿터","tel":"02-474-6166","addr":"경기도 하남시 초이동 516-3번지","category":"건축자재 - 기타건축자재"}]},{"lat":"37.531931185","long":"127.16381813","items":[{"name":"선경유화","tel":"02-466-9036","addr":"경기도 하남시 초이동 387번지","category":"연료판매점 - 유류판매"}]},{"lat":"37.539904681","long":"127.1767002","items":[{"name":"선도연와","tel":"02-429-3023","addr":"경기도 하남시 초이동 212번지","category":"건축자재 - 기타건축자재"}]},{"lat":"37.539814407","long":"127.17059","items":[{"name":"선우상회","tel":"02-400-7930","addr":"경기도 하남시 초이동 257번지","category":"음료식품 - 기타음료식품"}]},{"lat":"37.543873681","long":"127.16714789","items":[{"name":"성민꽃농원","tel":"02-427-5743","addr":"경기도 하남시 초이동 65-14번지","category":"문화.취미 - 화원"},{"name":"소망꽃농원","tel":"02-427-1347","addr":"경기도 하남시 초이동 65-14번지","category":"문화.취미 - 화원"},{"name":"진희농원","tel":"02-427-0444","addr":"경기도 하남시 초이동 65-14번지","category":"문화.취미 - 화원"},{"name":"청록화원","tel":"02-428-0923","addr":"경기도 하남시 초이동 65-14번지","category":"문화.취미 - 화원"}]},{"lat":"37.537127929","long":"127.17167017","items":[{"name":"성일코리아","tel":"02-442-1719","addr":"경기도 하남시 초이동 278-9번지","category":"의류 - 내의판매"}]},{"lat":"37.531405337","long":"127.16620415","items":[{"name":"세븐일레븐하남초이제일점","tel":"031-1577-0711","addr":"경기도 하남시 초이동 403-1번지","category":"유통업 영리 - 편 의 점"},{"name":"주식회사 고우니","tel":"02-1670-8808","addr":"경기도 하남시 초이동 403-1번지 2층","category":"용역 서비스 - 소프트웨어"}]},{"lat":"37.543096249","long":"127.17528189","items":[{"name":"세븐일레븐하남초이중앙점","tel":"031-1577-0711","addr":"경기도 하남시 초이동 198-13번지 101호","category":"유통업 영리 - 편 의 점"}]},{"lat":"37.544064996","long":"127.17203658","items":[{"name":"소프트골드(SoftGold)","tel":"031-898-3310","addr":"경기도 하남시 초이동 168-8번지","category":"자동차정비 유지 - 자동차시트·타이어"},{"name":"전국의전대행(주)","tel":"031-1566-4467","addr":"경기도 하남시 초이동 168-8번지 2층","category":"용역 서비스 - 가례서비스업"}]},{"lat":"37.541456912","long":"127.16867012","items":[{"name":"숲속에어린이집[아이행복]","tel":"02-428-5781","addr":"경기도 하남시 초이동 97-3번지","category":"학원 - 유아원"}]},{"lat":"37.544232795","long":"127.16806523","items":[{"name":"승진화훼자재총판","tel":"02-429-3977","addr":"경기도 하남시 초이동 65-6번지","category":"문화.취미 - 화원"}]},{"lat":"37.543401017","long":"127.16361647","items":[{"name":"시크릿가든","tel":"02-442-4449","addr":"경기도 하남시 초이동 60-3번지","category":"문화.취미 - 화원"},{"name":"화훼갤러리","tel":"02-426-7676","addr":"경기도 하남시 초이동 60-3번지","category":"문화.취미 - 화원"}]},{"lat":"37.534956024","long":"127.17203864","items":[{"name":"신일유통","tel":"02-400-4461","addr":"경기도 하남시 초이동 321-2번지","category":"음료식품 - 기타음료식품"}]},{"lat":"37.543619989","long":"127.1744797","items":[{"name":"싸이숯불닭갈비","tel":"031-428-4292","addr":"경기도 하남시 초이동 188-4번지 1층","category":"일반휴게음식 - 일반한식"}]},{"lat":"37.528595667","long":"127.16517985","items":[{"name":"씨마물산","tel":"031-794-4402","addr":"경기도 하남시 초이동 620-2번지","category":"주방용구 - 주방용구"},{"name":"에스씨에너지 (주)하남폴페이주유소","tel":"02-428-8034","addr":"경기도 하남시 초이동 620-2번지","category":"연료판매점 - SK주유소"}]},{"lat":"37.544288567","long":"127.17320258","items":[{"name":"아톰카","tel":"02-481-5245","addr":"경기도 하남시 초이동 178-20,초이동178-17","category":"자동차정비 유지 - 자동차정비"}]},{"lat":"37.531822124","long":"127.16450802","items":[{"name":"알라망","tel":"02-496-8220","addr":"경기도 하남시 초이동 392-2번지","category":"건축자재 - 인테리어전문"}]},{"lat":"37.537761255","long":"127.16981602","items":[{"name":"알모터스(R motors)","tel":"02-477-1180","addr":"경기도 하남시 초이동 265-2번지","category":"자동차정비 유지 - 자동차정비"},{"name":"이성수공인중개사사무소","tel":"","addr":"경기도 하남시 초이동 265-2번지 2층","category":"용역 서비스 - 부동산 중개·임대"}]},{"lat":"37.537346642","long":"127.16992824","items":[{"name":"애니콜모터스","tel":"02-488-5284","addr":"경기도 하남시 초이동 276-2번지","category":"자동차정비 유지 - 자동차정비"}]},{"lat":"37.537872784","long":"127.17373109","items":[{"name":"언약사랑나눔요양원","tel":"02-471-2002","addr":"경기도 하남시 초이동 281-1번지","category":"기타의료기관 - 기타의료기관 및 기타"}]},{"lat":"37.541069632","long":"127.17486988","items":[{"name":"에너지뱅크","tel":"02-441-9531","addr":"경기도 하남시 초이동 226-19번지","category":"연료판매점 - LPG 취급점"}]},{"lat":"37.532406385","long":"127.17193106","items":[{"name":"에스랜드","tel":"02-2205-0944","addr":"경기도 하남시 초이동 332-1번지","category":"기타 - 기계공구"}]},{"lat":"37.541483754","long":"127.17509713","items":[{"name":"에스앤피(S&P)","tel":"02-3426-7255","addr":"경기도 하남시 초이동 155번지","category":"자동차정비 유지 - 자동차정비"},{"name":"초영공구철물","tel":"02-441-0989","addr":"경기도 하남시 초이동 155번지","category":"건축자재 - 목재·석재·철물"}]},{"lat":"37.53840036","long":"127.17023608","items":[{"name":"에이브이T.F.S","tel":"032-1566-3260","addr":"경기도 하남시 초이동 262-10번지","category":"음료식품 - 정육점"},{"name":"주식회사 에이브이미트","tel":"02-1566-3260","addr":"경기도 하남시 초이동 262-10번지 1층","category":"음료식품 - 정육점"}]},{"lat":"37.540154326","long":"127.17231062","items":[{"name":"에이치에스 오토글라스","tel":"","addr":"경기도 하남시 초이동 243번지 1층","category":"건축자재 - 유리"},{"name":"주현통상","tel":"02-484-8301","addr":"경기도 하남시 초이동 243번지","category":"신변잡화 - 기타잡화"}]},{"lat":"37.538571596","long":"127.17020252","items":[{"name":"엠씨알 컴퍼니","tel":"02-2247-4483","addr":"경기도 하남시 초이동 262-15번지","category":"주방용구 - 주방용구"},{"name":"카페서비스","tel":"00-1544-0951","addr":"경기도 하남시 초이동 262-15번지","category":"주방용구 - 주방용구"}]},{"lat":"37.543535826","long":"127.1638657","items":[{"name":"왈츠다육식물원","tel":"02-441-0321","addr":"경기도 하남시 초이동 60-4번지","category":"문화.취미 - 화원"}]},{"lat":"37.525652961","long":"127.16259419","items":[{"name":"우리상재","tel":"02-472-8890","addr":"경기도 하남시 초이동 508-1번지","category":"건축자재 - 기타건축자재"}]},{"lat":"37.527296532","long":"127.16642145","items":[{"name":"우성유통","tel":"02-574-2430","addr":"경기도 하남시 초이동 483-2번지","category":"사무통신 - 사무용 OA기기"}]},{"lat":"37.543954321","long":"127.17381286","items":[{"name":"워시존 강동점","tel":"031-000-0000","addr":"경기도 하남시 초이동 176-5번지","category":"자동차정비 유지 - 세차장"}]},{"lat":"37.524740628","long":"127.16431175","items":[{"name":"유원공사","tel":"02-484-6104","addr":"경기도 하남시 초이동 512-2번지","category":"건축자재 - 보일러·펌프·샷시"}]},{"lat":"37.533712585","long":"127.1720924","items":[{"name":"유일출장뷔페","tel":"070-4131-9004","addr":"경기도 하남시 초이동 322-118번지","category":"일반휴게음식 - 일반한식"}]},{"lat":"37.544958085","long":"127.17125783","items":[{"name":"으뜸한의원","tel":"02-6013-1111","addr":"경기도 하남시 초이동 76-5번지","category":"의원 - 한의원"},{"name":"장수설렁탕","tel":"02-442-5534","addr":"경기도 하남시 초이동 76-5번지 1층","category":"일반휴게음식 - 일반한식"},{"name":"카페165","tel":"031-999-3882","addr":"경기도 하남시 초이동 76-5번지 1층","category":"일반휴게음식 - 서양음식"}]},{"lat":"37.53870639","long":"127.17045175","items":[{"name":"을지종합상가","tel":"02-442-0989","addr":"경기도 하남시 초이동 262-6번지","category":"건축자재 - 목재·석재·철물"},{"name":"청계공구철물볼트호스상가","tel":"02-3427-2282","addr":"경기도 하남시 초이동 262-6번지","category":"기타 - 기계공구"}]},{"lat":"37.54001243","long":"127.17072622","items":[{"name":"이디피(EDP) 청담","tel":"","addr":"경기도 하남시 초이동 133-1번지 1층","category":"음료식품 - 기타음료식품"}]},{"lat":"37.533011288","long":"127.17106126","items":[{"name":"이모네수퍼","tel":"02-427-8977","addr":"경기도 하남시 초이동 337-3번지","category":"유통업 영리 - 슈퍼마켓"},{"name":"중고넘버원","tel":"02-426-8242","addr":"경기도 하남시 초이동 337-3번지","category":"전기제품 - 가전제품"}]},{"lat":"37.525737388","long":"127.16673481","items":[{"name":"일체창호","tel":"02-442-1825","addr":"경기도 하남시 초이동 496-3번지 지층 B02호","category":"건축자재 - 보일러·펌프·샷시"}]},{"lat":"37.543595538","long":"127.16630995","items":[{"name":"일호농원","tel":"02-426-0950","addr":"경기도 하남시 초이동 65-5번지","category":"문화.취미 - 화원"},{"name":"일호조경","tel":"031-447-9292","addr":"경기도 하남시 초이동 65-5번지","category":"문화.취미 - 화원"}]},{"lat":"37.532821759","long":"127.17128711","items":[{"name":"자이언트모터스","tel":"02-427-0903","addr":"경기도 하남시 초이동 334-3번지","category":"자동차정비 유지 - 자동차시트·타이어"}]},{"lat":"37.543735619","long":"127.16922962","items":[{"name":"제니 제니","tel":"070-2699-0807","addr":"경기도 하남시 초이동 87-1번지","category":"의류 - 내의판매"}]},{"lat":"37.536786738","long":"127.15765093","items":[{"name":"제니스코리아","tel":"02-426-3130","addr":"경기도 하남시 초이동 22-8번지 1층","category":"주방용구 - 주방용구"}]},{"lat":"37.530041953","long":"127.16828283","items":[{"name":"제이47스포츠","tel":"031-441-0050","addr":"경기도 하남시 초이동 415-12번지","category":"레져용품 - 스포츠·레져용품"}]},{"lat":"37.537400909","long":"127.16978127","items":[{"name":"제이에이쥐 JAG","tel":"","addr":"경기도 하남시 초이동 276-12번지","category":"자동차정비 유지 - 자동차정비"}]},{"lat":"37.53795714","long":"127.15832091","items":[{"name":"제이와이씨 강남(주)","tel":"02-3394-7353","addr":"경기도 하남시 초이동 22-2번지","category":"자동차정비 유지 - 자동차부품"}]},{"lat":"37.542377306","long":"127.17401293","items":[{"name":"져스트파이브세컨즈(Just 5 seconds)","tel":"","addr":"경기도 하남시 초이동 182-3번지 1층","category":"문화.취미 - 애완동물"}]},{"lat":"37.539425954","long":"127.17131328","items":[{"name":"주식회사 굿세븐","tel":"070-4103-1237","addr":"경기도 하남시 초이동 254-6번지","category":"주방용구 - 주방용식기"},{"name":"황제유통","tel":"02-427-7780","addr":"경기도 하남시 초이동 254-6번지","category":"음료식품 - 농·축·수산품"}]},{"lat":"37.525484924","long":"127.16687001","items":[{"name":"주식회사 넥스필티앤에프","tel":"02-442-0288","addr":"경기도 하남시 초이동 520번지 가동","category":"가구 - 일반가구"},{"name":"플러스(PLUS)","tel":"02-476-2274","addr":"경기도 하남시 초이동 520번지","category":"주방용구 - 주방용구"}]},{"lat":"37.536732722","long":"127.17080939","items":[{"name":"주식회사 다한","tel":"02-442-4370","addr":"경기도 하남시 초이동 276-10번지","category":"직물 - 카페트,커튼,천막,지물"}]},{"lat":"37.534233399","long":"127.17331548","items":[{"name":"주식회사 맛도락","tel":"02-404-9025","addr":"경기도 하남시 초이동 322-26번지","category":"음료식품 - 농·축·수산품"}]},{"lat":"37.524566718","long":"127.16629106","items":[{"name":"주식회사 비앤에이인더스트리 하남점","tel":"02-3427-0011","addr":"경기도 하남시 초이동 516-12번지","category":"건축자재 - 페인트"}]},{"lat":"37.537511391","long":"127.17442044","items":[{"name":"주식회사 선한농장","tel":"02-406-2520","addr":"경기도 하남시 초이동 283-2번지","category":"음료식품 - 정육점"}]},{"lat":"37.526043692","long":"127.1667581","items":[{"name":"주식회사 세원에프에스","tel":"02-427-6946","addr":"경기도 하남시 초이동 496-1번지","category":"음료식품 - 정육점"}]},{"lat":"37.526233823","long":"127.16609106","items":[{"name":"주식회사 아주세라믹스","tel":"031-791-2569","addr":"경기도 하남시 초이동 490-3번지","category":"건축자재 - 건축용 요업제품"}]},{"lat":"37.526789191","long":"127.16842272","items":[{"name":"주식회사 필텍글라스","tel":"02-812-6205","addr":"경기도 하남시 초이동 629-3번지","category":"건축자재 - 유리"}]},{"lat":"37.537176557","long":"127.16914717","items":[{"name":"주식회사도담코퍼레이션","tel":"02-424-1717","addr":"경기도 하남시 초이동 274번지 1층","category":"기타 - 기계공구"}]},{"lat":"37.538017547","long":"127.17331278","items":[{"name":"주식회사호수에프엔비","tel":"02-3401-6900","addr":"경기도 하남시 초이동 281-3번지","category":"일반휴게음식 - 일반한식"},{"name":"호수","tel":"070-7607-7464","addr":"경기도 하남시 초이동 281-3번지 202호","category":"용역 서비스 - 혼례서비스"}]},{"lat":"37.535348174","long":"127.17500382","items":[{"name":"주심 세신마사지","tel":"02-429-9500","addr":"경기도 하남시 초이동 310번지","category":"보건위생 - 기타대인서비스"},{"name":"주심유황숯가마 여탕세신","tel":"02-429-7711","addr":"경기도 하남시 초이동 310번지 2층","category":"보건위생 - 기타대인서비스"},{"name":"주심유황참숯가마스넥","tel":"02-429-9500","addr":"경기도 하남시 초이동 310번지 주심유황참숯가마내","category":"일반휴게음식 - 스넥"},{"name":"주심체형관리화장품","tel":"02-426-2990","addr":"경기도 하남시 초이동 310번지","category":"보건위생 - 화장품"}]},{"lat":"37.540322861","long":"127.167819","items":[{"name":"주안아이네오주식회사","tel":"031-426-6412","addr":"경기도 하남시 초이동 107-5번지","category":"용역 서비스 - 기타용역서비스"}]},{"lat":"37.530485486","long":"127.16681307","items":[{"name":"중앙판매","tel":"02-409-9178","addr":"경기도 하남시 초이동 413-3번지","category":"자동차정비 유지 - 자동차부품"}]},{"lat":"37.530873067","long":"127.16670078","items":[{"name":"중인 강화 유리","tel":"02-473-0191","addr":"경기도 하남시 초이동 414-1번지","category":"건축자재 - 유리"}]},{"lat":"37.530874679","long":"127.17195023","items":[{"name":"지아지아(Jia Jia)","tel":"02-442-5019","addr":"경기도 하남시 초이동 434","category":"의류 - 정장"}]},{"lat":"37.537599621","long":"127.16943097","items":[{"name":"지에스티 배터리","tel":"02-477-2320","addr":"경기도 하남시 초이동 266-2번지","category":"기타 - 기계공구"}]},{"lat":"37.540151564","long":"127.16789782","items":[{"name":"지원공조","tel":"","addr":"경기도 하남시 초이동 107-3번지","category":"전기제품 - 냉열기기"}]},{"lat":"37.53759428","long":"127.17317604","items":[{"name":"진성실리콘","tel":"","addr":"경기도 하남시 초이동 279-8번지","category":"건축자재 - 기타건축자재"}]},{"lat":"37.543819936","long":"127.16692147","items":[{"name":"진희꽃식물원","tel":"02-430-5837","addr":"경기도 하남시 초이동 65-3","category":"문화.취미 - 화원"},{"name":"충남농원","tel":"02-442-4590","addr":"경기도 하남시 초이동 65-3","category":"문화.취미 - 화원"},{"name":"현진농원","tel":"02-427-8957","addr":"경기도 하남시 초이동 65-3번지","category":"문화.취미 - 화원"},{"name":"희망농원","tel":"02-488-8365","addr":"경기도 하남시 초이동 65-3","category":"문화.취미 - 화원"}]},{"lat":"37.541956567","long":"127.17212234","items":[{"name":"차차차모터스","tel":"02-428-2633","addr":"경기도 하남시 초이동 162-10번지","category":"자동차정비 유지 - 자동차정비"}]},{"lat":"37.534045592","long":"127.17234206","items":[{"name":"천호식품","tel":"","addr":"경기도 하남시 초이동 322-108번지","category":"음료식품 - 기타음료식품"}]},{"lat":"37.531379344","long":"127.17187217","items":[{"name":"철탑집","tel":"02-442-6702","addr":"경기도 하남시 초이동 433-1번지 가동 1층","category":"일반휴게음식 - 일반한식"}]},{"lat":"37.544261129","long":"127.17348541","items":[{"name":"청대인터내셔널","tel":"02-427-7786","addr":"경기도 하남시 초이동 177-20번지 1층","category":"회원제형태 - 기타4"}]},{"lat":"37.534764865","long":"127.17339589","items":[{"name":"청해수산","tel":"031-2215-8989","addr":"경기도 하남시 초이동 322-21번지","category":"음료식품 - 농·축·수산품"}]},{"lat":"37.537210034","long":"127.17095755","items":[{"name":"초이분식","tel":"02-429-5353","addr":"경기도 하남시 초이동 277-9번지","category":"일반휴게음식 - 스넥"},{"name":"초이종합건재","tel":"02-427-4040","addr":"경기도 하남시 초이동 277-9번지 1층","category":"건축자재 - 기타건축자재"}]},{"lat":"37.542461684","long":"127.17172745","items":[{"name":"초이스스크린골프","tel":"02-442-0700","addr":"경기도 하남시 초이동 163-8번지 2층","category":"회원제형태 - 레져업소"},{"name":"트로이카 강동(TROYCAR)","tel":"02-472-9845","addr":"경기도 하남시 초이동 163-8번지","category":"자동차정비 유지 - 자동차부품"}]},{"lat":"37.534708344","long":"127.17509287","items":[{"name":"초이카종합","tel":"031-111-1111","addr":"경기도 하남시 초이동 311번지 1층","category":"자동차정비 유지 - 자동차정비"}]},{"lat":"37.541096381","long":"127.1750623","items":[{"name":"추오정남원추어탕","tel":"02-428-9293","addr":"경기도 하남시 초이동 226-2번지 1층","category":"일반휴게음식 - 일반한식"}]},{"lat":"37.539344623","long":"127.17148281","items":[{"name":"추풍령감자탕","tel":"031-441-0399","addr":"경기도 하남시 초이동 254-7","category":"일반휴게음식 - 일반한식"}]},{"lat":"37.538821503","long":"127.17186633","items":[{"name":"친환경식품","tel":"02-470-6261","addr":"경기도 하남시 초이동 249번지 1층","category":"음료식품 - 기타음료식품"}]},{"lat":"37.541818779","long":"127.17395508","items":[{"name":"커피로스팅플랫폼 주식회사","tel":"02-817-1025","addr":"경기도 하남시 초이동 153-10번지 1층","category":"음료식품 - 기타음료식품"}]},{"lat":"37.527376301","long":"127.16737191","items":[{"name":"케이디엠(KDM)","tel":"02-488-2842","addr":"경기도 하남시 초이동 484번지 가동","category":"가구 - 일반가구"}]},{"lat":"37.537850921","long":"127.17012171","items":[{"name":"케이제이패션아울렛","tel":"02-429-5650","addr":"경기도 하남시 초이동 262-16번지","category":"의류 - 정장"},{"name":"크로바유통","tel":"02-2237-7677","addr":"경기도 하남시 초이동 262-16번지 1층 103호","category":"신변잡화 - 기타잡화"}]},{"lat":"37.541647559","long":"127.17397732","items":[{"name":"태기금속","tel":"02-3013-1005","addr":"경기도 하남시 초이동 153-1번지","category":"건축자재 - 기타건축자재"}]},{"lat":"37.545065524","long":"127.17173332","items":[{"name":"토박이한식","tel":"02-428-3987","addr":"경기도 하남시 초이동 171-7번지","category":"일반휴게음식 - 일반한식"}]},{"lat":"37.539484823","long":"127.17423261","items":[{"name":"파티코리아","tel":"..-1544-4734","addr":"경기도 하남시 초이동 232번지","category":"일반휴게음식 - 일반한식"},{"name":"피오피 라인","tel":"02-6338-1774","addr":"경기도 하남시 초이동 232번지","category":"건축자재 - 인테리어전문"}]},{"lat":"37.540152605","long":"127.16715105","items":[{"name":"프레임 월드","tel":"02-428-2328","addr":"경기도 하남시 초이동 108번지","category":"문화.취미 - 화방·표구점"}]},{"lat":"37.541509411","long":"127.17603634","items":[{"name":"하나에어컨","tel":"02-442-2236","addr":"경기도 하남시 초이동 203-8번지 204호","category":"전기제품 - 냉열기기"}]},{"lat":"37.543122082","long":"127.16334431","items":[{"name":"하나플라워","tel":"02-427-5242","addr":"경기도 하남시 초이동 60-1번지","category":"문화.취미 - 화원"}]},{"lat":"37.544260933","long":"127.17362119","items":[{"name":"하남계전","tel":"070-4131-8136","addr":"경기도 하남시 초이동 177-21번지","category":"전기제품 - 기타전기제품"}]},{"lat":"37.529566905","long":"127.1665056","items":[{"name":"학산상사","tel":"02-429-6452","addr":"경기도 하남시 초이동 460번지","category":"서적문구 - 문구용품"}]},{"lat":"37.543794458","long":"127.1722057","items":[{"name":"한국카모터스","tel":"02-428-9001","addr":"경기도 하남시 초이동 167-6번지","category":"자동차정비 유지 - 자동차정비"}]},{"lat":"37.542683304","long":"127.16134057","items":[{"name":"한성기업","tel":"02-3426-3504","addr":"경기도 하남시 초이동 45-2번지","category":"건축자재 - 기타건축자재"}]},{"lat":"37.544539795","long":"127.17392735","items":[{"name":"한양종합상사","tel":"070-8959-2904","addr":"경기도 하남시 초이동 175-6번지","category":"기타 - 기계공구"}]},{"lat":"37.545155622","long":"127.17173353","items":[{"name":"한일농약조경자재센터","tel":"02-426-5517","addr":"경기도 하남시 초이동 171-6번지 1층","category":"농업 - 비료,사료,종자"}]},{"lat":"37.533013963","long":"127.16917187","items":[{"name":"한일아트","tel":"02-481-9131","addr":"경기도 하남시 초이동 340-4번지","category":"문화.취미 - 화원"}]},{"lat":"37.534342917","long":"127.17234273","items":[{"name":"핫스타WF1","tel":"070-6828-3838","addr":"경기도 하남시 초이동 322-104번지","category":"음료식품 - 기타음료식품"}]},{"lat":"37.544152102","long":"127.16778217","items":[{"name":"현대ELS","tel":"02-426-4436","addr":"경기도 하남시 초이동 65-2번지","category":"문화.취미 - 화원"},{"name":"현대종묘","tel":"02-426-4436","addr":"경기도 하남시 초이동 65-2 11/2","category":"문화.취미 - 화원"}]},{"lat":"37.537786744","long":"127.17090227","items":[{"name":"현림케이터링","tel":"02-501-9293","addr":"경기도 하남시 초이동 263-6번지 1층","category":"일반휴게음식 - 일반한식"}]},{"lat":"37.539650132","long":"127.17206056","items":[{"name":"현풍할매집","tel":"02-427-2277","addr":"경기도 하남시 초이동 244-5번지 1층","category":"일반휴게음식 - 일반한식"},{"name":"횡성한우정육점","tel":"02-427-2277","addr":"경기도 하남시 초이동 244-5번지","category":"음료식품 - 정육점"}]},{"lat":"37.533961137","long":"127.17467253","items":[{"name":"화신산업","tel":"02-488-0305","addr":"경기도 하남시 초이동 316번지","category":"건축자재 - 기타건축자재"}]},{"lat":"37.541402726","long":"127.16876052","items":[{"name":"화평기획","tel":"031-794-5235","addr":"경기도 하남시 초이동 97-8번지","category":"용역 서비스 - 종합용역"}]},{"lat":"37.534818237","long":"127.1738712","items":[{"name":"황금어수산","tel":"02-487-3333","addr":"경기도 하남시 초이동 322-48번지","category":"음료식품 - 농·축·수산품"}]},{"lat":"37.54409162","long":"127.17231953","items":[{"name":"황제점심뷔페","tel":"031-426-2898","addr":"경기도 하남시 초이동 168-10번지","category":"일반휴게음식 - 일반한식"}]},{"lat":"37.539487906","long":"127.17209413","items":[{"name":"휠수리닷컴","tel":"02-6959-5001","addr":"경기도 하남시 초이동 244-6번지 (245,244-6,244-1,244-3,244-4,245-1)","category":"자동차정비 유지 - 자동차시트·타이어"}]}]