[{"lat":"37.606726657","long":"127.16011732","imageIndex":13,"items":[{"name":"(구리남양주)이레아이맘","tel":"031-512-4311","addr":"경기도 남양주시 다산동 4113-18번지 202-1호","indutype":"보건위생 - 기타대인서비스","category":"beauty"},{"name":"엘렌제이","tel":"","addr":"경기도 남양주시 다산동 4113-18번지 도농동근생 201호 일부","indutype":"보건위생 - 화장품","category":"beauty"},{"name":"한스헤어","tel":"031-564-0031","addr":"경기도 남양주시 다산동 4113-18번지 도농동근생 201호","indutype":"보건위생 - 미용원","category":"beauty"}]},{"lat":"37.625113766","long":"127.15459413","imageIndex":13,"items":[{"name":"(주)위드유","tel":"031-523-2001","addr":"경기도 남양주시 다산동 6054-2번지 다산메트로타워 801호 802호","indutype":"보건위생 - 기타대인서비스","category":"beauty"},{"name":"네일 베리어스","tel":"031-111-1111","addr":"경기도 남양주시 다산동 6054-2번지 메트로타워 2층 205호","indutype":"보건위생 - 피부미용실","category":"beauty"},{"name":"수에스테틱","tel":"031-111-1111","addr":"경기도 남양주시 다산동 6054-2번지 301호","indutype":"보건위생 - 피부미용실","category":"beauty"},{"name":"클럽밸런스5 다산역점","tel":"031-557-0208","addr":"경기도 남양주시 다산동 6054-2번지 6층 606호","indutype":"보건위생 - 의료용품","category":"beauty"}]},{"lat":"37.604534331","long":"127.1555036","imageIndex":13,"items":[{"name":"(주)프리미엄 코리아","tel":"02-563-1145","addr":"경기도 남양주시 다산동 668-3번지 6층","indutype":"보건위생 - 사우나","category":"beauty"},{"name":"다지기에듀짐","tel":"070-7530-7942","addr":"경기도 남양주시 다산동 668-3번지 브릭스타워 4층 418호","indutype":"보건위생 - 기타대인서비스","category":"beauty"},{"name":"렌느","tel":"031-555-0670","addr":"경기도 남양주시 다산동 668-3번지 브릭스타워 8층","indutype":"보건위생 - 미용원","category":"beauty"},{"name":"스타일안경","tel":"031-569-0001","addr":"경기도 남양주시 다산동 668-3번지 외1필지브릭스타워 104호","indutype":"보건위생 - 안경","category":"beauty"},{"name":"심리치료와상담소","tel":"031-555-1275","addr":"경기도 남양주시 다산동 668-3번지 브릭스타워 4층 402호","indutype":"보건위생 - 기타대인서비스","category":"beauty"},{"name":"허그맘","tel":"031-554-1023","addr":"경기도 남양주시 다산동 668-3번지 브릭스타워 510호, 511호","indutype":"보건위생 - 기타대인서비스","category":"beauty"}]},{"lat":"37.611591805","long":"127.16020684","imageIndex":13,"items":[{"name":"21C 헤어라인","tel":"031-555-2545","addr":"경기도 남양주시 다산동 4002-1번지 부영상가 601동 3층 311","indutype":"보건위생 - 미용원","category":"beauty"},{"name":"아모레카운셀러","tel":"031-593-3292","addr":"경기도 남양주시 다산동 4002-1번지 부영그린타운 512동 1704호","indutype":"보건위생 - 화장품","category":"beauty"},{"name":"웰빙앤스파","tel":"031-556-7006","addr":"경기도 남양주시 다산동 4002-1번지 부영그린타운 510동 104호","indutype":"보건위생 - 피부미용실","category":"beauty"},{"name":"폼폼 에스테닉","tel":"","addr":"경기도 남양주시 다산동 4002-1번지 부영그린타운 110동 501호","indutype":"보건위생 - 화장품","category":"beauty"},{"name":"행복스킨케어","tel":"031-558-6777","addr":"경기도 남양주시 다산동 4002-1번지 부영그린타운 303동 103호","indutype":"보건위생 - 화장품","category":"beauty"}]},{"lat":"37.601172198","long":"127.15665179","imageIndex":13,"items":[{"name":"Dr.","tel":"031-555-5640","addr":"경기도 남양주시 다산동 676-1번지 주공프라자 107호","indutype":"보건위생 - 화장품","category":"beauty"},{"name":"나 이은영의 헤어부티크","tel":"031-565-1404","addr":"경기도 남양주시 다산동 676-1번지 주공프라자 102호","indutype":"보건위생 - 미용원","category":"beauty"},{"name":"자이모구리점(Ximo)","tel":"031-565-2345","addr":"경기도 남양주시 다산동 676-1번지 주공프라자 1층 107호","indutype":"보건위생 - 미용재료","category":"beauty"}]},{"lat":"37.628112184","long":"127.15600492","imageIndex":13,"items":[{"name":"J헤어","tel":"031-552-7760","addr":"경기도 남양주시 다산동 6030번지 다산노블레스 2층 207호","indutype":"보건위생 - 미용원","category":"beauty"},{"name":"나이스가이(다산점)","tel":"031-567-7114","addr":"경기도 남양주시 다산동 6030번지 다산노블레스 1층 109호","indutype":"보건위생 - 미용원","category":"beauty"},{"name":"다산이화언어심리연구소","tel":"","addr":"경기도 남양주시 다산동 6030번지 다산진건지구 근생1-1-1 3층 301호","indutype":"보건위생 - 기타대인서비스","category":"beauty"},{"name":"벤자롱스파(남양주점)","tel":"031-564-0201","addr":"경기도 남양주시 다산동 6030번지 다산노블레스 2층 201호","indutype":"보건위생 - 피부미용실","category":"beauty"},{"name":"뷰티유","tel":"","addr":"경기도 남양주시 다산동 6030번지 다산진건지구 근생1-1-1 206호","indutype":"보건위생 - 피부미용실","category":"beauty"},{"name":"후네일","tel":"031-556-4558","addr":"경기도 남양주시 다산동 6030번지 다산노블레스 2층 202호","indutype":"보건위생 - 피부미용실","category":"beauty"}]},{"lat":"37.608557629","long":"127.15861492","imageIndex":13,"items":[{"name":"OIC화장품 애시앙센터","tel":"","addr":"경기도 남양주시 다산동 4001-29번지 부영애시앙상가 사랑관동2층216-2호","indutype":"보건위생 - 화장품","category":"beauty"},{"name":"거너스헤어","tel":"031-510-9226","addr":"경기도 남양주시 다산동 4001-29번지 부영애시앙 1층 121호","indutype":"보건위생 - 미용원","category":"beauty"},{"name":"꽃눈썹","tel":"","addr":"경기도 남양주시 다산동 4001-29번지 부영애시앙 1층 113호","indutype":"보건위생 - 피부미용실","category":"beauty"},{"name":"더칼라","tel":"031-551-7177","addr":"경기도 남양주시 다산동 4001-29번지 부영애시앙 119호","indutype":"보건위생 - 미용원","category":"beauty"},{"name":"라보떼","tel":"031-556-1888","addr":"경기도 남양주시 다산동 4001-29번지 부영애시앙 사랑관 227호","indutype":"보건위생 - 화장품","category":"beauty"},{"name":"루다헤어","tel":"031-554-4812","addr":"경기도 남양주시 다산동 4001-29번지 부영애시앙 225-1호","indutype":"보건위생 - 미용원","category":"beauty"},{"name":"리본","tel":"031-553-7353","addr":"경기도 남양주시 다산동 4001-29번지 225호 부영애시앙 사랑관","indutype":"보건위생 - 화장품","category":"beauty"},{"name":"리엠엔스킨케어","tel":"070-7198-8563","addr":"경기도 남양주시 다산동 4001-29번지 부영애시앙 상가동 2층 217호 사림관","indutype":"보건위생 - 피부미용실","category":"beauty"},{"name":"릴렉스타임","tel":"031-556-8633","addr":"경기도 남양주시 다산동 4001-29번지 부영애시앙 상가사랑관 216호","indutype":"보건위생 - 피부미용실","category":"beauty"},{"name":"명작","tel":"031-565-5034","addr":"경기도 남양주시 다산동 4001-29번지 부영애시앙 사랑관 122호","indutype":"보건위생 - 화장품","category":"beauty"},{"name":"문네일(MOON NAIL)","tel":"","addr":"경기도 남양주시 다산동 4001-29번지 부영에시앙 220호","indutype":"보건위생 - 피부미용실","category":"beauty"},{"name":"바이서린","tel":"031-555-9063","addr":"경기도 남양주시 다산동 4001-29번지 부영애시앙상가동원앙관 143호","indutype":"보건위생 - 미용원","category":"beauty"},{"name":"보브헤어","tel":"031-568-1626","addr":"경기도 남양주시 다산동 4001-29번지 부영애시앙 121호","indutype":"보건위생 - 미용원","category":"beauty"},{"name":"뷰티팡","tel":"","addr":"경기도 남양주시 다산동 4001-29번지 부영애시앙 상가 2층 217-1호","indutype":"보건위생 - 화장품","category":"beauty"},{"name":"알렌느헤어","tel":"031-566-6690","addr":"경기도 남양주시 다산동 4001-29번지 부영에시앙상가사랑관 221호","indutype":"보건위생 - 미용원","category":"beauty"},{"name":"알즈너 가까운대리점","tel":"031-594-9091","addr":"경기도 남양주시 다산동 4001-29번지 부영애시앙 사랑관 1층 53호","indutype":"보건위생 - 의료용품","category":"beauty"},{"name":"애시앙안경원","tel":"031-567-0048","addr":"경기도 남양주시 다산동 4001-29번지 109호 부영애시앙원앙관","indutype":"보건위생 - 안경","category":"beauty"},{"name":"예랑헤어","tel":"031-567-3466","addr":"경기도 남양주시 다산동 4001-29번지 사랑관 152호","indutype":"보건위생 - 미용원","category":"beauty"},{"name":"오드리헵번","tel":"031-554-4939","addr":"경기도 남양주시 다산동 4001-29번지 부영애시앙원앙관 102호","indutype":"보건위생 - 미용원","category":"beauty"},{"name":"오렌지헤어","tel":"031-554-5655","addr":"경기도 남양주시 다산동 4001-29번지 부영에시앙 상가동 사랑관 210호","indutype":"보건위생 - 미용원","category":"beauty"},{"name":"욜로네일 (YOLO NaiL)","tel":"031-510-2228","addr":"경기도 남양주시 다산동 4001-29번지 상가 부영애시앙 2층 222호 사랑관","indutype":"보건위생 - 피부미용실","category":"beauty"},{"name":"퀸(Queen)","tel":"031-556-4565","addr":"경기도 남양주시 다산동 4001-29번지 부영애시앙 상가동 2층 224호","indutype":"보건위생 - 미용원","category":"beauty"},{"name":"퀸에스테틱","tel":"","addr":"경기도 남양주시 다산동 4001-29번지 부영애시앙 상가동 2층 사랑관 225-2호","indutype":"보건위생 - 피부미용실","category":"beauty"},{"name":"퀸즈네일","tel":"031-551-9080","addr":"경기도 남양주시 다산동 4001-29번지 상가동 사랑관 167호","indutype":"보건위생 - 피부미용실","category":"beauty"},{"name":"피부사랑","tel":"031-557-5007","addr":"경기도 남양주시 다산동 4001-29번지 부영애시앙 상가동 2층 216호","indutype":"보건위생 - 피부미용실","category":"beauty"},{"name":"헤어라떼","tel":"031-528-6263","addr":"경기도 남양주시 다산동 4001-29번지 부영애시앙 205-2호","indutype":"보건위생 - 미용원","category":"beauty"}]},{"lat":"37.60903512","long":"127.15165087","imageIndex":13,"items":[{"name":"가인미용상사","tel":"031-571-0642","addr":"경기도 남양주시 다산동 4306-33번지","indutype":"보건위생 - 미용재료","category":"beauty"}]},{"lat":"37.608638734","long":"127.15161611","imageIndex":13,"items":[{"name":"고헤나","tel":"031-575-0600","addr":"경기도 남양주시 다산동 4306-38번지 1층","indutype":"보건위생 - 미용원","category":"beauty"}]},{"lat":"37.604278944","long":"127.15789256","imageIndex":13,"items":[{"name":"그레이스헤어","tel":"031-562-8846","addr":"경기도 남양주시 다산동 666-1번지 아인스빌 1층 108호","indutype":"보건위생 - 미용원","category":"beauty"},{"name":"사십일 네일스튜디오 (41 NAIL STUDIO)","tel":"","addr":"경기도 남양주시 다산동 666-1번지 아인스빌 1층 101호 일부호","indutype":"보건위생 - 미용원","category":"beauty"}]},{"lat":"37.608361851","long":"127.15675719","imageIndex":13,"items":[{"name":"글라스박스안경","tel":"031-569-8872","addr":"경기도 남양주시 다산동 4065번지 부영프라자 132호","indutype":"보건위생 - 안경","category":"beauty"},{"name":"로이드밤 도농역점","tel":"031-592-6933","addr":"경기도 남양주시 다산동 4065번지 부영프라자 3층 302호","indutype":"보건위생 - 미용원","category":"beauty"},{"name":"수스킨케어","tel":"031-515-9150","addr":"경기도 남양주시 다산동 4065번지 부영프라자212호(1/2부분)","indutype":"보건위생 - 화장품","category":"beauty"},{"name":"이리로네일","tel":"031-551-1912","addr":"경기도 남양주시 다산동 4065번지 부영프라자 3층 308일부호","indutype":"보건위생 - 피부미용실","category":"beauty"},{"name":"제이펌하우스","tel":"031-557-7554","addr":"경기도 남양주시 다산동 4065번지 부영프라자 204호","indutype":"보건위생 - 미용원","category":"beauty"}]},{"lat":"37.620999382","long":"127.15915059","imageIndex":13,"items":[{"name":"김송정머리터","tel":"070-8945-3313","addr":"경기도 남양주시 다산동 6101-4번지 다산진건지구 F2-6-5 103호","indutype":"보건위생 - 미용원","category":"beauty"}]},{"lat":"37.608889603","long":"127.15272648","imageIndex":13,"items":[{"name":"김현헤어뉴스","tel":"031-555-3199","addr":"경기도 남양주시 다산동 4299-18번지","indutype":"보건위생 - 미용원","category":"beauty"},{"name":"뷰티바디라인","tel":"031-556-0667","addr":"경기도 남양주시 다산동 4299-18번지 1층","indutype":"보건위생 - 화장품","category":"beauty"}]},{"lat":"37.625113416","long":"127.154866","imageIndex":13,"items":[{"name":"꿈자람언어심리상담센터","tel":"031-569-3434","addr":"경기도 남양주시 다산동 6054-3번지 파크뷰타워 6층 604호","indutype":"보건위생 - 기타대인서비스","category":"beauty"}]},{"lat":"37.600446399","long":"127.1734211","imageIndex":13,"items":[{"name":"끌레살롱 (Cle Salon)","tel":"","addr":"경기도 남양주시 다산동 6217-5번지 다산지금지구 근생7-5 203호","indutype":"보건위생 - 미용원","category":"beauty"}]},{"lat":"37.60944901","long":"127.15209339","imageIndex":13,"items":[{"name":"끼순이머리이야기","tel":"031-552-0771","addr":"경기도 남양주시 다산동 4302-11번지","indutype":"보건위생 - 미용원","category":"beauty"}]},{"lat":"37.604341238","long":"127.15848156","imageIndex":13,"items":[{"name":"나이스메드","tel":"031-564-8568","addr":"경기도 남양주시 다산동 666-3번지 드림프라자 504호","indutype":"보건위생 - 의료용품","category":"beauty"},{"name":"리라뷰티","tel":"031-562-2204","addr":"경기도 남양주시 다산동 666-3번지 드림프라자 306호","indutype":"보건위생 - 피부미용실","category":"beauty"},{"name":"살롱드한나","tel":"031-528-6263","addr":"경기도 남양주시 다산동 666-3번지 드림프라자 104호","indutype":"보건위생 - 미용원","category":"beauty"},{"name":"쿤타이","tel":"031-552-3399","addr":"경기도 남양주시 다산동 666-3번지 드림프라자 701호,702호","indutype":"보건위생 - 화장품","category":"beauty"}]},{"lat":"37.59828335","long":"127.1609828","imageIndex":13,"items":[{"name":"내담헤어","tel":"031-556-8838","addr":"경기도 남양주시 다산동 685-1번지 미성프라자 104호","indutype":"보건위생 - 미용원","category":"beauty"}]},{"lat":"37.627114677","long":"127.15400914","imageIndex":13,"items":[{"name":"네일더(the)이쁨","tel":"031-111-1111","addr":"경기도 남양주시 다산동 6029번지 다산자연앤롯데캐슬 상가동 2층 203호","indutype":"보건위생 - 피부미용실","category":"beauty"},{"name":"렌느제이 (하남미사구리)","tel":"","addr":"경기도 남양주시 다산동 6029번지 다산자연앤롯데캐슬 2202동 701호","indutype":"보건위생 - 기타대인서비스","category":"beauty"},{"name":"카라헤어","tel":"031-569-3633","addr":"경기도 남양주시 다산동 6029번지 다산자연앤롯데캐슬 202호","indutype":"보건위생 - 미용원","category":"beauty"},{"name":"헤어보브","tel":"","addr":"경기도 남양주시 다산동 6029번지 다산자연앤롯데캐슬 2208동 305호","indutype":"보건위생 - 미용재료","category":"beauty"}]},{"lat":"37.609808308","long":"127.15295483","imageIndex":13,"items":[{"name":"노랑머리(미용실)","tel":"031-563-1082","addr":"경기도 남양주시 다산동 4298-8번지","indutype":"보건위생 - 미용원","category":"beauty"}]},{"lat":"37.601726191","long":"127.17314092","imageIndex":13,"items":[{"name":"노블레스헤어","tel":"","addr":"경기도 남양주시 다산동 6218-5번지 다산지금지구F3-1-6 101호일부","indutype":"보건위생 - 미용원","category":"beauty"}]},{"lat":"37.622256329","long":"127.15564176","imageIndex":13,"items":[{"name":"다됨","tel":"070-8945-3313","addr":"경기도 남양주시 다산동 6091번지 다산자연앤e편한세상근린생활시설 2층 204호","indutype":"보건위생 - 피부미용실","category":"beauty"},{"name":"라 보니타(La Bonita)","tel":"031-555-6082","addr":"경기도 남양주시 다산동 6091번지 다산자연앤 e편한세상 근린생활시설 2층 203호","indutype":"보건위생 - 미용원","category":"beauty"},{"name":"태후사랑","tel":"","addr":"경기도 남양주시 다산동 6091번지 다산진건지구 B104호","indutype":"보건위생 - 화장품","category":"beauty"}]},{"lat":"37.62453147","long":"127.15197627","imageIndex":13,"items":[{"name":"다비치안경 다산점","tel":"031-562-1357","addr":"경기도 남양주시 다산동 6060-4번지 105,202,203호","indutype":"보건위생 - 안경","category":"beauty"},{"name":"진헤어(JINHAIR)","tel":"031-553-7009","addr":"경기도 남양주시 다산동 6060-4번지 맥스타워 2층 204호","indutype":"보건위생 - 미용원","category":"beauty"}]},{"lat":"37.623306878","long":"127.15139612","imageIndex":13,"items":[{"name":"다빈헤어(DAVIN HAIR)","tel":"031-552-1189","addr":"경기도 남양주시 다산동 6085번지 다산역리더스타워 3층 305호","indutype":"보건위생 - 미용원","category":"beauty"},{"name":"엘토탈뷰티","tel":"031-111-1111","addr":"경기도 남양주시 다산동 6085번지 다산역리더스타워 5층 502호","indutype":"보건위생 - 피부미용실","category":"beauty"}]},{"lat":"37.622835833","long":"127.15340013","imageIndex":13,"items":[{"name":"다산 메디칼 보청기","tel":"","addr":"경기도 남양주시 다산동 6089-3번지 다산진건지구 업무1-4 3층 304호","indutype":"보건위생 - 의료용품","category":"beauty"},{"name":"수련헤어","tel":"","addr":"경기도 남양주시 다산동 6089-3번지 2층 207-1호","indutype":"보건위생 - 미용원","category":"beauty"}]},{"lat":"37.625112832","long":"127.1553191","imageIndex":13,"items":[{"name":"다산피부관리","tel":"031-568-4480","addr":"경기도 남양주시 다산동 6053-2번지 다산푸리마타워 306호","indutype":"보건위생 - 피부미용실","category":"beauty"},{"name":"미용가게","tel":"031-516-1717","addr":"경기도 남양주시 다산동 6053-2번지 다산진건지구 상업2-7-3 7층 706호","indutype":"보건위생 - 미용재료","category":"beauty"},{"name":"헤어룸#356","tel":"","addr":"경기도 남양주시 다산동 6053-2번지 푸리마타워 주건축물 제1동 3층 305호","indutype":"보건위생 - 미용원","category":"beauty"}]},{"lat":"37.621421798","long":"127.15301215","imageIndex":13,"items":[{"name":"다산헤어카페","tel":"031-557-2333","addr":"경기도 남양주시 다산동 6090번지 다산유승한내들센트럴 301동 103호","indutype":"보건위생 - 미용원","category":"beauty"}]},{"lat":"37.622865117","long":"127.15162179","imageIndex":13,"items":[{"name":"다인향스킨테라피","tel":"","addr":"경기도 남양주시 다산동 6085-2번지 신해센트럴타워 615호","indutype":"보건위생 - 피부미용실","category":"beauty"},{"name":"라벨에이치헤어살롱","tel":"031-522-5889","addr":"경기도 남양주시 다산동 6085-2번지 신해센트럴타워 2층 213호","indutype":"보건위생 - 미용원","category":"beauty"},{"name":"오늘헤어디자인","tel":"031-111-1111","addr":"경기도 남양주시 다산동 6085-2번지 신해센트럴타워 2층 212호","indutype":"보건위생 - 미용원","category":"beauty"},{"name":"올가드림뷰티","tel":"031-553-2299","addr":"경기도 남양주시 다산동 6085-2번지 신해센트럴타워 614호","indutype":"보건위생 - 피부미용실","category":"beauty"}]},{"lat":"37.621368164","long":"127.15961577","imageIndex":13,"items":[{"name":"달아살롱","tel":"031-566-8111","addr":"경기도 남양주시 다산동 6102번지 1층 일부","indutype":"보건위생 - 미용원","category":"beauty"}]},{"lat":"37.622638325","long":"127.15284469","imageIndex":13,"items":[{"name":"더봄언어심리발달센터","tel":"031-556-2228","addr":"경기도 남양주시 다산동 6088-3번지 6층 6호","indutype":"보건위생 - 기타대인서비스","category":"beauty"}]},{"lat":"37.600369755","long":"127.15709177","imageIndex":13,"items":[{"name":"더제이헤어샵","tel":"031-555-0883","addr":"경기도 남양주시 다산동 676-6번지 금산프라자 103호","indutype":"보건위생 - 미용원","category":"beauty"},{"name":"슈미트헬스코리아(유)","tel":"02-6080-0235","addr":"경기도 남양주시 다산동 676-6번지 금산프라자 4층 402-1호","indutype":"보건위생 - 의료용품","category":"beauty"}]},{"lat":"37.602894544","long":"127.15551157","imageIndex":13,"items":[{"name":"도진헤어","tel":"031-566-8887","addr":"경기도 남양주시 다산동 669번지 휴먼시아 상가 103호","indutype":"보건위생 - 미용원","category":"beauty"},{"name":"샤프헤어","tel":"031-556-7009","addr":"경기도 남양주시 다산동 669휴먼시아상가204","indutype":"보건위생 - 미용원","category":"beauty"},{"name":"인천공항콜대리운전","tel":"031-559-4288","addr":"경기도 남양주시 다산동 669번지 남양주가운마을휴먼시아1단지 103동 708호","indutype":"보건위생 - 기타대인서비스","category":"beauty"}]},{"lat":"37.607389875","long":"127.15592846","imageIndex":13,"items":[{"name":"드림헤어샵","tel":"031-553-0141","addr":"경기도 남양주시 다산동 4036-74번지","indutype":"보건위생 - 미용원","category":"beauty"}]},{"lat":"37.605974006","long":"127.15695612","imageIndex":13,"items":[{"name":"레오헤어","tel":"031-551-3182","addr":"경기도 남양주시 다산동 4116-9번지 1층","indutype":"보건위생 - 미용원","category":"beauty"}]},{"lat":"37.609813537","long":"127.15589945","imageIndex":13,"items":[{"name":"루나헤어","tel":"031-567-2622","addr":"경기도 남양주시 다산동 4025-17번지 2층 201호","indutype":"보건위생 - 미용원","category":"beauty"}]},{"lat":"37.623585551","long":"127.15189508","imageIndex":13,"items":[{"name":"르뽀렘네일","tel":"","addr":"경기도 남양주시 다산동 6086번지 제이타워 3층 305호","indutype":"보건위생 - 피부미용실","category":"beauty"},{"name":"리안헤어 (다산역점)","tel":"031-558-7574","addr":"경기도 남양주시 다산동 6086번지 201호","indutype":"보건위생 - 미용원","category":"beauty"},{"name":"블루클럽 다산역점","tel":"031-555-5333","addr":"경기도 남양주시 다산동 6086번지 제이타워 105호","indutype":"보건위생 - 미용원","category":"beauty"},{"name":"헤어바이심쌤","tel":"070-8945-3313","addr":"경기도 남양주시 다산동 6086번지 제이타워 2층 205호","indutype":"보건위생 - 미용원","category":"beauty"}]},{"lat":"37.608530303","long":"127.15186505","imageIndex":13,"items":[{"name":"리리헤어","tel":"031-556-2995","addr":"경기도 남양주시 다산동 4306-41번지","indutype":"보건위생 - 미용원","category":"beauty"}]},{"lat":"37.607583852","long":"127.15220291","imageIndex":13,"items":[{"name":"리앙헤어샵","tel":"02-1599-3347","addr":"경기도 남양주시 다산동 4303-1번지 1층","indutype":"보건위생 - 미용원","category":"beauty"}]},{"lat":"37.625726222","long":"127.15475397","imageIndex":13,"items":[{"name":"리치뉴헤어","tel":"031-557-5758","addr":"경기도 남양주시 다산동 6055-3번지 가하프라자 203호","indutype":"보건위생 - 미용원","category":"beauty"},{"name":"살롱드크라운","tel":"031-557-5933","addr":"경기도 남양주시 다산동 6055-3번지 가하프라자 2층 201호","indutype":"보건위생 - 미용원","category":"beauty"}]},{"lat":"37.609339599","long":"127.16003222","imageIndex":13,"items":[{"name":"린스킨 좌훈센터","tel":"","addr":"경기도 남양주시 다산동 4001-10번지 부영그린타운 상가동 3층 301호","indutype":"보건위생 - 피부미용실","category":"beauty"},{"name":"사미숙헤어샵","tel":"031-556-1102","addr":"경기도 남양주시 다산동 4001-10번지 부영주상가 3층 309호","indutype":"보건위생 - 미용원","category":"beauty"}]},{"lat":"37.629700505","long":"127.15398039","imageIndex":13,"items":[{"name":"마음더하기 아동발달센터","tel":"","addr":"경기도 남양주시 다산동 6014번지 다산반도유보라메이플타운 2106동 301호","indutype":"보건위생 - 기타대인서비스","category":"beauty"},{"name":"마이래쉬","tel":"","addr":"경기도 남양주시 다산동 6014번지 다산반도유보라메이플타운 2101동 404호","indutype":"보건위생 - 미용재료","category":"beauty"},{"name":"청담 헤어스토리","tel":"031-575-0404","addr":"경기도 남양주시 다산동 6014번지 다산반도유보라메이플타운 상가동 103호","indutype":"보건위생 - 미용원","category":"beauty"}]},{"lat":"37.608947007","long":"127.16387066","imageIndex":13,"items":[{"name":"마임남양주도농지사","tel":"031-556-8229","addr":"경기도 남양주시 다산동 3129-60번지","indutype":"보건위생 - 화장품","category":"beauty"}]},{"lat":"37.608944465","long":"127.15209238","imageIndex":13,"items":[{"name":"멋진남자","tel":"031-553-0131","addr":"경기도 남양주시 다산동 4302-19번지 1층","indutype":"보건위생 - 미용원","category":"beauty"}]},{"lat":"37.604560347","long":"127.15628505","imageIndex":13,"items":[{"name":"모두케어","tel":"031-569-2999","addr":"경기도 남양주시 다산동 667-1번지 수미소빌딩 5층 504호","indutype":"보건위생 - 의료용품","category":"beauty"},{"name":"유엔지헤어","tel":"031-553-5055","addr":"경기도 남양주시 다산동 667-1번지 수미소빌딩 204호","indutype":"보건위생 - 미용원","category":"beauty"}]},{"lat":"37.608338024","long":"127.16773123","imageIndex":13,"items":[{"name":"미모헤어","tel":"031-555-5999","addr":"경기도 남양주시 다산동 3085-51번지","indutype":"보건위생 - 미용원","category":"beauty"}]},{"lat":"37.609061978","long":"127.15178683","imageIndex":13,"items":[{"name":"미시박머리마당","tel":"031-553-1002","addr":"경기도 남양주시 다산동 4306-48번지","indutype":"보건위생 - 미용원","category":"beauty"}]},{"lat":"37.609861703","long":"127.15347591","imageIndex":13,"items":[{"name":"민헤어","tel":"031-564-5941","addr":"경기도 남양주시 다산동 4027-16번지","indutype":"보건위생 - 미용원","category":"beauty"}]},{"lat":"37.600613195","long":"127.15695638","imageIndex":13,"items":[{"name":"바르다네일","tel":"031-567-2204","addr":"경기도 남양주시 다산동 676-4번지 메티스프라자 103호","indutype":"보건위생 - 피부미용실","category":"beauty"}]},{"lat":"37.600147864","long":"127.17425839","imageIndex":13,"items":[{"name":"바른안경","tel":"031-563-7258","addr":"경기도 남양주시 다산동 6216-6번지 1층","indutype":"보건위생 - 안경","category":"beauty"}]},{"lat":"37.613391748","long":"127.16170566","imageIndex":13,"items":[{"name":"바이진헤어살롱(by Jin Hair Salon)","tel":"031-565-2030","addr":"경기도 남양주시 다산동 4002-32번지 분산상가동 부영그린타운 1층 103호","indutype":"보건위생 - 미용원","category":"beauty"}]},{"lat":"37.608227207","long":"127.15637185","imageIndex":13,"items":[{"name":"박미자헤어","tel":"031-565-5585","addr":"경기도 남양주시 다산동 4044-7번지 1층","indutype":"보건위생 - 미용원","category":"beauty"}]},{"lat":"37.610007298","long":"127.15234366","imageIndex":13,"items":[{"name":"벨라헤어아트","tel":"031-551-6710","addr":"경기도 남양주시 다산동 4338-31번지 서광빌딩 1층","indutype":"보건위생 - 이용원","category":"beauty"}]},{"lat":"37.625367686","long":"127.14606485","imageIndex":13,"items":[{"name":"보보헤어","tel":"070-8945-3313","addr":"경기도 남양주시 다산동 6024번지 다산한양수자인리버팰리스 123동 2층 203호","indutype":"보건위생 - 미용원","category":"beauty"}]},{"lat":"37.598286496","long":"127.15861616","imageIndex":13,"items":[{"name":"뷰컴퍼니","tel":"070-4222-6620","addr":"경기도 남양주시 다산동 682번지 남양주가운마을휴먼시아6단지 602동 1002호","indutype":"보건위생 - 미용재료","category":"beauty"}]},{"lat":"37.611560183","long":"127.1636158","imageIndex":13,"items":[{"name":"뷰티지아나(Beauty Giana)","tel":"02-562-9239","addr":"경기도 남양주시 다산동 4002-39번지 부영그린타운 상가 105호","indutype":"보건위생 - 화장품","category":"beauty"},{"name":"홍헤어살롱","tel":"031-557-7890","addr":"경기도 남양주시 다산동 4002-39번지 부영그린타운 103호","indutype":"보건위생 - 미용원","category":"beauty"}]},{"lat":"37.620141266","long":"127.14670046","imageIndex":13,"items":[{"name":"뷰티크 살롱","tel":"031-553-7772","addr":"경기도 남양주시 다산동 6075번지 다산한양수자인리버파크 115동 1층 2호","indutype":"보건위생 - 미용원","category":"beauty"}]},{"lat":"37.626948989","long":"127.15672752","imageIndex":13,"items":[{"name":"블랑","tel":"031-522-6003","addr":"경기도 남양주시 다산동 6031번지 다산아이파크 상가동 207호","indutype":"보건위생 - 화장품","category":"beauty"},{"name":"쁨헤어","tel":"070-8260-3322","addr":"경기도 남양주시 다산동 6031번지 C3블럭 다산신도시아이파크단지 상가 202호","indutype":"보건위생 - 미용원","category":"beauty"},{"name":"새로미","tel":"","addr":"경기도 남양주시 다산동 6031번지 다산아이파크 상가 203호","indutype":"보건위생 - 피부미용실","category":"beauty"}]},{"lat":"37.615254529","long":"127.15659017","imageIndex":13,"items":[{"name":"블루컷트","tel":"031-557-2090","addr":"경기도 남양주시 다산동 6156번지 다산진건지구 F3-3-1 1층 101호","indutype":"보건위생 - 미용원","category":"beauty"}]},{"lat":"37.606505772","long":"127.15680999","imageIndex":13,"items":[{"name":"블루클럽","tel":"031-564-5770","addr":"경기도 남양주시 다산동 4046-6번지 102호","indutype":"보건위생 - 미용원","category":"beauty"},{"name":"한민정헤어","tel":"031-563-5855","addr":"경기도 남양주시 다산동 4046-6번지 윙스빌딩 202호","indutype":"보건위생 - 미용원","category":"beauty"}]},{"lat":"37.625528009","long":"127.15475356","imageIndex":13,"items":[{"name":"비리야 에스테틱","tel":"031-563-9245","addr":"경기도 남양주시 다산동 6055-4번지 마운틴프라자 503호","indutype":"보건위생 - 피부미용실","category":"beauty"}]},{"lat":"37.628111742","long":"127.15634476","imageIndex":13,"items":[{"name":"비오비 (B.O.B 헤어)","tel":"","addr":"경기도 남양주시 다산동 6030-1번지 근린생활시설용지 1-1-3블럭 성산플레이스I 202호","indutype":"보건위생 - 미용원","category":"beauty"}]},{"lat":"37.605695221","long":"127.15655917","imageIndex":13,"items":[{"name":"빠세빠세안경클럽","tel":"031-551-8383","addr":"경기도 남양주시 다산동 4117-28번지","indutype":"보건위생 - 안경","category":"beauty"}]},{"lat":"37.611279892","long":"127.16434004","imageIndex":13,"items":[{"name":"살롱드MAY","tel":"031-567-3833","addr":"경기도 남양주시 다산동 3198-21번지 다산지금지구 근생4-1 2층 205호","indutype":"보건위생 - 미용원","category":"beauty"}]},{"lat":"37.612143754","long":"127.16512338","imageIndex":13,"items":[{"name":"살롱루크","tel":"031-565-9287","addr":"경기도 남양주시 다산동 6170-1번지 1층 일부 101호","indutype":"보건위생 - 미용원","category":"beauty"}]},{"lat":"37.607479443","long":"127.15633634","imageIndex":13,"items":[{"name":"선우미용상사","tel":"031-528-6263","addr":"경기도 남양주시 다산동 4045-13번지 1층 1호","indutype":"보건위생 - 미용재료","category":"beauty"}]},{"lat":"37.607282944","long":"127.15501091","imageIndex":13,"items":[{"name":"센스미용실","tel":"031-567-2200","addr":"경기도 남양주시 다산동 4036-53번지 지하1층","indutype":"보건위생 - 미용원","category":"beauty"}]},{"lat":"37.621638861","long":"127.15931051","imageIndex":13,"items":[{"name":"수인헤어","tel":"031-111-1111","addr":"경기도 남양주시 다산동 6096-2번지 다산진건지구 F2-2-3 102호","indutype":"보건위생 - 미용원","category":"beauty"}]},{"lat":"37.598981275","long":"127.15783627","imageIndex":13,"items":[{"name":"수헤어","tel":"031-552-5883","addr":"경기도 남양주시 다산동 680번지 B&M주차빌딩 105호","indutype":"보건위생 - 미용원","category":"beauty"}]},{"lat":"37.625698478","long":"127.15530897","imageIndex":13,"items":[{"name":"순헤어","tel":"031-111-1111","addr":"경기도 남양주시 다산동 6053번지 KB골든타워 125호","indutype":"보건위생 - 미용원","category":"beauty"},{"name":"올거드림뷰티 다산순환로점","tel":"031-510-4916","addr":"경기도 남양주시 다산동 6053번지 다산진건지구 상업2-7-1,2 610호","indutype":"보건위생 - 피부미용실","category":"beauty"},{"name":"일공공일 안경콘택트","tel":"031-566-4644","addr":"경기도 남양주시 다산동 6053번지 109호 다산진건지구상업 2-7-1,2","indutype":"보건위생 - 안경","category":"beauty"},{"name":"일런헤어","tel":"031-555-1711","addr":"경기도 남양주시 다산동 6053번지 KB골든타워 205호","indutype":"보건위생 - 미용원","category":"beauty"}]},{"lat":"37.610058917","long":"127.15425776","imageIndex":13,"items":[{"name":"스타일여우","tel":"031-553-7535","addr":"경기도 남양주시 다산동 4026-4번지 1층","indutype":"보건위생 - 미용원","category":"beauty"}]},{"lat":"37.622422911","long":"127.1521986","imageIndex":13,"items":[{"name":"스텔라네일","tel":"031-553-4153","addr":"경기도 남양주시 다산동 6088-1번지 웅신미켈란의아침 1동 2층 207호","indutype":"보건위생 - 피부미용실","category":"beauty"}]},{"lat":"37.608395114","long":"127.15189875","imageIndex":13,"items":[{"name":"신데렐라화장품","tel":"031-569-9960","addr":"경기도 남양주시 다산동 4306-47번지","indutype":"보건위생 - 화장품","category":"beauty"}]},{"lat":"37.622945159","long":"127.15244885","imageIndex":13,"items":[{"name":"썬 네일(Sun Nail)","tel":"031-555-8577","addr":"경기도 남양주시 다산동 6087-3번지 다산퍼스트타워 1층 120호","indutype":"보건위생 - 피부미용실","category":"beauty"},{"name":"토리헤어 다산신도시점","tel":"","addr":"경기도 남양주시 다산동 6087-3번지 302호","indutype":"보건위생 - 미용원","category":"beauty"}]},{"lat":"37.622116556","long":"127.15917558","imageIndex":13,"items":[{"name":"씨안나헤어(C.ANNA HAIR)","tel":"031-552-9909","addr":"경기도 남양주시 다산동 6095번지 1층 일부호","indutype":"보건위생 - 미용원","category":"beauty"}]},{"lat":"37.605282286","long":"127.15539188","imageIndex":13,"items":[{"name":"아모레","tel":"02-2617-2475","addr":"경기도 남양주시 다산동 4118-1번지","indutype":"보건위생 - 화장품","category":"beauty"},{"name":"아모레","tel":"031-565-0391","addr":"경기도 남양주시 다산동 4118-1번지 한빛빌딩 4층","indutype":"보건위생 - 화장품","category":"beauty"},{"name":"아모레","tel":"031-565-0391","addr":"경기도 남양주시 다산동 4118-1번지 한빛빌딩 4층","indutype":"보건위생 - 화장품","category":"beauty"},{"name":"아모레","tel":"031-565-0391","addr":"경기도 남양주시 다산동 4118-1번지 한빛빌딩 4층","indutype":"보건위생 - 화장품","category":"beauty"},{"name":"아모레","tel":"031-565-0391","addr":"경기도 남양주시 다산동 4118-1번지 한빛빌딩 4층","indutype":"보건위생 - 화장품","category":"beauty"},{"name":"아모레","tel":"031-565-0391","addr":"경기도 남양주시 다산동 4118-1번지 한빛빌딩 4층","indutype":"보건위생 - 화장품","category":"beauty"},{"name":"아모레","tel":"031-565-0391","addr":"경기도 남양주시 다산동 4118-1번지 한빛빌딩 4층","indutype":"보건위생 - 화장품","category":"beauty"},{"name":"아모레","tel":"031-565-0391","addr":"경기도 남양주시 다산동 4118-1번지 한빛빌딩 4층","indutype":"보건위생 - 화장품","category":"beauty"},{"name":"아모레","tel":"031-565-0391","addr":"경기도 남양주시 다산동 4118-1번지 한빛빌딩 4층","indutype":"보건위생 - 화장품","category":"beauty"},{"name":"아모레","tel":"031-565-0391","addr":"경기도 남양주시 다산동 4118-1번지 한빛빌딩 4층","indutype":"보건위생 - 화장품","category":"beauty"},{"name":"아모레","tel":"031-565-0391","addr":"경기도 남양주시 다산동 4118-1번지","indutype":"보건위생 - 화장품","category":"beauty"},{"name":"아모레","tel":"031-565-0391","addr":"경기도 남양주시 다산동 4118-1번지 한빛빌딩 4층","indutype":"보건위생 - 화장품","category":"beauty"},{"name":"아모레","tel":"031-565-0391","addr":"경기도 남양주시 다산동 4118-1번지","indutype":"보건위생 - 화장품","category":"beauty"},{"name":"아모레","tel":"031-565-0391","addr":"경기도 남양주시 다산동 4118-1번지 한빛빌딩","indutype":"보건위생 - 화장품","category":"beauty"},{"name":"아모레","tel":"031-565-0391","addr":"경기도 남양주시 다산동 4118-1번지 한빛빌딩 4층","indutype":"보건위생 - 화장품","category":"beauty"},{"name":"아모레","tel":"031-565-1391","addr":"경기도 남양주시 다산동 4118-1번지 한빛빌딩 4층","indutype":"보건위생 - 화장품","category":"beauty"},{"name":"아모레","tel":"031-565-1391","addr":"경기도 남양주시 다산동 4118-1번지 한빛빌딩 4층","indutype":"보건위생 - 화장품","category":"beauty"},{"name":"아모레","tel":"031-565-0391","addr":"경기도 남양주시 다산동 4118-1번지 한빛빌딩 4층","indutype":"보건위생 - 화장품","category":"beauty"},{"name":"아모레","tel":"031-565-0391","addr":"경기도 남양주시 다산동 4118-1번지 4층","indutype":"보건위생 - 화장품","category":"beauty"},{"name":"아모레","tel":"031-565-0391","addr":"경기도 남양주시 다산동 4118-1번지 한빛빌딩 4층","indutype":"보건위생 - 화장품","category":"beauty"},{"name":"아모레","tel":"031-565-0391","addr":"경기도 남양주시 다산동 4118-1번지","indutype":"보건위생 - 화장품","category":"beauty"},{"name":"아모레","tel":"031-565-0391","addr":"경기도 남양주시 다산동 4118-1번지 한빛빌딩 4층","indutype":"보건위생 - 화장품","category":"beauty"},{"name":"아모레","tel":"031-565-0391","addr":"경기도 남양주시 다산동 4118-1번지","indutype":"보건위생 - 화장품","category":"beauty"},{"name":"아모레","tel":"031-565-0391","addr":"경기도 남양주시 다산동 4118-1번지 한빛빌딩 4층","indutype":"보건위생 - 화장품","category":"beauty"},{"name":"아모레","tel":"031-565-0391","addr":"경기도 남양주시 다산동 4118-1번지 한빛빌딩 4층","indutype":"보건위생 - 화장품","category":"beauty"},{"name":"아모레","tel":"031-565-0391","addr":"경기도 남양주시 다산동 4118-1번지 한빛빌딩 4층","indutype":"보건위생 - 화장품","category":"beauty"},{"name":"아모레","tel":"031-565-0391","addr":"경기도 남양주시 다산동 4118-1번지 한빛빌딩 4층","indutype":"보건위생 - 화장품","category":"beauty"},{"name":"아모레","tel":"031-565-0391","addr":"경기도 남양주시 다산동 4118-1번지 한빛빌딩 4층","indutype":"보건위생 - 화장품","category":"beauty"},{"name":"아모레","tel":"031-565-0391","addr":"경기도 남양주시 다산동 4118-1번지 한빛빌딩 4층","indutype":"보건위생 - 화장품","category":"beauty"},{"name":"아모레","tel":"031-565-0391","addr":"경기도 남양주시 다산동 4118-1번지 한빛빌딩 4층","indutype":"보건위생 - 화장품","category":"beauty"},{"name":"아모레","tel":"031-565-0391","addr":"경기도 남양주시 다산동 4118-1번지 한빛빌딩 4층","indutype":"보건위생 - 화장품","category":"beauty"},{"name":"아모레","tel":"031-565-0391","addr":"경기도 남양주시 다산동 4118-1번지 한빛빌딩 4층","indutype":"보건위생 - 화장품","category":"beauty"},{"name":"아모레","tel":"031-565-0391","addr":"경기도 남양주시 다산동 4118-1번지 한빛빌딩 4층","indutype":"보건위생 - 화장품","category":"beauty"},{"name":"아모레","tel":"031-565-0391","addr":"경기도 남양주시 다산동 4118-1번지 한빛빌딩 4층","indutype":"보건위생 - 화장품","category":"beauty"},{"name":"아모레","tel":"031-565-0391","addr":"경기도 남양주시 다산동 4118-1번지 한빛빌딩 4층","indutype":"보건위생 - 화장품","category":"beauty"},{"name":"아모레","tel":"031-565-0391","addr":"경기도 남양주시 다산동 4118-1번지 한빛빌딩 4층","indutype":"보건위생 - 화장품","category":"beauty"},{"name":"아모레","tel":"031-565-0391","addr":"경기도 남양주시 다산동 4118-1번지 한빛빌딩 4층","indutype":"보건위생 - 화장품","category":"beauty"},{"name":"아모레","tel":"031-565-0391","addr":"경기도 남양주시 다산동 4118-1번지 한빛빌딩 4층","indutype":"보건위생 - 화장품","category":"beauty"},{"name":"아모레","tel":"031-565-0391","addr":"경기도 남양주시 다산동 4118-1번지 한빛빌딩 4층","indutype":"보건위생 - 화장품","category":"beauty"},{"name":"아모레","tel":"031-565-0391","addr":"경기도 남양주시 다산동 4118-1번지 한빛빌딩 4층","indutype":"보건위생 - 화장품","category":"beauty"},{"name":"아모레","tel":"031-565-0391","addr":"경기도 남양주시 다산동 4118-1번지 한빛빌딩 4층","indutype":"보건위생 - 화장품","category":"beauty"},{"name":"아모레","tel":"031-565-0391","addr":"경기도 남양주시 다산동 4118-1번지 한빛빌딩 4층","indutype":"보건위생 - 화장품","category":"beauty"},{"name":"아모레","tel":"031-565-0391","addr":"경기도 남양주시 다산동 4118-1번지 한빛빌딩 4층","indutype":"보건위생 - 화장품","category":"beauty"},{"name":"아모레","tel":"031-565-0391","addr":"경기도 남양주시 다산동 4118-1번지 한빛빌딩 4층","indutype":"보건위생 - 화장품","category":"beauty"},{"name":"아모레","tel":"","addr":"경기도 남양주시 다산동 4118-1번지 한빛빌딩 4층","indutype":"보건위생 - 화장품","category":"beauty"},{"name":"아모레","tel":"031-565-0391","addr":"경기도 남양주시 다산동 4118-1번지 한빛빌딩 4층","indutype":"보건위생 - 화장품","category":"beauty"},{"name":"아모레","tel":"031-565-0391","addr":"경기도 남양주시 다산동 4118-1번지 한빛빌딩 4층","indutype":"보건위생 - 화장품","category":"beauty"},{"name":"아모레","tel":"031-564-2329","addr":"경기도 남양주시 다산동 4118-1번지 한빛빌딩 4층","indutype":"보건위생 - 화장품","category":"beauty"},{"name":"아모레","tel":"031-565-0391","addr":"경기도 남양주시 다산동 4118-1번지","indutype":"보건위생 - 화장품","category":"beauty"},{"name":"아모레","tel":"031-565-0391","addr":"경기도 남양주시 다산동 4118-1번지 한빛빌딩 4층","indutype":"보건위생 - 화장품","category":"beauty"},{"name":"아모레","tel":"031-565-0391","addr":"경기도 남양주시 다산동 4118-1번지 한빛빌딩 4층","indutype":"보건위생 - 화장품","category":"beauty"},{"name":"아모레","tel":"031-565-0391","addr":"경기도 남양주시 다산동 4118-1번지 한빛빌딩 4층","indutype":"보건위생 - 화장품","category":"beauty"},{"name":"아모레","tel":"031-565-0391","addr":"경기도 남양주시 다산동 4118-1번지 한빛빌딩 4층","indutype":"보건위생 - 화장품","category":"beauty"},{"name":"아모레","tel":"031-565-0391","addr":"경기도 남양주시 다산동 4118-1번지 한빛빌딩 4층","indutype":"보건위생 - 화장품","category":"beauty"},{"name":"아모레","tel":"031-565-0391","addr":"경기도 남양주시 다산동 4118-1번지 한빛빌딩 4층","indutype":"보건위생 - 화장품","category":"beauty"},{"name":"아모레","tel":"031-564-2329","addr":"경기도 남양주시 다산동 4118-1번지 한빛빌딩 4층","indutype":"보건위생 - 화장품","category":"beauty"},{"name":"아모레","tel":"031-565-0391","addr":"경기도 남양주시 다산동 4118-1번지 한빛빌딩 4층","indutype":"보건위생 - 화장품","category":"beauty"},{"name":"아모레","tel":"031-565-0391","addr":"경기도 남양주시 다산동 4118-1번지 한빛빌딩 4층","indutype":"보건위생 - 화장품","category":"beauty"},{"name":"아모레","tel":"031-565-0391","addr":"경기도 남양주시 다산동 4118-1번지 한빛빌딩 4층","indutype":"보건위생 - 화장품","category":"beauty"},{"name":"아모레","tel":"031-565-0391","addr":"경기도 남양주시 다산동 4118-1번지","indutype":"보건위생 - 화장품","category":"beauty"},{"name":"아모레","tel":"031-565-0391","addr":"경기도 남양주시 다산동 4118-1번지 한빛빌딩 4층","indutype":"보건위생 - 화장품","category":"beauty"},{"name":"아모레","tel":"031-565-0391","addr":"경기도 남양주시 다산동 4118-1번지 한빛빌딩 4층","indutype":"보건위생 - 화장품","category":"beauty"},{"name":"아모레","tel":"031-565-0391","addr":"경기도 남양주시 다산동 4118-1번지 한빛빌딩 4층","indutype":"보건위생 - 화장품","category":"beauty"},{"name":"아모레","tel":"031-565-0391","addr":"경기도 남양주시 다산동 4118-1번지 한빛빌딩 4층","indutype":"보건위생 - 화장품","category":"beauty"},{"name":"아모레","tel":"031-565-0391","addr":"경기도 남양주시 다산동 4118-1번지 한빛빌딩 4층","indutype":"보건위생 - 화장품","category":"beauty"},{"name":"아모레","tel":"031-565-0391","addr":"경기도 남양주시 다산동 4118-1번지 한빛빌딩 4층","indutype":"보건위생 - 화장품","category":"beauty"},{"name":"아모레","tel":"031-565-0391","addr":"경기도 남양주시 다산동 4118-1번지 한빛빌딩 4층","indutype":"보건위생 - 화장품","category":"beauty"},{"name":"아모레","tel":"031-565-0391","addr":"경기도 남양주시 다산동 4118-1번지 한빛빌딩 4층","indutype":"보건위생 - 화장품","category":"beauty"},{"name":"아모레","tel":"031-565-0391","addr":"경기도 남양주시 다산동 4118-1번지 한빛빌딩 4층","indutype":"보건위생 - 화장품","category":"beauty"},{"name":"아모레카운셀러","tel":"031-564-3009","addr":"경기도 남양주시 다산동 4118-1번지 4층","indutype":"보건위생 - 화장품","category":"beauty"},{"name":"아모레카운셀러","tel":"031-565-0391","addr":"경기도 남양주시 다산동 4118-1번지 4층","indutype":"보건위생 - 화장품","category":"beauty"},{"name":"아모레카운셀러","tel":"031-565-0391","addr":"경기도 남양주시 다산동 4118-1번지 한빛빌딩 4층","indutype":"보건위생 - 화장품","category":"beauty"},{"name":"아모레퍼시픽","tel":"031-565-0391","addr":"경기도 남양주시 다산동 4118-1번지 4층","indutype":"보건위생 - 화장품","category":"beauty"}]},{"lat":"37.608947558","long":"127.15670177","imageIndex":13,"items":[{"name":"아우라제이헤어살롱","tel":"031-566-7935","addr":"경기도 남양주시 다산동 4002-3번지 1층","indutype":"보건위생 - 미용원","category":"beauty"}]},{"lat":"37.600065127","long":"127.17539059","imageIndex":13,"items":[{"name":"아이리뷰티","tel":"02-4618-4646","addr":"경기도 남양주시 다산동 6215번지 다산펜테리움리버테라스I 7397동 1302호","indutype":"보건위생 - 화장품","category":"beauty"}]},{"lat":"37.600203169","long":"127.1733979","imageIndex":13,"items":[{"name":"앤드젤네일","tel":"031-111-1111","addr":"경기도 남양주시 다산동 6217-6번지 대길프라자 2층 205호","indutype":"보건위생 - 피부미용실","category":"beauty"}]},{"lat":"37.608088712","long":"127.15195477","imageIndex":13,"items":[{"name":"야후맨스클럽(도농점)","tel":"070-8289-7314","addr":"경기도 남양주시 다산동 4306-56번지","indutype":"보건위생 - 미용원","category":"beauty"}]},{"lat":"37.607974684","long":"127.15656386","imageIndex":13,"items":[{"name":"에르다헤어","tel":"031-564-2030","addr":"경기도 남양주시 다산동 4045-26번지 1층","indutype":"보건위생 - 미용원","category":"beauty"}]},{"lat":"37.606090807","long":"127.1572055","imageIndex":13,"items":[{"name":"에리헤어살롱","tel":"","addr":"경기도 남양주시 다산동 4053-4번지 1층 108호","indutype":"보건위생 - 미용원","category":"beauty"}]},{"lat":"37.599396006","long":"127.15762198","imageIndex":13,"items":[{"name":"엠에스헤어","tel":"031-595-0685","addr":"경기도 남양주시 다산동 679-5번지 맥산빌딩","indutype":"보건위생 - 미용원","category":"beauty"}]},{"lat":"37.608173516","long":"127.15608862","imageIndex":13,"items":[{"name":"엠제이(MJ)헤어","tel":"","addr":"경기도 남양주시 다산동 4044-11번지 102호","indutype":"보건위생 - 미용원","category":"beauty"}]},{"lat":"37.59967553","long":"127.1574527","imageIndex":13,"items":[{"name":"엣찌뷰티샵","tel":"031-566-4081","addr":"경기도 남양주시 다산동 679-3번지 리버뷰 B동 1층 101호","indutype":"보건위생 - 미용원","category":"beauty"},{"name":"전지숙 헤어갤러리","tel":"031-553-5674","addr":"경기도 남양주시 다산동 679-3번지 B동 102호","indutype":"보건위생 - 미용원","category":"beauty"}]},{"lat":"37.608809677","long":"127.15180898","imageIndex":13,"items":[{"name":"예스","tel":"031-558-0255","addr":"경기도 남양주시 다산동 4306-36번지","indutype":"보건위생 - 화장품","category":"beauty"}]},{"lat":"37.61158423","long":"127.16579038","imageIndex":13,"items":[{"name":"오가닉샵","tel":"","addr":"경기도 남양주시 다산동 6180-3번지","indutype":"보건위생 - 화장품","category":"beauty"}]},{"lat":"37.609086732","long":"127.16708734","imageIndex":13,"items":[{"name":"유림헤어노블","tel":"031-552-6004","addr":"경기도 남양주시 다산동 3096-3번지","indutype":"보건위생 - 미용원","category":"beauty"}]},{"lat":"37.612396756","long":"127.16459162","imageIndex":13,"items":[{"name":"유미끼헤어","tel":"031-557-1176","addr":"경기도 남양주시 다산동 6168-8번지 다산지금지구 F2-1-9 101호","indutype":"보건위생 - 미용원","category":"beauty"}]},{"lat":"37.607618481","long":"127.15331284","imageIndex":13,"items":[{"name":"유진영헤어샵","tel":"031-567-9490","addr":"경기도 남양주시 다산동 4433번지 롯데낙천대상가 B-104호","indutype":"보건위생 - 미용원","category":"beauty"}]},{"lat":"37.608200398","long":"127.15620192","imageIndex":13,"items":[{"name":"윤스킨갤러리","tel":"031-555-3317","addr":"경기도 남양주시 다산동 4044-15번지 1층 101호","indutype":"보건위생 - 피부미용실","category":"beauty"}]},{"lat":"37.607811888","long":"127.15703918","imageIndex":13,"items":[{"name":"이양근의헤어닥터","tel":"031-568-5568","addr":"경기도 남양주시 다산동 4060-3번지","indutype":"보건위생 - 미용원","category":"beauty"}]},{"lat":"37.608809147","long":"127.15222801","imageIndex":13,"items":[{"name":"이은정헤어포엠","tel":"031-553-9360","addr":"경기도 남양주시 다산동 4301-18번지","indutype":"보건위생 - 미용원","category":"beauty"}]},{"lat":"37.610115874","long":"127.15198146","imageIndex":13,"items":[{"name":"인앤아웃안경,콘택트","tel":"031-565-7676","addr":"경기도 남양주시 다산동 4338-45번지 성지프라자 1층 107호","indutype":"보건위생 - 안경","category":"beauty"}]},{"lat":"37.622034284","long":"127.14589987","imageIndex":13,"items":[{"name":"잔나비헤어","tel":"031-556-5042","addr":"경기도 남양주시 다산동 6025번지 상가동 101호 유승한내들골든뷰근린생활시설","indutype":"보건위생 - 미용원","category":"beauty"}]},{"lat":"37.60453512","long":"127.15489207","imageIndex":13,"items":[{"name":"정일작명","tel":"031-553-0002","addr":"경기도 남양주시 다산동 668-2번지 가운리슈빌오피스텔 10층 1001호","indutype":"보건위생 - 기타대인서비스","category":"beauty"},{"name":"제이원헬스케어","tel":"031-527-5397","addr":"경기도 남양주시 다산동 668-2번지 가운리슈빌 5층 532호","indutype":"보건위생 - 의료용품","category":"beauty"},{"name":"헤세더","tel":"070-8913-1146","addr":"경기도 남양주시 다산동 668-2번지 가운리슈빌오피스텔 3층 323호","indutype":"보건위생 - 화장품","category":"beauty"}]},{"lat":"37.609670713","long":"127.15486855","imageIndex":13,"items":[{"name":"제나뷰티","tel":"070-8259-5288","addr":"경기도 남양주시 다산동 4029-10번지","indutype":"보건위생 - 화장품","category":"beauty"}]},{"lat":"37.601535166","long":"127.17439746","imageIndex":13,"items":[{"name":"제이지헤어샵","tel":"031-555-0995","addr":"경기도 남양주시 다산동 6216번지 보람프라자 1동 2층 203호","indutype":"보건위생 - 미용원","category":"beauty"}]},{"lat":"37.603557719","long":"127.15823079","imageIndex":13,"items":[{"name":"젤리헤어","tel":"031-564-3040","addr":"경기도 남양주시 다산동 671번지 휴먼시아 상가동 1층 102호","indutype":"보건위생 - 미용원","category":"beauty"}]},{"lat":"37.598560524","long":"127.16909115","imageIndex":13,"items":[{"name":"주미스킨케어","tel":"","addr":"경기도 남양주시 다산동 6234번지 반도유보라메이플타운2.0 7401동 2102호","indutype":"보건위생 - 화장품","category":"beauty"}]},{"lat":"37.605782616","long":"127.15862046","imageIndex":13,"items":[{"name":"지오헤어","tel":"031-562-0346","addr":"경기도 남양주시 다산동 617번지","indutype":"보건위생 - 미용원","category":"beauty"}]},{"lat":"37.619305435","long":"127.15228298","imageIndex":13,"items":[{"name":"집앞에서","tel":"","addr":"경기도 남양주시 다산동 6133번지 다산이편한세상자이 2층 208호","indutype":"보건위생 - 미용원","category":"beauty"}]},{"lat":"37.605783571","long":"127.15789568","imageIndex":13,"items":[{"name":"참빛미용실","tel":"031-563-1749","addr":"경기도 남양주시 다산동 4114-23번지","indutype":"보건위생 - 이용원","category":"beauty"}]},{"lat":"37.625754284","long":"127.15394975","imageIndex":13,"items":[{"name":"케빈헤어","tel":"031-555-3612","addr":"경기도 남양주시 다산동 6055번지 거성프라자 2층 204호","indutype":"보건위생 - 미용원","category":"beauty"}]},{"lat":"37.607252798","long":"127.1503676","imageIndex":13,"items":[{"name":"코코헤어","tel":"070-8704-2114","addr":"경기도 남양주시 다산동 4432-2번지 남양아이좋은집 상가 2층 202호","indutype":"보건위생 - 미용원","category":"beauty"}]},{"lat":"37.608452744","long":"127.15614581","imageIndex":13,"items":[{"name":"태후사랑","tel":"031-515-9668","addr":"경기도 남양주시 다산동 4043-8번지 1층","indutype":"보건위생 - 화장품","category":"beauty"}]},{"lat":"37.60728643","long":"127.15228159","imageIndex":13,"items":[{"name":"태희 헤어스케치","tel":"031-565-5353","addr":"경기도 남양주시 다산동 4296-2번지","indutype":"보건위생 - 미용원","category":"beauty"}]},{"lat":"37.599946001","long":"127.15731737","imageIndex":13,"items":[{"name":"파스텔아이 안경원","tel":"031-556-0999","addr":"경기도 남양주시 다산동 679-1번지 삼원프라자 103호","indutype":"보건위생 - 안경","category":"beauty"}]},{"lat":"37.606809923","long":"127.17158966","imageIndex":13,"items":[{"name":"피부ON","tel":"","addr":"경기도 남양주시 다산동 6208번지 다산지금센트럴에일린의뜰 상가동 108호","indutype":"보건위생 - 피부미용실","category":"beauty"}]},{"lat":"37.608758575","long":"127.1565315","imageIndex":13,"items":[{"name":"헤어21","tel":"031-111-1111","addr":"경기도 남양주시 다산동 4066-8번지 소망아트빌라 403호","indutype":"보건위생 - 화장품","category":"beauty"}]},{"lat":"37.608615463","long":"127.15572711","imageIndex":13,"items":[{"name":"헤어가라사대","tel":"031-552-0106","addr":"경기도 남양주시 다산동 4033-1번지","indutype":"보건위생 - 미용원","category":"beauty"}]},{"lat":"37.609279423","long":"127.16456222","imageIndex":13,"items":[{"name":"헤어닥터","tel":"031-555-5444","addr":"경기도 남양주시 다산동 3135-1번지 갈산빌딩","indutype":"보건위생 - 미용원","category":"beauty"}]},{"lat":"37.605834727","long":"127.15317335","imageIndex":13,"items":[{"name":"헤어라인","tel":"031-557-8470","addr":"경기도 남양주시 다산동 4436-2번지","indutype":"보건위생 - 미용원","category":"beauty"}]},{"lat":"37.608251173","long":"127.15172859","imageIndex":13,"items":[{"name":"헤어바이주호","tel":"031-552-5040","addr":"경기도 남양주시 다산동 4306-5번지 연성프라자 102호","indutype":"보건위생 - 미용원","category":"beauty"}]},{"lat":"37.601584615","long":"127.15820404","imageIndex":13,"items":[{"name":"헤어센스","tel":"031-562-0012","addr":"경기도 남양주시 다산동 673번지 남양주가운마을휴먼시아4단지 상가동 1층 103호","indutype":"보건위생 - 미용원","category":"beauty"}]},{"lat":"37.615004945","long":"127.1613693","imageIndex":13,"items":[{"name":"힐스템구리남양주센타","tel":"","addr":"경기도 남양주시 다산동 3391-84번지 3층 301호","indutype":"보건위생 - 의료용품","category":"beauty"}]},{"lat":"37.610198114","long":"127.17122357","imageIndex":7,"items":[{"name":"(사)경기도여성단체협의회남양주시지회","tel":"031-590-2267","addr":"경기도 남양주시 다산동 3159-7번지 남양주시청제2청사","indutype":"음료식품 - 기타음료식품","category":"food"},{"name":"남양주시청2청사매점","tel":"031-553-5779","addr":"경기도 남양주시 다산동 3159-7번지 남양주시청2청사별관1층매점","indutype":"음료식품 - 기타음료식품","category":"food"}]},{"lat":"37.614226416","long":"127.15031341","imageIndex":7,"items":[{"name":"(주)양원산업","tel":"031-568-7365","addr":"경기도 남양주시 다산동 4344-1번지","indutype":"음료식품 - 농·축·수산품","category":"food"},{"name":"예진물류","tel":"031-568-7365","addr":"경기도 남양주시 다산동 4344-1번지","indutype":"음료식품 - 농·축·수산품","category":"food"},{"name":"예진유통(주)","tel":"031-568-7365","addr":"경기도 남양주시 다산동 4344-1번지","indutype":"음료식품 - 농·축·수산품","category":"food"}]},{"lat":"37.615221892","long":"127.16083743","imageIndex":7,"items":[{"name":"(주)한식세계화명인셰프","tel":"000-1544-0415","addr":"경기도 남양주시 다산동 3391-55번지 비젼빌딩 1층","indutype":"음료식품 - 기타음료식품","category":"food"}]},{"lat":"37.599112701","long":"127.16064484","imageIndex":7,"items":[{"name":"가운고등학교 매점","tel":"","addr":"경기도 남양주시 다산동 684번지 가운고등학교","indutype":"음료식품 - 기타음료식품","category":"food"},{"name":"가운고등학교 매점","tel":"02-900-1544","addr":"경기도 남양주시 다산동 684번지 가운고등학교","indutype":"음료식품 - 기타음료식품","category":"food"}]},{"lat":"37.600838631","long":"127.15680964","imageIndex":7,"items":[{"name":"가운농축산","tel":"031-551-0105","addr":"경기도 남양주시 다산동 676-3번지 101~203호","indutype":"음료식품 - 정육점","category":"food"}]},{"lat":"37.6101985","long":"127.15075848","imageIndex":7,"items":[{"name":"가을","tel":"031-565-6670","addr":"경기도 남양주시 다산동 4336-82번지 1층 102호","indutype":"음료식품 - 기타음료식품","category":"food"}]},{"lat":"37.608700356","long":"127.15276008","imageIndex":7,"items":[{"name":"강원농산","tel":"031-563-1255","addr":"경기도 남양주시 다산동 4299-23번지","indutype":"음료식품 - 제과점","category":"food"}]},{"lat":"37.608557629","long":"127.15861492","imageIndex":7,"items":[{"name":"강진댁반찬","tel":"031-569-0456","addr":"경기도 남양주시 다산동 4001-29번지 부영애시앙사랑관 181호","indutype":"음료식품 - 기타음료식품","category":"food"},{"name":"강진반찬","tel":"031-569-0456","addr":"경기도 남양주시 다산동 4001-29번지 부영애시앙 사랑관 183호","indutype":"음료식품 - 기타음료식품","category":"food"},{"name":"누리 허브 앤 씨드","tel":"031-551-5515","addr":"경기도 남양주시 다산동 4001-29번지 부영애시앙 사랑관 175호","indutype":"음료식품 - 농·축·수산품","category":"food"},{"name":"다산떡집","tel":"031-567-4900","addr":"경기도 남양주시 다산동 4001-29번지 부영애시앙원앙관104호","indutype":"음료식품 - 제과점","category":"food"},{"name":"두부장수","tel":"070-4696-2806","addr":"경기도 남양주시 다산동 4001-29번지 부영애시앙","indutype":"음료식품 - 기타음료식품","category":"food"},{"name":"뚜레쥬르카페도농점","tel":"031-568-0033","addr":"경기도 남양주시 다산동 4001-29번지 부영애시앙 상가동 113호","indutype":"음료식품 - 제과점","category":"food"},{"name":"양희상회","tel":"031-573-3717","addr":"경기도 남양주시 다산동 4001-29번지 부영애시앙 901동 1506호","indutype":"음료식품 - 농·축·수산품","category":"food"},{"name":"오행생식원","tel":"031-554-5656","addr":"경기도 남양주시 다산동 4001-29번지 부영애시앙상가동사랑관225호","indutype":"음료식품 - 농·축·수산품","category":"food"},{"name":"참다한 홍삼 도농점","tel":"031-554-5838","addr":"경기도 남양주시 다산동 4001-29번지 부영에시앙 상가동 사랑관 131호,138호","indutype":"건강식품 - 홍삼제품","category":"food"},{"name":"청인유산균사랑","tel":"070-8955-5562","addr":"경기도 남양주시 다산동 4001-29번지 부영애시앙","indutype":"회원제형태 - 건강식품","category":"food"},{"name":"코코호도(도농점)","tel":"031-556-5455","addr":"경기도 남양주시 다산동 4001-29번지 부영애시앙사랑관 118호","indutype":"음료식품 - 제과점","category":"food"},{"name":"픽미픽미아이스 다산점","tel":"031-111-1111","addr":"경기도 남양주시 다산동 4001-29번지 부영애시앙 1층 103호","indutype":"음료식품 - 기타음료식품","category":"food"}]},{"lat":"37.609647826","long":"127.16528784","imageIndex":7,"items":[{"name":"경춘정육점","tel":"031-552-1239","addr":"경기도 남양주시 다산동 3136-9번지","indutype":"음료식품 - 정육점","category":"food"},{"name":"럭키양곡","tel":"031-553-4466","addr":"경기도 남양주시 다산동 3136-9번지","indutype":"음료식품 - 미곡상","category":"food"}]},{"lat":"37.626948989","long":"127.15672752","imageIndex":7,"items":[{"name":"과일달다","tel":"","addr":"경기도 남양주시 다산동 6031번지 다산아이파크 상가동 1층 120 일부호","indutype":"음료식품 - 농·축·수산품","category":"food"}]},{"lat":"37.6196409","long":"127.15764127","imageIndex":7,"items":[{"name":"국사랑 다산신도시점","tel":"031-111-1111","addr":"경기도 남양주시 다산동 6130-2번지 다산진건지구 근생3-1-3 102호","indutype":"음료식품 - 기타음료식품","category":"food"},{"name":"달콤창고","tel":"031-1111-1111","addr":"경기도 남양주시 다산동 6130-2번지 성산플레이스2 다산산건지구근린생활시설용지3-1-3블럭 1층 103호","indutype":"음료식품 - 기타음료식품","category":"food"},{"name":"아부찌부대찌개","tel":"031-562-7773","addr":"경기도 남양주시 다산동 6130-2번지 성산타워플레이스 1층 101호","indutype":"음료식품 - 기타음료식품","category":"food"}]},{"lat":"37.611591805","long":"127.16020684","imageIndex":7,"items":[{"name":"국제","tel":"","addr":"경기도 남양주시 다산동 4002-1번지 부영그린타운 213동 1701호","indutype":"음료식품 - 미곡상","category":"food"},{"name":"동호농산","tel":"070-8154-6025","addr":"경기도 남양주시 다산동 4002-1번지 부영그린타운 214동 201호","indutype":"음료식품 - 농·축·수산품","category":"food"},{"name":"월드유통","tel":"02-2247-9277","addr":"경기도 남양주시 다산동 4002-1번지 부영그린타운 506동 904호","indutype":"음료식품 - 농·축·수산품","category":"food"},{"name":"하늘미에프앤씨(FNC)","tel":"070-2701-3407","addr":"경기도 남양주시 다산동 4002-1번지 부영그린타운 511동 1805호","indutype":"음료식품 - 미곡상","category":"food"}]},{"lat":"37.623361361","long":"127.1580681","imageIndex":7,"items":[{"name":"굿푸드 유통","tel":"","addr":"경기도 남양주시 다산동 6092번지 힐스테이트다산 5202동 1604호","indutype":"음료식품 - 기타음료식품","category":"food"},{"name":"아이스크림 할인점","tel":"070-8744-2008","addr":"경기도 남양주시 다산동 6092번지 힐스테이트다산근린생활시설 108호","indutype":"음료식품 - 기타음료식품","category":"food"}]},{"lat":"37.606396207","long":"127.15089818","imageIndex":7,"items":[{"name":"금성건강원","tel":"031-565-3480","addr":"경기도 남양주시 다산동 4308-10번지","indutype":"건강식품 - 기타건강식품","category":"food"}]},{"lat":"37.608361851","long":"127.15675719","imageIndex":7,"items":[{"name":"까망시루","tel":"031-558-5919","addr":"경기도 남양주시 다산동 4065번지 부영프라자 1층 113호","indutype":"음료식품 - 제과점","category":"food"},{"name":"던킨도너츠(도농점)","tel":"031-569-9944","addr":"경기도 남양주시 다산동 4065번지","indutype":"음료식품 - 제과점","category":"food"}]},{"lat":"37.614753417","long":"127.16081379","imageIndex":7,"items":[{"name":"나현야채","tel":"031-568-8644","addr":"경기도 남양주시 다산동 3391-49번지","indutype":"음료식품 - 농·축·수산품","category":"food"}]},{"lat":"37.609615898","long":"127.16880996","imageIndex":7,"items":[{"name":"남양주건강생활","tel":"031-556-4170","addr":"경기도 남양주시 다산동 3073-1번지 다산타임프라자 4층 406호","indutype":"건강식품 - 기타건강식품","category":"food"},{"name":"다산 제이케이(JK) 매점","tel":"","addr":"경기도 남양주시 다산동 3073-1번지 다산타임프라자 605-606호일부","indutype":"음료식품 - 기타음료식품","category":"food"}]},{"lat":"37.609861703","long":"127.15347591","imageIndex":7,"items":[{"name":"노마진아이스크림(도농점)","tel":"02-1111-1111","addr":"경기도 남양주시 다산동 4027-16번지 1층","indutype":"음료식품 - 제과점","category":"food"}]},{"lat":"37.609339599","long":"127.16003222","imageIndex":7,"items":[{"name":"늘봄축산사랑","tel":"031-552-8955","addr":"경기도 남양주시 다산동 4001-10번지 부영그린타운 상가 1동 1층 117호","indutype":"음료식품 - 정육점","category":"food"},{"name":"파리바게뜨","tel":"031-558-1200","addr":"경기도 남양주시 다산동 4001-10번지 부영그린타운중앙상가109,116,B103호","indutype":"음료식품 - 제과점","category":"food"}]},{"lat":"37.598202514","long":"127.16739181","imageIndex":7,"items":[{"name":"다다종합식품","tel":"031-566-5581","addr":"경기도 남양주시 다산동 480-2,나동","indutype":"음료식품 - 기타음료식품","category":"food"}]},{"lat":"37.601726191","long":"127.17314092","imageIndex":7,"items":[{"name":"다산최고 공인중개사무소","tel":"031-553-9911","addr":"경기도 남양주시 다산동 6218-5번지 다산지금지구 F3-1-6 103호","indutype":"음료식품 - 기타음료식품","category":"food"}]},{"lat":"37.597592297","long":"127.15895442","imageIndex":7,"items":[{"name":"다성","tel":"031-111-1111","addr":"경기도 남양주시 다산동 691-1번지","indutype":"음료식품 - 기타음료식품","category":"food"}]},{"lat":"37.608782847","long":"127.15165037","imageIndex":7,"items":[{"name":"다움FS(다움푸드서비스)","tel":"031-528-6263","addr":"경기도 남양주시 다산동 4306-37번지 삼중카센타 1층 101호","indutype":"음료식품 - 기타음료식품","category":"food"}]},{"lat":"37.612529766","long":"127.16614354","imageIndex":7,"items":[{"name":"담아담아 아아스크림 할인점 도농점2","tel":"","addr":"경기도 남양주시 다산동 6175번지 다산지금지구 F2-8-1 1층 103호","indutype":"음료식품 - 기타음료식품","category":"food"}]},{"lat":"37.608947558","long":"127.15670177","imageIndex":7,"items":[{"name":"담아담아 아이스크림 할인점","tel":"070-7539-9547","addr":"경기도 남양주시 다산동 4002-3번지 1층 101호","indutype":"음료식품 - 기타음료식품","category":"food"}]},{"lat":"37.600203169","long":"127.1733979","imageIndex":7,"items":[{"name":"더 까까주까","tel":"031-565-9901","addr":"경기도 남양주시 다산동 6217-6번지 대길프라자 109호","indutype":"음료식품 - 기타음료식품","category":"food"}]},{"lat":"37.628112184","long":"127.15600492","imageIndex":7,"items":[{"name":"더(The)달달 아이스크림 할인점","tel":"070-7423-6603","addr":"경기도 남양주시 다산동 6030번지 다산노블레스빌딩 111호","indutype":"음료식품 - 기타음료식품","category":"food"},{"name":"한나식빵","tel":"031-569-7701","addr":"경기도 남양주시 다산동 6030번지 다산진건지구 근생1-1-1 1층 106호","indutype":"음료식품 - 제과점","category":"food"}]},{"lat":"37.606809923","long":"127.17158966","imageIndex":7,"items":[{"name":"더달달(다산지금점)","tel":"070-7423-6603","addr":"경기도 남양주시 다산동 6208번지 다산에일린의뜰 상가 B232호","indutype":"음료식품 - 기타음료식품","category":"food"}]},{"lat":"37.62811127","long":"127.15670726","imageIndex":7,"items":[{"name":"더디씨다산점","tel":"031-111-1111","addr":"경기도 남양주시 다산동 6030-2번지 다산진건지구 근생1-1-3 111호","indutype":"음료식품 - 기타음료식품","category":"food"},{"name":"던킨도너츠남양주다산점","tel":"","addr":"경기도 남양주시 다산동 6030-2번지 106호, 107호","indutype":"음료식품 - 제과점","category":"food"}]},{"lat":"37.598507743","long":"127.1616174","imageIndex":7,"items":[{"name":"더치앤빈","tel":"070-8844-7223","addr":"경기도 남양주시 다산동 685-5번지 지에스프라자 4층 403호","indutype":"음료식품 - 기타음료식품","category":"food"}]},{"lat":"37.625809076","long":"127.16689756","imageIndex":7,"items":[{"name":"덕남농원","tel":"031-564-6732","addr":"경기도 남양주시 다산동 3315-1번지","indutype":"음료식품 - 농·축·수산품","category":"food"},{"name":"푸드존","tel":"031-595-7854","addr":"경기도 남양주시 다산동 3315-1번지 외1필지","indutype":"음료식품 - 농·축·수산품","category":"food"},{"name":"하나농원","tel":"031-577-2482","addr":"경기도 남양주시 다산동 3315-1번지","indutype":"음료식품 - 농·축·수산품","category":"food"}]},{"lat":"37.607451676","long":"127.15690254","imageIndex":7,"items":[{"name":"데이스베이커리","tel":"031-565-6306","addr":"경기도 남양주시 다산동 4045-2번지 1층","indutype":"음료식품 - 제과점","category":"food"}]},{"lat":"37.607007836","long":"127.15870229","imageIndex":7,"items":[{"name":"도농도서관 매점","tel":"070-4126-2277","addr":"경기도 남양주시 다산동 4053-1번지","indutype":"음료식품 - 기타음료식품","category":"food"}]},{"lat":"37.606528221","long":"127.16690052","imageIndex":7,"items":[{"name":"동진유통","tel":"031-559-6321","addr":"경기도 남양주시 다산동 3103-30번지","indutype":"음료식품 - 기타음료식품","category":"food"}]},{"lat":"37.60702978","long":"127.16250753","imageIndex":7,"items":[{"name":"동화매점","tel":"031-563-4909","addr":"경기도 남양주시 다산동 4106번지 동화중고교","indutype":"음료식품 - 기타음료식품","category":"food"}]},{"lat":"37.609507998","long":"127.15528725","imageIndex":7,"items":[{"name":"두란노커피","tel":"070-8225-0365","addr":"경기도 남양주시 다산동 4029-17번지 1층","indutype":"음료식품 - 기타음료식품","category":"food"}]},{"lat":"37.625726222","long":"127.15475397","imageIndex":7,"items":[{"name":"땅스부대찌개구리다산점","tel":"031-556-8599","addr":"경기도 남양주시 다산동 6055-3번지 가하프라자 상가동 109호","indutype":"음료식품 - 기타음료식품","category":"food"}]},{"lat":"37.606505772","long":"127.15680999","imageIndex":7,"items":[{"name":"떡고을","tel":"031-567-8990","addr":"경기도 남양주시 다산동 4046-6번지 1층","indutype":"음료식품 - 제과점","category":"food"},{"name":"제일스마일유통","tel":"070-8273-4418","addr":"경기도 남양주시 다산동 4046-6번지","indutype":"음료식품 - 기타음료식품","category":"food"},{"name":"총각네정육점","tel":"031-1111-1111","addr":"경기도 남양주시 다산동 4046-6번지 103호","indutype":"음료식품 - 정육점","category":"food"}]},{"lat":"37.620141266","long":"127.14670046","imageIndex":7,"items":[{"name":"뚜레쥬르 다산신도시점","tel":"","addr":"경기도 남양주시 다산동 6075번지 다산한양수자인리버파크 1층 5,6호","indutype":"음료식품 - 제과점","category":"food"}]},{"lat":"37.610007298","long":"127.15234366","imageIndex":7,"items":[{"name":"마마베이커리","tel":"","addr":"경기도 남양주시 다산동 4338-31번지 1층","indutype":"음료식품 - 제과점","category":"food"}]},{"lat":"37.628111742","long":"127.15634476","imageIndex":7,"items":[{"name":"마마쿡(다산점)","tel":"031-565-4866","addr":"경기도 남양주시 다산동 6030-1번지 109,110호","indutype":"음료식품 - 기타음료식품","category":"food"}]},{"lat":"37.607812405","long":"127.1566428","imageIndex":7,"items":[{"name":"명성방앗간","tel":"031-562-1882","addr":"경기도 남양주시 다산동 4045-32번지","indutype":"음료식품 - 제과점","category":"food"}]},{"lat":"37.623361921","long":"127.16436616","imageIndex":7,"items":[{"name":"명호농원","tel":"031-566-3186","addr":"경기도 남양주시 다산동 3324번지","indutype":"음료식품 - 농·축·수산품","category":"food"}]},{"lat":"37.607752237","long":"127.15440031","imageIndex":7,"items":[{"name":"모메존푸드","tel":"031-555-5088","addr":"경기도 남양주시 다산동 4036-7번지 풍림빌딩 2층","indutype":"음료식품 - 기타음료식품","category":"food"}]},{"lat":"37.597393664","long":"127.16592929","imageIndex":7,"items":[{"name":"미소로또","tel":"031-555-7663","addr":"경기도 남양주시 다산동 산44-1번지 1층 104호","indutype":"음료식품 - 기타음료식품","category":"food"}]},{"lat":"37.622945159","long":"127.15244885","imageIndex":7,"items":[{"name":"미식도감","tel":"","addr":"경기도 남양주시 다산동 6087-3번지 다산퍼스트타워 101호","indutype":"음료식품 - 기타음료식품","category":"food"}]},{"lat":"37.608395114","long":"127.15189875","imageIndex":7,"items":[{"name":"미향","tel":"031-516-7353","addr":"경기도 남양주시 다산동 4306-47번지 1층","indutype":"음료식품 - 기타음료식품","category":"food"}]},{"lat":"37.609897482","long":"127.15367984","imageIndex":7,"items":[{"name":"밍디저트","tel":"031-553-9747","addr":"경기도 남양주시 다산동 4027-18번지 2층 일부","indutype":"음료식품 - 기타음료식품","category":"food"}]},{"lat":"37.62453147","long":"127.15197627","imageIndex":7,"items":[{"name":"바이블룸","tel":"","addr":"경기도 남양주시 다산동 6060-4번지 다산진건지구 상업4-4-5 5층 504호","indutype":"음료식품 - 기타음료식품","category":"food"}]},{"lat":"37.609416565","long":"127.15631767","imageIndex":7,"items":[{"name":"반찬나루","tel":"031-567-8835","addr":"경기도 남양주시 다산동 4025-35번지 1층 101호","indutype":"음료식품 - 기타음료식품","category":"food"}]},{"lat":"37.600204018","long":"127.17280905","imageIndex":7,"items":[{"name":"반찬나루 다산점","tel":"02-411-1111","addr":"경기도 남양주시 다산동 6222번지 1층","indutype":"음료식품 - 기타음료식품","category":"food"}]},{"lat":"37.625754284","long":"127.15394975","imageIndex":7,"items":[{"name":"배스킨라빈스 다산롯데캐슬점","tel":"031-554-2007","addr":"경기도 남양주시 다산동 6055번지 1층 101호,102호","indutype":"음료식품 - 제과점","category":"food"}]},{"lat":"37.611279892","long":"127.16434004","imageIndex":7,"items":[{"name":"배스킨라빈스 다산법조타운점","tel":"031-554-3131","addr":"경기도 남양주시 다산동 3198-21번지 다산지금지구 근생4-1 1층 105호","indutype":"음료식품 - 제과점","category":"food"}]},{"lat":"37.620199502","long":"127.15764243","imageIndex":7,"items":[{"name":"배스킨라빈스 다산이편한세상점","tel":"031-567-5557","addr":"경기도 남양주시 다산동 6130번지 메인프라자(다산진건지구 근생3-1-1) 106호 105호,106호","indutype":"음료식품 - 제과점","category":"food"},{"name":"파리바게뜨(다산이편한점)","tel":"031-510-9677","addr":"경기도 남양주시 다산동 6130번지 메인프라자 제1동 102,103호","indutype":"음료식품 - 제과점","category":"food"}]},{"lat":"37.604534331","long":"127.1555036","imageIndex":7,"items":[{"name":"배스킨라빈스남양주가운점","tel":"031-554-4753","addr":"경기도 남양주시 다산동 668-3번지 브릭스타워 107호","indutype":"음료식품 - 제과점","category":"food"},{"name":"한우장터마을","tel":"031-555-2361","addr":"경기도 남양주시 다산동 668-3번지 브릭스타워 131호","indutype":"음료식품 - 정육점","category":"food"}]},{"lat":"37.600065127","long":"127.17539059","imageIndex":7,"items":[{"name":"복음자리 북부지점","tel":"031-569-2759","addr":"경기도 남양주시 다산동 6215번지 다산펜테리움리버테라스I 7304동 2404호","indutype":"음료식품 - 기타음료식품","category":"food"},{"name":"올마망 (All Maman)","tel":"","addr":"경기도 남양주시 다산동 6215번지 다산펜테리움리버테라스I 7301동 9층 3호","indutype":"건강식품 - 기타건강식품","category":"food"}]},{"lat":"37.608088712","long":"127.15195477","imageIndex":7,"items":[{"name":"분홍식탁반찬전문점","tel":"031-1111-1111","addr":"경기도 남양주시 다산동 4306-56번지 1층 일부","indutype":"음료식품 - 기타음료식품","category":"food"}]},{"lat":"37.608173516","long":"127.15608862","imageIndex":7,"items":[{"name":"빈앤기프트","tel":"031-556-2010","addr":"경기도 남양주시 다산동 4044-11번지 102호","indutype":"음료식품 - 기타음료식품","category":"food"}]},{"lat":"37.612395121","long":"127.16578082","imageIndex":7,"items":[{"name":"빵 양과자 공방 사계의 오후","tel":"","addr":"경기도 남양주시 다산동 6170-6번지 1층","indutype":"음료식품 - 제과점","category":"food"}]},{"lat":"37.607146039","long":"127.15636963","imageIndex":7,"items":[{"name":"빵식이야채","tel":"031-565-3436","addr":"경기도 남양주시 다산동 4045-7번지 소망빌라 B동 101호","indutype":"음료식품 - 농·축·수산품","category":"food"}]},{"lat":"37.627114677","long":"127.15400914","imageIndex":7,"items":[{"name":"쁘왈란","tel":"","addr":"경기도 남양주시 다산동 6029번지 다산자연앤롯데캐슬 상가동 1층 101,102호","indutype":"음료식품 - 제과점","category":"food"},{"name":"신세계축산","tel":"031-557-0400","addr":"경기도 남양주시 다산동 6029번지 다산자연앤롯데캐슬 상가동 104호","indutype":"음료식품 - 정육점","category":"food"}]},{"lat":"37.625528009","long":"127.15475356","imageIndex":7,"items":[{"name":"사부작케이크","tel":"","addr":"경기도 남양주시 다산동 6055-4번지 마운틴프라자 4층 403호","indutype":"음료식품 - 기타음료식품","category":"food"}]},{"lat":"37.605628657","long":"127.15922036","imageIndex":7,"items":[{"name":"성하농산","tel":"070-7786-8871","addr":"경기도 남양주시 다산동 617-60번지 대성빌라 4동 102호","indutype":"음료식품 - 농·축·수산품","category":"food"}]},{"lat":"37.606583843","long":"127.15214429","imageIndex":7,"items":[{"name":"세계로축산","tel":"031-557-8234","addr":"경기도 남양주시 다산동 4305-4번지","indutype":"음료식품 - 정육점","category":"food"}]},{"lat":"37.6218373","long":"127.15914102","imageIndex":7,"items":[{"name":"세븐 아이스크림","tel":"031-555-3465","addr":"경기도 남양주시 다산동 6096번지 101호일부","indutype":"음료식품 - 기타음료식품","category":"food"}]},{"lat":"37.599946001","long":"127.15731737","imageIndex":7,"items":[{"name":"속편한 현미 누룽지","tel":"","addr":"경기도 남양주시 다산동 679-1번지 삼원프라자 102호","indutype":"음료식품 - 기타음료식품","category":"food"}]},{"lat":"37.601172198","long":"127.15665179","imageIndex":7,"items":[{"name":"솜씨예찬","tel":"031-563-3886","addr":"경기도 남양주시 다산동 676-1번지 주공프라자 101호","indutype":"음료식품 - 기타음료식품","category":"food"}]},{"lat":"37.607836825","long":"127.15164849","imageIndex":7,"items":[{"name":"쉐마망","tel":"031-5091-0772","addr":"경기도 남양주시 다산동 4306-50번지 A동 1층","indutype":"음료식품 - 제과점","category":"food"}]},{"lat":"37.608890793","long":"127.15178649","imageIndex":7,"items":[{"name":"신선야채 상큼과일","tel":"031-565-5289","addr":"경기도 남양주시 다산동 4306-35번지","indutype":"음료식품 - 농·축·수산품","category":"food"}]},{"lat":"37.60880929","long":"127.15211476","imageIndex":7,"items":[{"name":"신우정육점","tel":"031-566-3853","addr":"경기도 남양주시 다산동 4302-20번지","indutype":"음료식품 - 정육점","category":"food"}]},{"lat":"37.62211582","long":"127.15973062","imageIndex":7,"items":[{"name":"아뱅베이커리","tel":"","addr":"경기도 남양주시 다산동 6095-3번지 다산진건지구 F2-1-4 상가동 102호","indutype":"음료식품 - 제과점","category":"food"}]},{"lat":"37.623142379","long":"127.15323084","imageIndex":7,"items":[{"name":"아빠  정육점","tel":"031-111-1111","addr":"경기도 남양주시 다산동 6089-2번지 리페온빌 106호","indutype":"음료식품 - 정육점","category":"food"}]},{"lat":"37.607088798","long":"127.1654748","imageIndex":7,"items":[{"name":"아이스크림 하우스","tel":"","addr":"경기도 남양주시 다산동 3720번지 힐스테이트황금산 상가동 106호 일부","indutype":"음료식품 - 기타음료식품","category":"food"},{"name":"아이스크림 할인점","tel":"","addr":"경기도 남양주시 다산동 3720번지 힐스테이트황금산 상가동 106호 일부","indutype":"음료식품 - 기타음료식품","category":"food"}]},{"lat":"37.600369755","long":"127.15709177","imageIndex":7,"items":[{"name":"아이스크림할인점 더달달 (다산점)","tel":"","addr":"경기도 남양주시 다산동 676-6번지 금산프라자 101호","indutype":"음료식품 - 기타음료식품","category":"food"}]},{"lat":"37.60747552","long":"127.15237257","imageIndex":7,"items":[{"name":"약손건강원","tel":"031-592-7373","addr":"경기도 남양주시 다산동 4296-4번지 1층 1호","indutype":"건강식품 - 기타건강식품","category":"food"}]},{"lat":"37.610728005","long":"127.15240173","imageIndex":7,"items":[{"name":"오션 랍스터","tel":"031-603-8778","addr":"경기도 남양주시 다산동 4338-21번지","indutype":"음료식품 - 농·축·수산품","category":"food"}]},{"lat":"37.602894544","long":"127.15551157","imageIndex":7,"items":[{"name":"용이네축산","tel":"031-557-7868","addr":"경기도 남양주시 다산동 669번지 남양주가운마을휴먼시아1단지 1층 104호","indutype":"음료식품 - 정육점","category":"food"},{"name":"청화F&B","tel":"031-576-9154","addr":"경기도 남양주시 다산동 669번지 남양주가운마을휴먼시아1단지 102동 408호","indutype":"음료식품 - 기타음료식품","category":"food"}]},{"lat":"37.609197124","long":"127.1517871","imageIndex":7,"items":[{"name":"우성건강원","tel":"031-511-2594","addr":"경기도 남양주시 다산동 4306-60번지","indutype":"건강식품 - 기타건강식품","category":"food"}]},{"lat":"37.623586511","long":"127.1648424","imageIndex":7,"items":[{"name":"은빛농원","tel":"031-555-1160","addr":"경기도 남양주시 다산동 3310-5번지","indutype":"음료식품 - 농·축·수산품","category":"food"}]},{"lat":"37.612251528","long":"127.16537278","imageIndex":7,"items":[{"name":"이듦","tel":"","addr":"경기도 남양주시 다산동 6170-3번지 다산지금지구 F2-7-4 103호","indutype":"음료식품 - 기타음료식품","category":"food"}]},{"lat":"37.62266603","long":"127.15231236","imageIndex":7,"items":[{"name":"잭슨바나나(JB푸드)","tel":"","addr":"경기도 남양주시 다산동 3666-10번지 다산퍼스트타워1층 105호","indutype":"음료식품 - 농·축·수산품","category":"food"}]},{"lat":"37.605783571","long":"127.15789568","imageIndex":7,"items":[{"name":"정관장홍삼도농역점","tel":"031-565-2304","addr":"경기도 남양주시 다산동 4114-23번지 ,114-35","indutype":"건강식품 - 홍삼제품","category":"food"},{"name":"정관장홍삼도농역점","tel":"031-565-2304","addr":"경기도 남양주시 다산동 4114-23번지 ,114-35","indutype":"건강식품 - 홍삼제품","category":"food"}]},{"lat":"37.609835582","long":"127.15276236","imageIndex":7,"items":[{"name":"조은닥종합유통","tel":"031-562-2434","addr":"경기도 남양주시 다산동 4299번지","indutype":"음료식품 - 정육점","category":"food"}]},{"lat":"37.598088548","long":"127.171536","imageIndex":7,"items":[{"name":"종합민속제과","tel":"070-4325-8005","addr":"경기도 남양주시 다산동 6235번지 금강펜테리움리버테라스2 7509동 2001호","indutype":"음료식품 - 기타음료식품","category":"food"}]},{"lat":"37.607252798","long":"127.1503676","imageIndex":7,"items":[{"name":"착한푸줏간","tel":"031-528-6263","addr":"경기도 남양주시 다산동 4432-2번지 남양아이좋은집 2층 208호","indutype":"음료식품 - 정육점","category":"food"}]},{"lat":"37.608813604","long":"127.15578415","imageIndex":7,"items":[{"name":"천마정육점","tel":"031-563-6631","addr":"경기도 남양주시 다산동 4032번지","indutype":"음료식품 - 정육점","category":"food"}]},{"lat":"37.601535166","long":"127.17439746","imageIndex":7,"items":[{"name":"청도한우한돈정육점","tel":"031-562-9888","addr":"경기도 남양주시 다산동 6216번지 보람프라자 2층 201,202호","indutype":"음료식품 - 정육점","category":"food"}]},{"lat":"37.606142497","long":"127.15900626","imageIndex":7,"items":[{"name":"충남건강원","tel":"031-563-2584","addr":"경기도 남양주시 다산동 617-64번지 가운상가 1층 101호","indutype":"건강식품 - 기타건강식품","category":"food"}]},{"lat":"37.606141447","long":"127.15286819","imageIndex":7,"items":[{"name":"커닝시티(kerning city)","tel":"","addr":"경기도 남양주시 다산동 4436-1번지 도농센트레빌 상가동 1층 105호","indutype":"음료식품 - 제과점","category":"food"}]},{"lat":"37.622256329","long":"127.15564176","imageIndex":7,"items":[{"name":"커피체리","tel":"","addr":"경기도 남양주시 다산동 6091번지 다산자연앤e편한세상 5105동 1602호","indutype":"음료식품 - 기타음료식품","category":"food"}]},{"lat":"37.619305435","long":"127.15228298","imageIndex":7,"items":[{"name":"코리아축산(다산중앙)","tel":"","addr":"경기도 남양주시 다산동 6133번지 다산이편한세상자이 108호","indutype":"음료식품 - 정육점","category":"food"}]},{"lat":"37.611449631","long":"127.16539369","imageIndex":7,"items":[{"name":"코스트몰(COST Mall)","tel":"","addr":"경기도 남양주시 다산동 6180번지 다산지금지구 F2-10-1 101호","indutype":"음료식품 - 기타음료식품","category":"food"}]},{"lat":"37.608142427","long":"127.15222668","imageIndex":7,"items":[{"name":"큰마당정육마트","tel":"031-554-3939","addr":"경기도 남양주시 다산동 4302-31번지","indutype":"음료식품 - 정육점","category":"food"}]},{"lat":"37.604341238","long":"127.15848156","imageIndex":7,"items":[{"name":"파리바게뜨 가운지구","tel":"031-553-8245","addr":"경기도 남양주시 다산동 666-3번지 외1필지드림프라자 110호","indutype":"음료식품 - 제과점","category":"food"}]},{"lat":"37.620031234","long":"127.14826337","imageIndex":7,"items":[{"name":"파리바게뜨 다산가람초교점","tel":"031-522-1977","addr":"경기도 남양주시 다산동 6079-2번지 105,106호","indutype":"음료식품 - 제과점","category":"food"}]},{"lat":"37.625200139","long":"127.1504257","imageIndex":7,"items":[{"name":"파리바게뜨 다산역점","tel":"","addr":"경기도 남양주시 다산동 6063번지 1층 105호 106호","indutype":"음료식품 - 제과점","category":"food"}]},{"lat":"37.600203774","long":"127.17297891","imageIndex":7,"items":[{"name":"파리바게뜨(다산한강초교점)","tel":"031-565-8233","addr":"경기도 남양주시 다산동 6222-1번지 1층 일부","indutype":"음료식품 - 제과점","category":"food"}]},{"lat":"37.608251173","long":"127.15172859","imageIndex":7,"items":[{"name":"파리바게트-도농남양점","tel":"031-552-9222","addr":"경기도 남양주시 다산동 4306-5번지 연성프라자 108호","indutype":"음료식품 - 제과점","category":"food"}]},{"lat":"37.618562103","long":"127.16262279","imageIndex":7,"items":[{"name":"판도라런치","tel":"","addr":"경기도 남양주시 다산동 6119-2번지 다산지금지구 F1-2-3 202호","indutype":"음료식품 - 기타음료식품","category":"food"}]},{"lat":"37.618534178","long":"127.14942711","imageIndex":7,"items":[{"name":"포천농장","tel":"031-552-0926","addr":"경기도 남양주시 다산동 4366-2번지 창고2동중1동내","indutype":"음료식품 - 기타음료식품","category":"food"}]},{"lat":"37.623639962","long":"127.16528429","imageIndex":7,"items":[{"name":"푸드인월드","tel":"031-565-5115","addr":"경기도 남양주시 다산동 3309번지 ,310","indutype":"음료식품 - 기타음료식품","category":"food"}]},{"lat":"37.621140625","long":"127.1472914","imageIndex":7,"items":[{"name":"한돈한우 정육점","tel":"031-553-1515","addr":"경기도 남양주시 다산동 6077번지 화성프라자 201호","indutype":"음료식품 - 정육점","category":"food"},{"name":"황금떡방","tel":"031-566-7696","addr":"경기도 남양주시 다산동 6077번지 화성프라자 1층 105호","indutype":"음료식품 - 제과점","category":"food"}]},{"lat":"37.605980905","long":"127.15856425","imageIndex":7,"items":[{"name":"한우암소판매","tel":"031-569-1786","addr":"경기도 남양주시 다산동 567-9번지","indutype":"음료식품 - 정육점","category":"food"}]},{"lat":"37.607863026","long":"127.15925901","imageIndex":7,"items":[{"name":"핫브레드 도농역점","tel":"031-569-0964","addr":"경기도 남양주시 다산동 4056-1번지 3층","indutype":"음료식품 - 제과점","category":"food"}]},{"lat":"37.614806396","long":"127.16161806","imageIndex":7,"items":[{"name":"해성한우촌정육점","tel":"031-551-2159","addr":"경기도 남양주시 다산동 3391-58번지","indutype":"음료식품 - 정육점","category":"food"}]},{"lat":"37.622116331","long":"127.15934549","imageIndex":7,"items":[{"name":"현대정육점","tel":"031-555-5492","addr":"경기도 남양주시 다산동 6095-1번지 다산진건지구 F2-1-2 101호","indutype":"음료식품 - 정육점","category":"food"}]},{"lat":"37.629700505","long":"127.15398039","imageIndex":7,"items":[{"name":"횡성한우","tel":"031-552-5252","addr":"경기도 남양주시 다산동 6014번지 다산반도유보라메이플타운 2동 111호","indutype":"음료식품 - 정육점","category":"food"},{"name":"횡성한우마을","tel":"031-552-5252","addr":"경기도 남양주시 다산동 6014번지 다산반도유보라메이플타운 2동 111호","indutype":"음료식품 - 정육점","category":"food"}]},{"lat":"37.622034284","long":"127.14589987","imageIndex":16,"items":[{"name":"(시립)다산골든뷰 어린이집[아이행복]","tel":"031-554-9004","addr":"경기도 남양주시 다산동 6025번지 다산진건지구 C-1BL","indutype":"학원 - 유아원","category":"study"},{"name":"유승어린이집[아이행복]","tel":"031-552-1050","addr":"경기도 남양주시 다산동 6025번지 유승한내들골든뷰 3103동 101호","indutype":"학원 - 유아원","category":"study"},{"name":"해법공부방","tel":"","addr":"경기도 남양주시 다산동 6025번지 유승한내들골든뷰 3106동 403호","indutype":"학원 - 기타 교육기관","category":"study"}]},{"lat":"37.600065127","long":"127.17539059","imageIndex":16,"items":[{"name":"(시립)다산아이리움어린이집[아이행복]","tel":"031-564-7943","addr":"경기도 남양주시 다산동 6215번지","indutype":"학원 - 유아원","category":"study"},{"name":"개인과외","tel":"","addr":"경기도 남양주시 다산동 6215번지 다산펜테리움리버테라스 7303동 101호","indutype":"학원 - 기타 교육기관","category":"study"},{"name":"금강자연뜰어린이집[아이행복]","tel":"031-552-7955","addr":"경기도 남양주시 다산동 6215번지 다산 펜테리움 리버테라스I 7308동 101호","indutype":"학원 - 유아원","category":"study"},{"name":"다산금강어린이집[아이행복]","tel":"031-513-7009","addr":"경기도 남양주시 다산동 6215번지 다산 펜테리움 리버테라스I 7307동 101호","indutype":"학원 - 유아원","category":"study"},{"name":"산들다산어린이집[아이행복]","tel":"031-510-0801","addr":"경기도 남양주시 다산동 6215번지 다산 펜테리움 리버테라스I 7305동 103호","indutype":"학원 - 유아원","category":"study"},{"name":"온스터디","tel":"031-0000-0000","addr":"경기도 남양주시 다산동 6215번지 다산펜테리움리버테라스1 7303동 401호","indutype":"학원 - 기타 교육기관","category":"study"}]},{"lat":"37.595649194","long":"127.16992259","imageIndex":16,"items":[{"name":"(시립)다산퍼스트리버어린이집[아이행복]","tel":"031-556-1331","addr":"경기도 남양주시 다산동 540번지 B-6BL","indutype":"학원 - 유아원","category":"study"},{"name":"신안꿈 어린이집[아이행복]","tel":"031-556-2255","addr":"경기도 남양주시 다산동 540번지 신안인스빌퍼스트리버 7602동 102호","indutype":"학원 - 유아원","category":"study"}]},{"lat":"37.611591805","long":"127.16020684","imageIndex":16,"items":[{"name":"1등급수학과외방","tel":"02-6340-5359","addr":"경기도 남양주시 다산동 4002-1번지 부영그린타운 101동 101호 부영그린타운","indutype":"회원제형태 - 학원","category":"study"},{"name":"Aster's 영어과외방","tel":"070-0310-0306","addr":"경기도 남양주시 다산동 4002-1번지 부영그린타운 203동 802호","indutype":"학원 - 보습학원","category":"study"},{"name":"가온누리어린이집[아이행복]","tel":"031-556-6148","addr":"경기도 남양주시 다산동 4002-1번지 부영그린타운 204동 101호","indutype":"학원 - 유아원","category":"study"},{"name":"개인과외","tel":"","addr":"경기도 남양주시 다산동 4002-1번지 부영그린타운 401동 203호","indutype":"학원 - 기타 교육기관","category":"study"},{"name":"글로리아","tel":"070-7553-4796","addr":"경기도 남양주시 다산동 4002-1번지 부영그린타운 312동 1302호","indutype":"학원 - 예·체능계학원","category":"study"},{"name":"금교초등학교병설유치원[아이행복]","tel":"031-555-5566","addr":"경기도 남양주시 다산동 4002-1번지 부영그린타운","indutype":"학원 - 유치원","category":"study"},{"name":"길벗미술심리센터","tel":"031-557-1491","addr":"경기도 남양주시 다산동 4002-1번지 부영그린타운 213동 503호","indutype":"회원제형태 - 학원","category":"study"},{"name":"다영어린이집[아이행복]","tel":"031-555-3639","addr":"경기도 남양주시 다산동 4002-1번지 부영그린타운2단지 관리동 1층 다영어린이집","indutype":"학원 - 유아원","category":"study"},{"name":"도농아이꿈터어린이집[아이행복]","tel":"031-558-7971","addr":"경기도 남양주시 다산동 4002-1번지 부영그린타운 514동 102호","indutype":"학원 - 유아원","category":"study"},{"name":"도농아이꿈터어린이집[아이행복]","tel":"031-558-7971","addr":"경기도 남양주시 다산동 4002-1번지 부영그린타운 514동 102호","indutype":"학원 - 유아원","category":"study"},{"name":"두뇌로 화도. 수동지사","tel":"","addr":"경기도 남양주시 다산동 4002-1번지 부영그린타운 310동 2402호","indutype":"학원 - 학습지 교육","category":"study"},{"name":"마이퍼스트뮤직 남양주점","tel":"","addr":"경기도 남양주시 다산동 4002-1번지 부영그린타운 503동 204호","indutype":"학원 - 예·체능계학원","category":"study"},{"name":"뮤엠영어 도농금교네스트(NEST)","tel":"031-557-2077","addr":"경기도 남양주시 다산동 4002-1번지 부영그린타운 208동 1101호","indutype":"회원제형태 - 학원","category":"study"},{"name":"믿음사","tel":"031-555-8817","addr":"경기도 남양주시 다산동 4002-1번지 부영그린타운 108동 104호","indutype":"학원 - 기타 교육기관","category":"study"},{"name":"베리타스 스터디","tel":"031-567-6631","addr":"경기도 남양주시 다산동 4002-1번지 부영그린타운 205동 1901호","indutype":"학원 - 기타 교육기관","category":"study"},{"name":"부영라온어린이집[아이행복]","tel":"031-574-8946","addr":"경기도 남양주시 다산동 4002-1번지 부영그린타운 502동 102호","indutype":"학원 - 유아원","category":"study"},{"name":"부영아이꿈터어린이집[아이행복]","tel":"031-564-7971","addr":"경기도 남양주시 다산동 4002-1번지 부영그린타운 310동 104호","indutype":"학원 - 유아원","category":"study"},{"name":"부영아이뜰어린이집[아이행복]","tel":"031-553-1938","addr":"경기도 남양주시 다산동 4002-1번지 부영그린타운 503동 102호","indutype":"학원 - 유아원","category":"study"},{"name":"부영아이랑어린이집[아이행복]","tel":"031-568-7979","addr":"경기도 남양주시 다산동 4002-1번지 부영아파트 508동 102호","indutype":"학원 - 유아원","category":"study"},{"name":"부영어린이집[아이행복]","tel":"031-558-5599","addr":"경기도 남양주시 다산동 4002-1번지 부영그린타운 관리사무소 1층","indutype":"학원 - 유아원","category":"study"},{"name":"부영예송어린이집[아이행복]","tel":"031-591-2775","addr":"경기도 남양주시 다산동 4002-1번지 부영그린타운 110동 102호","indutype":"학원 - 유아원","category":"study"},{"name":"부영행복한어린이집[아이행복]","tel":"031-512-3300","addr":"경기도 남양주시 다산동 4002-1번지 부영그린타운 105동 101호 부영그린타운","indutype":"학원 - 유아원","category":"study"},{"name":"새날어린이집[아이행복]","tel":"031-555-0801","addr":"경기도 남양주시 다산동 4002-1번지 부영그린타운1단지 관리사무소","indutype":"학원 - 유아원","category":"study"},{"name":"성지학당","tel":"","addr":"경기도 남양주시 다산동 4002-1번지 부영그린타운 106동 1904호","indutype":"학원 - 기타 교육기관","category":"study"},{"name":"소미잉글리쉬","tel":"","addr":"경기도 남양주시 다산동 4002-1번지 부영그린타운 305동 303호","indutype":"학원 - 기타 교육기관","category":"study"},{"name":"써니빌영어","tel":"02-1111-1111","addr":"경기도 남양주시 다산동 4002-1번지 부영그린타운 107동 2003호","indutype":"학원 - 기타 교육기관","category":"study"},{"name":"아트앤하트 도농부영 미술홈스쿨","tel":"070-4082-1637","addr":"경기도 남양주시 다산동 4002-1번지 부영그린타운 504동 1901호","indutype":"학원 - 예·체능계학원","category":"study"},{"name":"알로블레어","tel":"031-555-5150","addr":"경기도 남양주시 다산동 4002-1번지 부영그린타운 A동 202호","indutype":"학원 - 예·체능계학원","category":"study"},{"name":"에버그린어린이집[아이행복]","tel":"031-556-7705","addr":"경기도 남양주시 다산동 4002-1번지 부영그린타운 관리동","indutype":"학원 - 유아원","category":"study"},{"name":"이룸김현주수학","tel":"031-567-4222","addr":"경기도 남양주시 다산동 4002-1번지 부영그린타운 401동 1505호","indutype":"학원 - 보습학원","category":"study"},{"name":"제이앤제이영어(J&J English)","tel":"070-7745-3183","addr":"경기도 남양주시 다산동 4002-1번지 부영그린타운 504동 902호","indutype":"학원 - 외국어학원","category":"study"},{"name":"지혜를 알아가는 교실","tel":"031--558-5543","addr":"경기도 남양주시 다산동 4002-1번지 부영그린타운 216동 303호","indutype":"학원 - 보습학원","category":"study"},{"name":"천지인국어탐구","tel":"031-591-9799","addr":"경기도 남양주시 다산동 4002-1번지 부영그린타운 307동 4층 404호","indutype":"학원 - 기타 교육기관","category":"study"},{"name":"크는나무 어린이집[아이행복]","tel":"031-555-7277","addr":"경기도 남양주시 다산동 4002-1번지 부영그린타운 306동 102호","indutype":"학원 - 유아원","category":"study"},{"name":"템스 에듀케이션","tel":"070-4825-3501","addr":"경기도 남양주시 다산동 4002-1번지 부영그린타운 513동 2503호","indutype":"학원 - 기타 교육기관","category":"study"},{"name":"튼튼이어린이집[아이행복]","tel":"031-555-8223","addr":"경기도 남양주시 다산동 4002-1번지 부영그린타운 303동 102호","indutype":"학원 - 유아원","category":"study"},{"name":"품속어린이집[아이행복]","tel":"031-558-7953","addr":"경기도 남양주시 다산동 4002-1번지 부영그린타운 401동 106호","indutype":"학원 - 유아원","category":"study"},{"name":"하나린","tel":"","addr":"경기도 남양주시 다산동 4002-1번지 부영그린타운 107동 1층 2호","indutype":"학원 - 기타 교육기관","category":"study"},{"name":"햇살마루 어린이집[아이행복]","tel":"031-558-0070","addr":"경기도 남양주시 다산동 4002-1번지 부영그린타운 209동 101호","indutype":"학원 - 유아원","category":"study"},{"name":"희망제작소","tel":"","addr":"경기도 남양주시 다산동 4002-1번지 부영그린타운 215동 701호","indutype":"학원 - 기타 교육기관","category":"study"}]},{"lat":"37.622256329","long":"127.15564176","imageIndex":16,"items":[{"name":"A+수학의달인","tel":"070-4922-1261","addr":"경기도 남양주시 다산동 6091번지 다산자연앤e편한세상 5103동 201호","indutype":"학원 - 기타 교육기관","category":"study"},{"name":"e-해법수학 공부방 다산e편한세상","tel":"031-3647-7662","addr":"경기도 남양주시 다산동 6091번지 다산자연앤e편한세상 5112동 205호","indutype":"학원 - 기타 교육기관","category":"study"},{"name":"다산맘편한어린이집[아이행복]","tel":"031-566-3331","addr":"경기도 남양주시 다산동 6091번지 다산자연앤e편한세상 5101동 104호","indutype":"학원 - 유아원","category":"study"},{"name":"다산행복한어린이집[아이행복]","tel":"031-571-5242","addr":"경기도 남양주시 다산동 6091번지 다산자연앤e편한세상 5112동 105호","indutype":"학원 - 유아원","category":"study"},{"name":"수호천사어린이집[아이행복]","tel":"031-512-9276","addr":"경기도 남양주시 다산동 6091번지 자연&e편한세상 5105동 102호","indutype":"학원 - 유아원","category":"study"},{"name":"스카이수학공부방","tel":"031-548-7845","addr":"경기도 남양주시 다산동 6091번지 다산자연앤e편한세상 5108동 101호","indutype":"학원 - 기타 교육기관","category":"study"},{"name":"시립다산e편한어린이집[아이행복]","tel":"031-563-6789","addr":"경기도 남양주시 다산동 6091번지 다산자연앤e편한세상 내","indutype":"학원 - 유아원","category":"study"},{"name":"영어개인교습","tel":"031-000-0000","addr":"경기도 남양주시 다산동 6091번지 다산자연앤E편한세상 5113동 201호","indutype":"학원 - 기타 교육기관","category":"study"},{"name":"예솜어린이집[아이행복]","tel":"031-512-1885","addr":"경기도 남양주시 다산동 6091번지 다산자연앤e편한세상 5107동 105호","indutype":"학원 - 유아원","category":"study"},{"name":"해뜨는강산어린이집[아이행복]","tel":"031-567-8353","addr":"경기도 남양주시 다산동 6091번지 다산자연앤e편한세상 5102동 105호","indutype":"학원 - 유아원","category":"study"}]},{"lat":"37.609279423","long":"127.16456222","imageIndex":16,"items":[{"name":"BM미용학원","tel":"031-551-6788","addr":"경기도 남양주시 다산동 3135-1번지 외3필지 3층 일부","indutype":"회원제형태 - 학원","category":"study"},{"name":"하베르예능(음악)교육","tel":"031-513-1279","addr":"경기도 남양주시 다산동 3135-1번지 갈산빌딩 B101호","indutype":"학원 - 예·체능계학원","category":"study"}]},{"lat":"37.60925417","long":"127.16325975","imageIndex":16,"items":[{"name":"Y2M와이투엠수학학원","tel":"031-554-0451","addr":"경기도 남양주시 다산동 3130-7번지 2층 203호","indutype":"학원 - 보습학원","category":"study"}]},{"lat":"37.629700505","long":"127.15398039","imageIndex":16,"items":[{"name":"e-해법수학 다산반도유보라점","tel":"","addr":"경기도 남양주시 다산동 6014번지 다산반도유보라메이플타운 2104호 1704호","indutype":"학원 - 기타 교육기관","category":"study"},{"name":"노래하는크레용 구리지사","tel":"070-4799-6841","addr":"경기도 남양주시 다산동 6014번지 다산반도유보라메이플타운 2111동 1702호","indutype":"학원 - 학습지 교육","category":"study"},{"name":"늘품어린이집[아이행복]","tel":"031-516-3233","addr":"경기도 남양주시 다산동 6014번지 다산반도유보라메이플타운 2108동 101호","indutype":"학원 - 유아원","category":"study"},{"name":"다산메이플어린이집[아이행복]","tel":"","addr":"경기도 남양주시 다산동 6014번지 반도유보라메이플타운","indutype":"학원 - 유아원","category":"study"},{"name":"다산유보라어린이집[아이행복]","tel":"031-562-8710","addr":"경기도 남양주시 다산동 6014번지 다산반도유보라메이플타운 2109동 103호","indutype":"학원 - 유아원","category":"study"},{"name":"뮤엔무교육(아이손)","tel":"055-314-1250","addr":"경기도 남양주시 다산동 6014번지 다산반도유보라메이플타운 2101동 104호","indutype":"학원 - 예·체능계학원","category":"study"},{"name":"반도별어린이집[아이행복]","tel":"031-565-8680","addr":"경기도 남양주시 다산동 6014번지 다산반도유보라메이플타운 2101동 102호","indutype":"학원 - 유아원","category":"study"},{"name":"반도빛나어린이집[아이행복]","tel":"031-555-2340","addr":"경기도 남양주시 다산동 6014번지 다산반도유보라메이플타운 2106동 101호","indutype":"학원 - 유아원","category":"study"}]},{"lat":"37.600613195","long":"127.15695638","imageIndex":16,"items":[{"name":"e해법수학가운수학교습소","tel":"031-565-7354","addr":"경기도 남양주시 다산동 676-4번지 메티스프라자 105호 일부","indutype":"학원 - 보습학원","category":"study"},{"name":"가운태권도","tel":"031-555-1714","addr":"경기도 남양주시 다산동 676-4번지 메티스프라자 304호","indutype":"학원 - 예·체능계학원","category":"study"},{"name":"메리피아노음악학원","tel":"031-566-6653","addr":"경기도 남양주시 다산동 676-4번지 메티스프라자 201호,202호","indutype":"학원 - 예·체능계학원","category":"study"},{"name":"최명훈9단 가운바둑학원","tel":"031-558-3363","addr":"경기도 남양주시 다산동 676-4번지 메티스프라자 303호","indutype":"학원 - 기타 교육기관","category":"study"}]},{"lat":"37.599224717","long":"127.15770089","imageIndex":16,"items":[{"name":"가우스학원","tel":"031-555-6617","addr":"경기도 남양주시 다산동 679-6번지 가운프라자 302호","indutype":"학원 - 보습학원","category":"study"},{"name":"생각의숲학원","tel":"031-557-2472","addr":"경기도 남양주시 다산동 679-6번지 가운프라자 402호","indutype":"학원 - 보습학원","category":"study"},{"name":"엄지키즈태권도","tel":"031-557-1272","addr":"경기도 남양주시 다산동 679-6번지 가운프라자 401호","indutype":"학원 - 예·체능계학원","category":"study"},{"name":"에프티케이(FTK)어학원","tel":"031-565-8400","addr":"경기도 남양주시 다산동 679-6번지 가운프라자 301호","indutype":"학원 - 외국어학원","category":"study"},{"name":"차일드유 가운캠퍼스 영어학원","tel":"031-554-0509","addr":"경기도 남양주시 다산동 679-6번지 가운프라자 402호","indutype":"학원 - 외국어학원","category":"study"}]},{"lat":"37.599396006","long":"127.15762198","imageIndex":16,"items":[{"name":"가운 정인학원","tel":"031-565-0828","addr":"경기도 남양주시 다산동 679-5번지 맥산빌딩 3층","indutype":"학원 - 보습학원","category":"study"},{"name":"웅진스토리수학학원","tel":"031-555-5233","addr":"경기도 남양주시 다산동 679-5번지 맥산빌딩 201호","indutype":"학원 - 보습학원","category":"study"}]},{"lat":"37.601584615","long":"127.15820404","imageIndex":16,"items":[{"name":"가운강산어린이집[아이행복]","tel":"031-554-8353","addr":"경기도 남양주시 다산동 673번지","indutype":"학원 - 유아원","category":"study"}]},{"lat":"37.598116992","long":"127.15733624","imageIndex":16,"items":[{"name":"가운리베도만스쿨어린이집[아이행복]","tel":"031-565-3004","addr":"경기도 남양주시 다산동 681번지 휴먼시아 702동 101호","indutype":"학원 - 유아원","category":"study"}]},{"lat":"37.597396671","long":"127.15698372","imageIndex":16,"items":[{"name":"가운사랑해어린이집[아이행복]","tel":"031-556-1776","addr":"경기도 남양주시 다산동 693-1번지 1층","indutype":"학원 - 유아원","category":"study"}]},{"lat":"37.600369755","long":"127.15709177","imageIndex":16,"items":[{"name":"가운지비앤학원","tel":"031-558-9905","addr":"경기도 남양주시 다산동 676-6번지 금산프라자 303호","indutype":"학원 - 외국어학원","category":"study"},{"name":"뮤엠영어다솔학원","tel":"031-554-0582","addr":"경기도 남양주시 다산동 676-6번지 금산프라자 201호","indutype":"학원 - 보습학원","category":"study"},{"name":"영재들의미술상자학원","tel":"","addr":"경기도 남양주시 다산동 676-6번지 금산프라자 202호","indutype":"학원 - 예·체능계학원","category":"study"},{"name":"용인대석사태권도장","tel":"031-558-0209","addr":"경기도 남양주시 다산동 676-6 금산프라자 402","indutype":"학원 - 예·체능계학원","category":"study"},{"name":"정윤희음악학원","tel":"031-554-3363","addr":"경기도 남양주시 다산동 676-6번지 금산프라자 401호","indutype":"학원 - 예·체능계학원","category":"study"}]},{"lat":"37.600452287","long":"127.15598219","imageIndex":16,"items":[{"name":"가운초등학교병설유치원[아이행복]","tel":"031-558-3803","addr":"경기도 남양주시 다산동 677번지","indutype":"학원 - 유치원","category":"study"}]},{"lat":"37.599645935","long":"127.15940034","imageIndex":16,"items":[{"name":"가운휴먼시아어린이집[아이행복]","tel":"031-512-7987","addr":"경기도 남양주시 다산동 683번지 남양주가운마을휴먼시아5단지","indutype":"학원 - 유아원","category":"study"},{"name":"두뇌로 파주지사","tel":"","addr":"경기도 남양주시 다산동 683번지 남양주가운마을휴먼시아5단지 506동 802호","indutype":"학원 - 기타 교육기관","category":"study"}]},{"lat":"37.606726657","long":"127.16011732","imageIndex":16,"items":[{"name":"강남수학교습소","tel":"031-512-1077","addr":"경기도 남양주시 다산동 4113-18번지 202호","indutype":"학원 - 보습학원","category":"study"}]},{"lat":"37.628110768","long":"127.15709242","imageIndex":16,"items":[{"name":"강의하는아이들다산학원","tel":"031-555-9090","addr":"경기도 남양주시 다산동 6030-3번지 에이플러스 모닝프라자 504호","indutype":"학원 - 보습학원","category":"study"},{"name":"다산GnB영어학원","tel":"031-555-4487","addr":"경기도 남양주시 다산동 6030-3번지 A+모닝프라자 4층 404호","indutype":"학원 - 외국어학원","category":"study"},{"name":"베짱이 음악학원","tel":"031-567-0960","addr":"경기도 남양주시 다산동 6030-3번지 다산진건지구 근생1-1-4 505호","indutype":"학원 - 예·체능계학원","category":"study"},{"name":"삼성영어한솔수학학원","tel":"","addr":"경기도 남양주시 다산동 6030-3번지 다산진건지구 근생1-1-4 302호","indutype":"학원 - 보습학원","category":"study"}]},{"lat":"37.598088548","long":"127.171536","imageIndex":16,"items":[{"name":"개인과외","tel":"","addr":"경기도 남양주시 다산동 6235번지 금강펜테리움리버테라스2 7503동 1층 102호","indutype":"학원 - 기타 교육기관","category":"study"},{"name":"개인과외(서민정)","tel":"","addr":"경기도 남양주시 다산동 6235번지 금강펜테리움리버테라스2 7511동 404호","indutype":"학원 - 기타 교육기관","category":"study"},{"name":"다산금강2차 한솔플러스수학","tel":"031-0000-0000","addr":"경기도 남양주시 다산동 6235번지 금강펜테리움리버테라스2 7510동 1층 2호","indutype":"학원 - 기타 교육기관","category":"study"},{"name":"다산새싹어린이집[아이행복]","tel":"031-512-2555","addr":"경기도 남양주시 다산동 6235번지 7506동 103호","indutype":"학원 - 유아원","category":"study"},{"name":"다산큰빛어린이집[아이행복]","tel":"031-514-0766","addr":"경기도 남양주시 다산동 6235번지 금강펜테리움리버테라스2 7505동 103호","indutype":"학원 - 유아원","category":"study"},{"name":"새봄어린이집[아이행복]","tel":"031-514-8642","addr":"경기도 남양주시 다산동 6235번지 금강펜테리움리버테라스2 7503동 103호","indutype":"학원 - 유아원","category":"study"},{"name":"아소비공부방","tel":"","addr":"경기도 남양주시 다산동 6235번지 금강펜테리움리버테라스2 7502동 1301호","indutype":"학원 - 기타 교육기관","category":"study"},{"name":"조이플 피아노","tel":"","addr":"경기도 남양주시 다산동 6235번지 금강펜테리움리버테라스2 7507동 1203호","indutype":"학원 - 기타 교육기관","category":"study"},{"name":"푸른금강 어린이집[아이행복]","tel":"031-514-8577","addr":"경기도 남양주시 다산동 6235번지 금강펜테리움리버테라스2 715동 103호","indutype":"학원 - 유아원","category":"study"},{"name":"행복한우리어린이집[아이행복]","tel":"031-565-3636","addr":"경기도 남양주시 다산동 6235번지 금강펜테리움리버테라스2 7509동 101호","indutype":"학원 - 유아원","category":"study"}]},{"lat":"37.623361361","long":"127.1580681","imageIndex":16,"items":[{"name":"개인과외교습","tel":"","addr":"경기도 남양주시 다산동 6092번지 힐스테이트다산 5202동 303호","indutype":"학원 - 기타 교육기관","category":"study"},{"name":"그림아트스튜디오","tel":"","addr":"경기도 남양주시 다산동 6092번지 힐스테이트다산 5211동 202호","indutype":"학원 - 기타 교육기관","category":"study"},{"name":"다산도담어린이집[아이행복]","tel":"031-567-2800","addr":"경기도 남양주시 다산동 6092번지 힐스테이트다산 5207동 102호","indutype":"학원 - 유아원","category":"study"},{"name":"다산트윙클어린이집[아이행복]","tel":"031-848-8757","addr":"경기도 남양주시 다산동 6092번지 힐스테이트다산 5201동 101호","indutype":"학원 - 유아원","category":"study"},{"name":"류수림","tel":"","addr":"경기도 남양주시 다산동 6092번지 힐스테이트다산 5210동 204호","indutype":"학원 - 기타 교육기관","category":"study"},{"name":"새봄에듀","tel":"031-000-0000","addr":"경기도 남양주시 다산동 6092번지 힐스테이트다산 5209동 1층 101호","indutype":"학원 - 기타 교육기관","category":"study"},{"name":"시립다산힐스어린이집[아이행복]","tel":"","addr":"경기도 남양주시 다산동 6092번지 힐스테이트다산 다산진건지구 8-9BL","indutype":"학원 - 유아원","category":"study"},{"name":"해피트리어린이집[아이행복]","tel":"031-527-1063","addr":"경기도 남양주시 다산동 6092번지 힐스테이트다산 5205동 101호","indutype":"학원 - 유아원","category":"study"}]},{"lat":"37.615221892","long":"127.16083743","imageIndex":16,"items":[{"name":"공부하는 독서실","tel":"031-554-4225","addr":"경기도 남양주시 다산동 3391-55번지 3층","indutype":"학원 - 독서실","category":"study"},{"name":"비전스페이스","tel":"031-569-1199","addr":"경기도 남양주시 다산동 3391-55번지","indutype":"학원 - 기타 교육기관","category":"study"}]},{"lat":"37.600203169","long":"127.1733979","imageIndex":16,"items":[{"name":"공씨네독서논술교습소","tel":"031-000-0000","addr":"경기도 남양주시 다산동 6217-6번지 일부 대길프라자 301호","indutype":"학원 - 보습학원","category":"study"},{"name":"다산 용인대 석사 경일 태권도","tel":"031-558-9981","addr":"경기도 남양주시 다산동 6217-6번지 다산지금지구 근생7-6 502호","indutype":"학원 - 예·체능계학원","category":"study"},{"name":"다산라벨비음악학원","tel":"031-565-0565","addr":"경기도 남양주시 다산동 6217-6번지 다산지금지구 근생7-6 501호","indutype":"학원 - 예·체능계학원","category":"study"},{"name":"더뮤즈음악학원","tel":"031-552-1233","addr":"경기도 남양주시 다산동 6217-6번지 다산지금지구 근생7-6 403호","indutype":"학원 - 예·체능계학원","category":"study"},{"name":"리드N영어수학학원","tel":"031-555-5755","addr":"경기도 남양주시 다산동 6217-6번지 대길프라자 503호, 504호","indutype":"학원 - 보습학원","category":"study"},{"name":"아트인 미술 교습소","tel":"070-8945-3313","addr":"경기도 남양주시 다산동 6217-6번지 대길프라자 5층 505호","indutype":"학원 - 예·체능계학원","category":"study"},{"name":"프라임수학학원","tel":"031-565-0022","addr":"경기도 남양주시 다산동 6217-6번지 다산지금지구 근생7-6 401호","indutype":"학원 - 보습학원","category":"study"},{"name":"프라임영어학원","tel":"031-568-0555","addr":"경기도 남양주시 다산동 6217-6번지 대길프라자 4층 404호","indutype":"학원 - 보습학원","category":"study"},{"name":"해법수학셀파수학교실수학교습소","tel":"031-542-5510","addr":"경기도 남양주시 다산동 6217-6번지 다산지금지구 근생7-6 405호","indutype":"학원 - 보습학원","category":"study"}]},{"lat":"37.625698478","long":"127.15530897","imageIndex":16,"items":[{"name":"공터영어&매쓰몬","tel":"","addr":"경기도 남양주시 다산동 6053번지 다산진건지구 상업2(7)-1,2 8층 801, 802, 803호","indutype":"학원 - 외국어학원","category":"study"},{"name":"다산이룸수학학원","tel":"031-553-3240","addr":"경기도 남양주시 다산동 6053번지 KB골든타워 608호","indutype":"학원 - 보습학원","category":"study"},{"name":"더 피아니스트 음악학원","tel":"","addr":"경기도 남양주시 다산동 6053번지 다산진건지구 상업2-7-1,2 7층 710호","indutype":"학원 - 예·체능계학원","category":"study"},{"name":"라레브발레학원","tel":"031-557-0191","addr":"경기도 남양주시 다산동 6053번지 KB골드타워 703호,704호","indutype":"학원 - 예·체능계학원","category":"study"},{"name":"맨투맨학원","tel":"031-562-6298","addr":"경기도 남양주시 다산동 6053번지 804호일부,805,806,807호","indutype":"학원 - 보습학원","category":"study"},{"name":"크리아트미술학원","tel":"031-566-5253","addr":"경기도 남양주시 다산동 6053번지 KB골든타워 702호 701호,702호","indutype":"학원 - 예·체능계학원","category":"study"},{"name":"피엠피PMP영어학원","tel":"031-523-2330","addr":"경기도 남양주시 다산동 6053번지 KB골든타워 8층 810호","indutype":"학원 - 외국어학원","category":"study"}]},{"lat":"37.62811127","long":"127.15670726","imageIndex":16,"items":[{"name":"국가대표 다산 태권도장","tel":"","addr":"경기도 남양주시 다산동 6030-2번지 성산플레이스1 401,402호","indutype":"학원 - 예·체능계학원","category":"study"},{"name":"다산스카이학원","tel":"031-566-9175","addr":"경기도 남양주시 다산동 6030-2번지 성산타워 404호","indutype":"학원 - 보습학원","category":"study"},{"name":"다산칸타빌레음악학원","tel":"031-529-6207","addr":"경기도 남양주시 다산동 6030-2번지 다산진건지구 근생1-1-3 504호","indutype":"학원 - 예·체능계학원","category":"study"},{"name":"다산캠퍼스YBM잉글루학원","tel":"031-562-2646","addr":"경기도 남양주시 다산동 6030-2번지 다산진건지구 근생1-1-3 505호","indutype":"학원 - 보습학원","category":"study"},{"name":"댄스테라핏무용학원","tel":"","addr":"경기도 남양주시 다산동 6030-2번지 다산진건지구 근생1-1-3 503호","indutype":"학원 - 예·체능계학원","category":"study"},{"name":"메이플러닝센터학원","tel":"031-522-6678","addr":"경기도 남양주시 다산동 6030-2번지 성산타워플레이스1 303호","indutype":"학원 - 보습학원","category":"study"},{"name":"수학의눈학원","tel":"031-523-3396","addr":"경기도 남양주시 다산동 6030-2번지 성산타워플레이스1 405호","indutype":"학원 - 보습학원","category":"study"},{"name":"용인대최강검도관","tel":"031-556-1055","addr":"경기도 남양주시 다산동 6030-2번지 501,502호","indutype":"학원 - 예·체능계학원","category":"study"},{"name":"의치한 다산학원","tel":"031-566-1357","addr":"경기도 남양주시 다산동 6030-2번지 다산진건지구 근생1-1-3 403호","indutype":"학원 - 보습학원","category":"study"},{"name":"이수연다산영어학원","tel":"031-523-8870","addr":"경기도 남양주시 다산동 6030-2번지 성산타워플레이스1 301호","indutype":"학원 - 보습학원","category":"study"}]},{"lat":"37.609339599","long":"127.16003222","imageIndex":16,"items":[{"name":"국가대표부영태권도","tel":"031-558-3311","addr":"경기도 남양주시 다산동 4001-10번지 부영그린타운 상가 1동 5층 502호","indutype":"학원 - 예·체능계학원","category":"study"},{"name":"리딩월드학원","tel":"031-563-0813","addr":"경기도 남양주시 다산동 4001-10번지 부영그린타운 중앙상가 503호","indutype":"학원 - 보습학원","category":"study"},{"name":"뮤엠영어도농교습소","tel":"031-568-2077","addr":"경기도 남양주시 다산동 4001-10번지 부영그린타운중앙상가 302호 일부","indutype":"회원제형태 - 학원","category":"study"},{"name":"열두정성합격하는국어논술학원","tel":"031-555-2257","addr":"경기도 남양주시 다산동 4001-10번지 주 상가동 405","indutype":"학원 - 보습학원","category":"study"},{"name":"템스학원","tel":"031-555-0559","addr":"경기도 남양주시 다산동 4001-10번지 부영그린타운 주상가동 601호","indutype":"학원 - 보습학원","category":"study"},{"name":"퍼스트영어학원","tel":"031-553-4499","addr":"경기도 남양주시 다산동 4001-10번지 제상가 1동 6충 601호 나-B","indutype":"학원 - 보습학원","category":"study"},{"name":"피아노의숲음악교습소","tel":"031-567-5556","addr":"경기도 남양주시 다산동 4001-10번지 부영그린타운 상가 1동 307호","indutype":"학원 - 예·체능계학원","category":"study"}]},{"lat":"37.628111742","long":"127.15634476","imageIndex":16,"items":[{"name":"국어수학세움학원","tel":"031-000-0000","addr":"경기도 남양주시 다산동 6030-1번지 엘투프라자 301호","indutype":"학원 - 보습학원","category":"study"},{"name":"다산예원음악학원","tel":"070-8945-3313","addr":"경기도 남양주시 다산동 6030-1번지 다산진건지구 근생1-1-2 4층 406호","indutype":"학원 - 예·체능계학원","category":"study"},{"name":"다움글쓰기학원","tel":"","addr":"경기도 남양주시 다산동 6030-1번지 엘투프라자 506호","indutype":"학원 - 보습학원","category":"study"},{"name":"림아트미술학원","tel":"031-515-7314","addr":"경기도 남양주시 다산동 6030-1번지 엘루프라자 4층 401호","indutype":"학원 - 예·체능계학원","category":"study"},{"name":"오즈아이 어학원","tel":"031-522-5242","addr":"경기도 남양주시 다산동 6030-1번지 엘투프라자 5층 504,505호","indutype":"학원 - 외국어학원","category":"study"},{"name":"일등급국영수학원","tel":"031-000-0000","addr":"경기도 남양주시 다산동 6030-1번지 다산진건지구 근생1-1-2 405호","indutype":"학원 - 보습학원","category":"study"},{"name":"튼튼영어 마스터클럽 다산학원","tel":"031-526-0594","addr":"경기도 남양주시 다산동 6030-1번지 다산진건지구 근생1-1-2 501호","indutype":"학원 - 보습학원","category":"study"},{"name":"하이클래스다산학원","tel":"031-562-2772","addr":"경기도 남양주시 다산동 6030-1번지 엘투프라자 502,503호","indutype":"학원 - 보습학원","category":"study"}]},{"lat":"37.609589085","long":"127.15528742","imageIndex":16,"items":[{"name":"그림마을어린이집","tel":"031-563-4047","addr":"경기도 남양주시 다산동 4029-16번지","indutype":"학원 - 유치원","category":"study"}]},{"lat":"37.609472397","long":"127.15494742","imageIndex":16,"items":[{"name":"그림마을어린이집[아이행복]","tel":"031-563-4047","addr":"경기도 남양주시 다산동 4029-19번지 협진연립","indutype":"학원 - 유아원","category":"study"}]},{"lat":"37.625726222","long":"127.15475397","imageIndex":16,"items":[{"name":"그릿영어수학학원","tel":"031-565-0325","addr":"경기도 남양주시 다산동 6055-3번지 가하프라자 6층 603, 604호","indutype":"학원 - 보습학원","category":"study"},{"name":"진선생수학학원","tel":"031-553-3570","addr":"경기도 남양주시 다산동 6055-3번지 다산진건지구 상업2-6-1 403호","indutype":"학원 - 보습학원","category":"study"}]},{"lat":"37.599946001","long":"127.15731737","imageIndex":16,"items":[{"name":"글로리음악학원","tel":"031-555-7718","addr":"경기도 남양주시 다산동 679-1번지 삼원프라자 301호","indutype":"학원 - 예·체능계학원","category":"study"},{"name":"다산프라임학원","tel":"031-566-0582","addr":"경기도 남양주시 다산동 679-1번지 삼원프라자 203,204호","indutype":"학원 - 보습학원","category":"study"},{"name":"블럭아이가운교육원","tel":"070-8815-6847","addr":"경기도 남양주시 다산동 679-1번지 삼원프라자 3층 305호","indutype":"학원 - 기타 교육기관","category":"study"},{"name":"아이생각미술학원","tel":"031-567-1189","addr":"경기도 남양주시 다산동 679-1 삼원프라자204호~205호","indutype":"학원 - 예·체능계학원","category":"study"},{"name":"휴먼에듀학원","tel":"031-567-1252","addr":"경기도 남양주시 다산동 679-1번지 삼원프라자 2층 201호","indutype":"학원 - 보습학원","category":"study"}]},{"lat":"37.613391748","long":"127.16170566","imageIndex":16,"items":[{"name":"금교삼성영어","tel":"","addr":"경기도 남양주시 다산동 4002-32번지 분산상가동 부영그린타운 2층 201호","indutype":"학원 - 외국어학원","category":"study"},{"name":"다산수력발전소수학교습소","tel":"","addr":"경기도 남양주시 다산동 4002-32번지 부영그린타운 102호","indutype":"학원 - 보습학원","category":"study"},{"name":"아이음악학원","tel":"031-556-5689","addr":"경기도 남양주시 다산동 4002-32번지 분산상가동 3층 304,305호","indutype":"학원 - 예·체능계학원","category":"study"}]},{"lat":"37.625113416","long":"127.154866","imageIndex":16,"items":[{"name":"기픈학원","tel":"031-558-4431","addr":"경기도 남양주시 다산동 6054-3번지 703호","indutype":"학원 - 보습학원","category":"study"},{"name":"엘엠피에스(LMPS)수학학원","tel":"031-558-7747","addr":"경기도 남양주시 다산동 6054-3번지 파크뷰타워 601,602,603호","indutype":"학원 - 보습학원","category":"study"}]},{"lat":"37.611226265","long":"127.15728407","imageIndex":16,"items":[{"name":"김석란음악학원","tel":"031-558-0234","addr":"경기도 남양주시 다산동 4002-10번지 부영그린타운 상가동 201,202,203호","indutype":"학원 - 예·체능계학원","category":"study"},{"name":"나래아틀리에","tel":"031-556-3335","addr":"경기도 남양주시 다산동 4002-10번지 부영그린타운 상가 207호","indutype":"회원제형태 - 학원","category":"study"},{"name":"명지대도농대성합기도","tel":"031-556-0813","addr":"경기도 남양주시 다산동 4002-10번지 부영그린타운 상가 301호","indutype":"학원 - 예·체능계학원","category":"study"},{"name":"부영바둑교습소","tel":"02-1111-1111","addr":"경기도 남양주시 다산동 4002-10번지 분산상가동 3층 301호","indutype":"학원 - 기타 교육기관","category":"study"},{"name":"용인대 올림픽 태권도","tel":"031-558-1257","addr":"경기도 남양주시 다산동 4002-10번지 부영1단지 상가 2층 204호","indutype":"학원 - 예·체능계학원","category":"study"},{"name":"지앤비영어패럴랙스학원","tel":"031-558-0588","addr":"경기도 남양주시 다산동 4002-10번지 부영그린타운 제분산상가동동 3층 303,304호","indutype":"학원 - 보습학원","category":"study"}]},{"lat":"37.600923833","long":"127.17347881","imageIndex":16,"items":[{"name":"김쌤수학여우수학교습소","tel":"","addr":"경기도 남양주시 다산동 6217-3번지 푸리마타워다산지금지구 근생7-3,7-4 508호","indutype":"학원 - 보습학원","category":"study"},{"name":"다산조이음악학원","tel":"031-551-5537","addr":"경기도 남양주시 다산동 6217-3번지 다산지금지구 근생7-3, 7-4 403호","indutype":"학원 - 예·체능계학원","category":"study"},{"name":"다산지금지앤비패럴랙스영어수학학원","tel":"","addr":"경기도 남양주시 다산동 6217-3번지 다산지금지구 근생7-3, 7-4 5층 507호","indutype":"학원 - 보습학원","category":"study"},{"name":"비욘드잉글리쉬다산지금영어학원","tel":"031-562-0577","addr":"경기도 남양주시 다산동 6217-3번지 다산지금지구 근생7-3, 7-4 503호","indutype":"학원 - 외국어학원","category":"study"},{"name":"선비 태권도 다산관","tel":"","addr":"경기도 남양주시 다산동 6217-3번지 다산지금지구 근생7-3, 7-4 4층 408호","indutype":"학원 - 예·체능계학원","category":"study"},{"name":"스타트앤드 다산영어학원","tel":"031-555-5408","addr":"경기도 남양주시 다산동 6217-3번지 푸리마타워 4층 404호","indutype":"학원 - 보습학원","category":"study"},{"name":"쎈수학러닝센터다산학원","tel":"031-554-7500","addr":"경기도 남양주시 다산동 6217-3번지 다산지금지구 근생7-3, 7-4 4층 405호","indutype":"학원 - 보습학원","category":"study"},{"name":"잉글리시아이한강초점학원","tel":"031-577-1700","addr":"경기도 남양주시 다산동 6217-3번지 다산지금지구 근생7-3, 7-4 4층 407호","indutype":"학원 - 외국어학원","category":"study"}]},{"lat":"37.620199502","long":"127.15764243","imageIndex":16,"items":[{"name":"꿈피음악학원","tel":"031-554-7780","addr":"경기도 남양주시 다산동 6130번지 메인프라자 504호","indutype":"학원 - 예·체능계학원","category":"study"},{"name":"멘토태권도교육관","tel":"070-8945-3313","addr":"경기도 남양주시 다산동 6130번지 메인프라자 5층 502,503호","indutype":"학원 - 예·체능계학원","category":"study"},{"name":"이엔씨영수학원 (EnC영수학원)","tel":"031-565-3290","addr":"경기도 남양주시 다산동 6130번지 메인프라자 501호","indutype":"학원 - 보습학원","category":"study"}]},{"lat":"37.6196409","long":"127.15764127","imageIndex":16,"items":[{"name":"나르샤 태권도","tel":"031-523-3434","addr":"경기도 남양주시 다산동 6130-2번지 성산플레이스2 5층 503호","indutype":"학원 - 예·체능계학원","category":"study"},{"name":"다산토킹스타학원","tel":"031-552-0099","addr":"경기도 남양주시 다산동 6130-2번지 302호 다산진건지구근생3-1-3","indutype":"학원 - 보습학원","category":"study"},{"name":"리틀뮤아센 미술학원","tel":"031-567-1055","addr":"경기도 남양주시 다산동 6130-2번지 성산타워플레이스2 502호","indutype":"학원 - 예·체능계학원","category":"study"},{"name":"박준영논리속독학원","tel":"031-555-1153","addr":"경기도 남양주시 다산동 6130-2번지 성산타워플레이스2 401,402호","indutype":"학원 - 보습학원","category":"study"},{"name":"브릭스어학원","tel":"031-566-6236","addr":"경기도 남양주시 다산동 6130-2번지 성산타워플레이스2 403, 404호","indutype":"학원 - 외국어학원","category":"study"},{"name":"브릭스어학원","tel":"031-566-6236","addr":"경기도 남양주시 다산동 6130-2번지 성산타워플레이스2 4층 403,404호","indutype":"학원 - 외국어학원","category":"study"},{"name":"쎈수학러닝센터새봄학원","tel":"","addr":"경기도 남양주시 다산동 6130-2번지 다산진건지구 근생3-1-3 301호","indutype":"학원 - 보습학원","category":"study"},{"name":"어린음악대 새봄원 음악학원","tel":"031-564-4290","addr":"경기도 남양주시 다산동 6130-2번지 성산타워플레이스2 3층 303호","indutype":"학원 - 예·체능계학원","category":"study"},{"name":"은진학원","tel":"031-567-1158","addr":"경기도 남양주시 다산동 6130-2번지 성산타워 305,405호","indutype":"학원 - 보습학원","category":"study"},{"name":"이수경음악학원","tel":"031-553-7942","addr":"경기도 남양주시 다산동 6130-2번지 다산진건지구 근생3-1-3 501호","indutype":"학원 - 예·체능계학원","category":"study"},{"name":"킹스영어학원","tel":"031-551-0579","addr":"경기도 남양주시 다산동 6130-2번지 다산진건지구 근생3-1-3 304호","indutype":"학원 - 보습학원","category":"study"}]},{"lat":"37.607252798","long":"127.1503676","imageIndex":16,"items":[{"name":"남양아이원미술교습소","tel":"031-552-5755","addr":"경기도 남양주시 다산동 4432-2번지 남양아이좋은집 203호","indutype":"학원 - 예·체능계학원","category":"study"},{"name":"도농예일음악학원","tel":"031-568-7476","addr":"경기도 남양주시 다산동 4432-2번지 남양아이좋은집 상가동 305호","indutype":"학원 - 예·체능계학원","category":"study"},{"name":"도레미교육","tel":"031-515-2024","addr":"경기도 남양주시 다산동 4432-2번지 남양아이좋은집 722동 202호","indutype":"학원 - 예·체능계학원","category":"study"},{"name":"맥스플러스수학교습소","tel":"031-555-5411","addr":"경기도 남양주시 다산동 4432-2번지 남양좋은집 상가동 201호","indutype":"학원 - 보습학원","category":"study"},{"name":"뮤엠영어해법수학학원","tel":"031-552-0588","addr":"경기도 남양주시 다산동 4432-2번지 남양아이좋은집 상가 302호, 303호","indutype":"학원 - 보습학원","category":"study"},{"name":"시사수학 홈스쿨","tel":"","addr":"경기도 남양주시 다산동 4432-2번지 남양아이좋은집 725동 201호","indutype":"학원 - 보습학원","category":"study"},{"name":"아이좋은어린이집[아이행복]","tel":"031-513-5111","addr":"경기도 남양주시 다산동 4432-2번지 남양I-좋은집3단지","indutype":"학원 - 유아원","category":"study"},{"name":"아이좋은어린이집[아이행복]","tel":"031-513-5111","addr":"경기도 남양주시 다산동 4432-2번지 남양아이좋은집 724동 105호","indutype":"학원 - 유아원","category":"study"}]},{"lat":"37.621865063","long":"127.15858604","imageIndex":16,"items":[{"name":"남양주다산유치원[아이행복]","tel":"031-522-2100","addr":"경기도 남양주시 다산동 6094번지","indutype":"학원 - 유치원","category":"study"}]},{"lat":"37.624137591","long":"127.16375615","imageIndex":16,"items":[{"name":"남양주다산초등학교병설유치원[아이행복]","tel":"031-522-3207","addr":"경기도 남양주시 다산동 3317-3번지","indutype":"학원 - 유치원","category":"study"}]},{"lat":"37.604534331","long":"127.1555036","imageIndex":16,"items":[{"name":"남양주도농EIE어학원","tel":"031-557-0509","addr":"경기도 남양주시 다산동 668-3번지 513호 512호,513호","indutype":"학원 - 외국어학원","category":"study"}]},{"lat":"37.6298067","long":"127.14833905","imageIndex":16,"items":[{"name":"노아어린이집[아이행복]","tel":"","addr":"경기도 남양주시 다산동 6017번지 다산방주교회 내","indutype":"학원 - 유아원","category":"study"}]},{"lat":"37.598286496","long":"127.15861616","imageIndex":16,"items":[{"name":"느티나무어린이집[아이행복]","tel":"070-4266-0318","addr":"경기도 남양주시 다산동 682번지 휴먼시아6단지","indutype":"학원 - 유아원","category":"study"}]},{"lat":"37.601392307","long":"127.17350253","imageIndex":16,"items":[{"name":"다빛이음악학원","tel":"","addr":"경기도 남양주시 다산동 6217-1번지 다산지금지구 근생7-1 501호","indutype":"학원 - 예·체능계학원","category":"study"}]},{"lat":"37.627114677","long":"127.15400914","imageIndex":16,"items":[{"name":"다산 리딩비","tel":"","addr":"경기도 남양주시 다산동 6029번지 다산자연앤롯데캐슬 2206동 102호","indutype":"학원 - 기타 교육기관","category":"study"},{"name":"다산롯데캐슬어린이집[아이행복]","tel":"031-563-7766","addr":"경기도 남양주시 다산동 6029번지 다산자연앤롯데캐슬","indutype":"학원 - 유아원","category":"study"},