[{"lat":"37.89826661","long":"127.06129817","imageIndex":9,"items":[{"name":"다온참숯","tel":"","addr":"경기도 동두천시 생연동 359-8번지 대림목화빌라 A동 102호","indutype":"연료판매점 - 기타연료","category":"oil"}]},{"lat":"37.901326519","long":"127.06753131","imageIndex":9,"items":[{"name":"동원연탄","tel":"031-865-4161","addr":"경기도 동두천시 생연동 262번지 302호","indutype":"연료판매점 - 기타연료","category":"oil"}]},{"lat":"37.908025279","long":"127.05800831","imageIndex":9,"items":[{"name":"정원석유중앙상사","tel":"070-4696-5772","addr":"경기도 동두천시 생연동 489-32번지","indutype":"연료판매점 - 유류판매","category":"oil"}]},{"lat":"37.908830197","long":"127.05095884","imageIndex":9,"items":[{"name":"주식회사SK하나에너지","tel":"031-607-2142","addr":"경기도 동두천시 생연동 830-91번지","indutype":"연료판매점 - 유류판매","category":"oil"}]},{"lat":"37.900522559","long":"127.05347753","imageIndex":9,"items":[{"name":"중부종합가스","tel":"031-865-3317","addr":"경기도 동두천시 생연동 693-17번지","indutype":"연료판매점 - 기타연료","category":"oil"}]}]