[{"lat":"37.48035735","long":"127.1832892","items":[{"name":"(주) 돌집","tel":"031-742-8960","addr":"경기도 광주시 남한산성면 산성리 637번지","category":"일반휴게음식 - 일반한식"},{"name":"산성아줌마","tel":"02-493-8843","addr":"경기도 광주시 남한산성면 산성리 637번지 지하1층","category":"레져용품 - 스포츠·레져용품"}]},{"lat":"37.47613361","long":"127.1878689","items":[{"name":"731수제돈가스","tel":"02-1577-0000","addr":"경기도 광주시 남한산성면 산성리 169번지 1층","category":"일반휴게음식 - 일반한식"}]},{"lat":"37.47755291","long":"127.18482","items":[{"name":"GS25남한산성점","tel":"","addr":"경기도 광주시 남한산성면 산성리 507-1번지","category":"유통업 영리 - 상품권전문판매"},{"name":"GS25남한산성점","tel":"","addr":"경기도 광주시 남한산성면 산성리 507-1번지","category":"유통업 영리 - 편 의 점"}]},{"lat":"37.47716127","long":"127.1875323","items":[{"name":"가배산성","tel":"031-749-0743","addr":"경기도 광주시 남한산성면 산성리 229-1번지","category":"일반휴게음식 - 서양음식"}]},{"lat":"37.47574592","long":"127.1880375","items":[{"name":"건강한밥상","tel":"070-8883-3080","addr":"경기도 광주시 남한산성면 산성리 173번지","category":"일반휴게음식 - 일반한식"}]},{"lat":"37.48252382","long":"127.1805922","items":[{"name":"계곡산장","tel":"031-743-0599","addr":"경기도 광주시 남한산성면 산성리 742번지","category":"음료식품 - 기타음료식품"}]},{"lat":"37.47746499","long":"127.1833953","items":[{"name":"고향산천","tel":"031-742-7583","addr":"경기도 광주시 남한산성면 산성리 547번지","category":"일반휴게음식 - 일반한식"}]},{"lat":"37.47813006","long":"127.1844822","items":[{"name":"김가네빈대떡","tel":"031-748-0376","addr":"경기도 광주시 남한산성면 산성리 581-7번지","category":"일반휴게음식 - 일반한식"},{"name":"산성마트","tel":"031-743-6552","addr":"경기도 광주시 남한산성면 산성리 581-7번지","category":"유통업 영리 - 슈퍼마켓"},{"name":"위스테리아","tel":"031-744-2646","addr":"경기도 광주시 남한산성면 산성리 581-7번지 2층","category":"일반휴게음식 - 서양음식"}]},{"lat":"37.47598931","long":"127.187959","items":[{"name":"꽃길로 731","tel":"","addr":"경기도 광주시 남한산성면 산성리 171번지","category":"일반휴게음식 - 서양음식"},{"name":"파우제","tel":"031-745-7969","addr":"경기도 광주시 남한산성면 산성리 171번지","category":"일반휴게음식 - 서양음식"}]},{"lat":"37.47613062","long":"127.1839799","items":[{"name":"남문고을","tel":"031-749-9811","addr":"경기도 광주시 남한산성면 산성리 1059번지","category":"일반휴게음식 - 일반한식"}]},{"lat":"37.47715703","long":"127.1844572","items":[{"name":"남문관","tel":"031-743-6560","addr":"경기도 광주시 남한산성면 산성리 517-1번지","category":"일반휴게음식 - 일반한식"},{"name":"두부공방","tel":"031-743-6560","addr":"경기도 광주시 남한산성면 산성리 517-1번지","category":"일반휴게음식 - 일반한식"}]},{"lat":"37.47638264","long":"127.1841501","items":[{"name":"남문편의점","tel":"031-746-6592","addr":"경기도 광주시 남한산성면 산성리 1053번지","category":"유통업 영리 - 슈퍼마켓"},{"name":"순흥정가득","tel":"031-746-8020","addr":"경기도 광주시 남한산성면 산성리 1053번지 2동 1층","category":"일반휴게음식 - 일반한식"},{"name":"우리 꽃차 이야기","tel":"031-749-5689","addr":"경기도 광주시 남한산성면 산성리 1053번지 1동 1층,2동 2층","category":"일반휴게음식 - 서양음식"},{"name":"푸차오","tel":"031-746-9416","addr":"경기도 광주시 남한산성면 산성리 1053번지","category":"일반휴게음식 - 일반한식"}]},{"lat":"37.47721411","long":"127.1824789","items":[{"name":"남한산성 플러스","tel":"031-749-8255","addr":"경기도 광주시 남한산성면 산성리 1008번지","category":"건강식품 - 기타건강식품"},{"name":"남한산성한의원","tel":"031-749-8255","addr":"경기도 광주시 남한산성면 산성리 1008번지","category":"의원 - 한의원"},{"name":"도토리산장","tel":"031-746-5155","addr":"경기도 광주시 남한산성면 산성리 1008번지","category":"일반휴게음식 - 일반한식"}]},{"lat":"37.4798511","long":"127.1843959","items":[{"name":"남한산성 한옥펜션","tel":"031-743-6557","addr":"경기도 광주시 남한산성면 산성리 623번지","category":"숙박업 - 여관/기타숙박업"}]},{"lat":"37.47627478","long":"127.1839803","items":[{"name":"남한산성막국수","tel":"031-748-3366","addr":"경기도 광주시 남한산성면 산성리 1052-1번지 지하1층","category":"일반휴게음식 - 일반한식"}]},{"lat":"37.47771423","long":"127.1853743","items":[{"name":"남한산성참먹거리","tel":"031-746-6553","addr":"경기도 광주시 남한산성면 산성리 496번지","category":"일반휴게음식 - 일반한식"}]},{"lat":"37.47546673","long":"127.1879577","items":[{"name":"대장금정","tel":"031-747-3737","addr":"경기도 광주시 남한산성면 산성리 178번지","category":"일반휴게음식 - 일반한식"}]},{"lat":"37.4775487","long":"127.1875332","items":[{"name":"동문집","tel":"031-743-6609","addr":"경기도 광주시 남한산성면 산성리 432-1번지","category":"일반휴게음식 - 일반한식"}]},{"lat":"37.47644055","long":"127.1874853","items":[{"name":"두레","tel":"031-744-3532","addr":"경기도 광주시 남한산성면 산성리 219번지","category":"일반휴게음식 - 일반한식"}]},{"lat":"37.47707995","long":"127.1876791","items":[{"name":"두부집","tel":"031-754-3114","addr":"경기도 광주시 남한산성면 산성리 229-3번지","category":"일반휴게음식 - 일반한식"}]},{"lat":"37.4772155","long":"127.1815632","items":[{"name":"마음밭 상담코칭센터","tel":"070-8267-6716","addr":"경기도 광주시 남한산성면 산성리 967-1번지","category":"보건위생 - 기타대인서비스"}]},{"lat":"37.47727073","long":"127.1807833","items":[{"name":"만해기념관","tel":"031-744-3100","addr":"경기도 광주시 남한산성면 산성리 912-1번지","category":"문화.취미 - 티켓"},{"name":"만해기념관","tel":"031-744-3100","addr":"경기도 광주시 남한산성면 산성리 912-1번지 1층","category":"문화.취미 - 티켓"}]},{"lat":"37.47305214","long":"127.182062","items":[{"name":"맥궁매점","tel":"031-746-4352","addr":"경기도 광주시 남한산성면 산성리 산 32-10","category":"음료식품 - 기타음료식품"}]},{"lat":"37.48057283","long":"127.1837871","items":[{"name":"먹거리창고","tel":"031-744-2594","addr":"경기도 광주시 남한산성면 산성리 641번지","category":"일반휴게음식 - 일반한식"}]},{"lat":"37.47804718","long":"127.1856464","items":[{"name":"묵이랑전이랑","tel":"031-745-1237","addr":"경기도 광주시 남한산성면 산성리 491-1번지","category":"일반휴게음식 - 일반한식"}]},{"lat":"37.47913093","long":"127.1839872","items":[{"name":"반월정","tel":"031-743-6562","addr":"경기도 광주시 남한산성면 산성리 607번지","category":"일반휴게음식 - 일반한식"}]},{"lat":"37.4805996","long":"127.1839568","items":[{"name":"백송식당","tel":"031-747-5564","addr":"경기도 광주시 남한산성면 산성리 644번지","category":"일반휴게음식 - 일반한식"}]},{"lat":"37.47860849","long":"127.1838955","items":[{"name":"백제장","tel":"031-746-4296","addr":"경기도 광주시 남한산성면 산성리 589번지","category":"일반휴게음식 - 일반한식"}]},{"lat":"37.47624729","long":"127.1900624","items":[{"name":"비부정","tel":"031-743-2199","addr":"경기도 광주시 남한산성면 산성리 139번지 1층","category":"일반휴게음식 - 일반한식"}]},{"lat":"37.4772144","long":"127.1822867","items":[{"name":"사랑방휴게소","tel":"","addr":"경기도 광주시 남한산성면 산성리 1007번지","category":"일반휴게음식 - 서양음식"}]},{"lat":"37.47704555","long":"127.1807375","items":[{"name":"산성갤러리","tel":"031-708-2688","addr":"경기도 광주시 남한산성면 산성리 908번지 1층","category":"일반휴게음식 - 서양음식"}]},{"lat":"37.47660231","long":"127.1819009","items":[{"name":"산성대가","tel":"031-743-6559","addr":"경기도 광주시 남한산성면 산성리 1002-1번지 1층","category":"일반휴게음식 - 일반한식"}]},{"lat":"37.47810329","long":"127.1843125","items":[{"name":"산성민속집","tel":"031-743-6585","addr":"경기도 광주시 남한산성면 산성리 581-11번지","category":"일반휴게음식 - 일반한식"}]},{"lat":"37.47651767","long":"127.1842296","items":[{"name":"산성별장","tel":"031-743-5399","addr":"경기도 광주시 남한산성면 산성리 1036","category":"일반휴게음식 - 일반한식"}]},{"lat":"37.47746868","long":"127.1868434","items":[{"name":"산성순두부","tel":"031-749-4763","addr":"경기도 광주시 남한산성면 산성리 414번지","category":"일반휴게음식 - 일반한식"}]},{"lat":"37.47963541","long":"127.1840336","items":[{"name":"산성식구","tel":"031-1111-1111","addr":"경기도 광주시 남한산성면 산성리 602-2번지 G동 1층","category":"일반휴게음식 - 일반한식"},{"name":"아말피","tel":"031-746-5457","addr":"경기도 광주시 남한산성면 산성리 602-2번지","category":"일반휴게음식 - 서양음식"}]},{"lat":"37.47749545","long":"127.1870131","items":[{"name":"상아궁","tel":"031-744-0607","addr":"경기도 광주시 남한산성면 산성리 415-1번지","category":"일반휴게음식 - 일반한식"}]},{"lat":"37.47877024","long":"127.1841785","items":[{"name":"석산정","tel":"031-749-0518","addr":"경기도 광주시 남한산성면 산성리 612번지","category":"일반휴게음식 - 일반한식"}]},{"lat":"37.47715763","long":"127.1840615","items":[{"name":"선비회관","tel":"031-743-6570","addr":"경기도 광주시 남한산성면 산성리 1027-1","category":"일반휴게음식 - 일반한식"}]},{"lat":"37.48093302","long":"127.1839237","items":[{"name":"송림","tel":"031-743-6615","addr":"경기도 광주시 남한산성면 산성리 670번지","category":"일반휴게음식 - 일반한식"}]},{"lat":"37.47932908","long":"127.1840329","items":[{"name":"숲속으로","tel":"031-111-1111","addr":"경기도 광주시 남한산성면 산성리 605번지","category":"일반휴게음식 - 일반한식"}]},{"lat":"37.47774489","long":"127.1830115","items":[{"name":"여담/경기도남한산성세계유산센터","tel":"031-8008-5176","addr":"경기도 광주시 남한산성면 산성리 550-14","category":"신변잡화 - 기념품점"}]},{"lat":"37.47746895","long":"127.1866738","items":[{"name":"오복손두부","tel":"031-746-3567","addr":"경기도 광주시 남한산성면 산성리 413","category":"일반휴게음식 - 일반한식"}]},{"lat":"37.4776024","long":"127.1877595","items":[{"name":"오복식당","tel":"031-43-6566","addr":"경기도 광주시 남한산성면 산성리 431번지","category":"일반휴게음식 - 일반한식"}]},{"lat":"37.47596255","long":"127.1877894","items":[{"name":"완도집","tel":"031-746-7127","addr":"경기도 광주시 남한산성면 산성리 170번지 1층","category":"일반휴게음식 - 일반한식"}]},{"lat":"37.48062828","long":"127.1828715","items":[{"name":"용마루","tel":"031-746-9206","addr":"경기도 광주시 남한산성면 산성리 699번지 1층","category":"일반휴게음식 - 일반한식"}]},{"lat":"37.47776735","long":"127.1859849","items":[{"name":"우석이네","tel":"031-735-6247","addr":"경기도 광주시 남한산성면 산성리 486-1번지 1,2층","category":"일반휴게음식 - 일반한식"},{"name":"파전된데","tel":"031-744-7786","addr":"경기도 광주시 남한산성면 산성리 486-1","category":"일반휴게음식 - 일반한식"}]},{"lat":"37.47749438","long":"127.1818465","items":[{"name":"월성관","tel":"031-743-6601","addr":"경기도 광주시 남한산성면 산성리 946번지","category":"일반휴게음식 - 일반한식"}]},{"lat":"37.47810265","long":"127.1847308","items":[{"name":"은행나무집","tel":"031-743-6549","addr":"경기도 광주시 남한산성면 산성리 582-4번지","category":"일반휴게음식 - 일반한식"}]},{"lat":"37.47799389","long":"127.1851489","items":[{"name":"이시백","tel":"031-746-7771","addr":"경기도 광주시 남한산성면 산성리 501-1번지","category":"일반휴게음식 - 일반한식"}]},{"lat":"37.47677262","long":"127.1824779","items":[{"name":"일송정","tel":"031-747-9495","addr":"경기도 광주시 남한산성면 산성리 1011번지 외3필지","category":"일반휴게음식 - 서양음식"}]},{"lat":"37.47690983","long":"127.1811216","items":[{"name":"장수촌","tel":"031-741-9730","addr":"경기도 광주시 남한산성면 산성리 976번지 1층","category":"일반휴게음식 - 일반한식"}]},{"lat":"37.47765842","long":"127.1865047","items":[{"name":"재넘어주막","tel":"031-778-3404","addr":"경기도 광주시 남한산성면 산성리 401-1","category":"일반휴게음식 - 일반한식"},{"name":"향촌가든","tel":"031-43-6574","addr":"경기도 광주시 남한산성면 산성리 401-1","category":"일반휴게음식 - 일반한식"}]},{"lat":"37.47735563","long":"127.184209","items":[{"name":"천일관","tel":"031-743-6590","addr":"경기도 광주시 남한산성면 산성리 523","category":"일반휴게음식 - 일반한식"}]},{"lat":"37.48015794","long":"127.1840688","items":[{"name":"청수가","tel":"031-741-8013","addr":"경기도 광주시 남한산성면 산성리 625번지","category":"일반휴게음식 - 일반한식"},{"name":"청수가","tel":"031-741-8013","addr":"경기도 광주시 남한산성면 산성리 625번지","category":"일반휴게음식 - 일반한식"}]},{"lat":"37.47721903","long":"127.185147","items":[{"name":"초가","tel":"031-745-9893","addr":"경기도 광주시 남한산성면 산성리 473-1번지","category":"일반휴게음식 - 일반한식"}]},{"lat":"37.4770238","long":"127.1890129","items":[{"name":"카페 오르(Cafe Ore)","tel":"","addr":"경기도 광주시 남한산성면 산성리 289번지","category":"일반휴게음식 - 서양음식"}]},{"lat":"37.48023941","long":"127.1838202","items":[{"name":"카페남한산성","tel":"031-746-1163","addr":"경기도 광주시 남한산성면 산성리 631번지","category":"일반휴게음식 - 서양음식"}]},{"lat":"37.48132323","long":"127.182093","items":[{"name":"카페작은숲","tel":"","addr":"경기도 광주시 남한산성면 산성리 689번지 1층","category":"일반휴게음식 - 서양음식"}]},{"lat":"37.47769211","long":"127.1880084","items":[{"name":"터","tel":"031-749-2511","addr":"경기도 광주시 남한산성면 산성리 248번지","category":"일반휴게음식 - 일반한식"}]},{"lat":"37.47746269","long":"127.1848989","items":[{"name":"토기와","tel":"031-318-5195","addr":"경기도 광주시 남한산성면 산성리 509번지 1층","category":"일반휴게음식 - 일반한식"}]},{"lat":"37.47596749","long":"127.1903669","items":[{"name":"티블랙 (TEA BLACK)","tel":"031-735-0153","addr":"경기도 광주시 남한산성면 산성리 133-3번지","category":"일반휴게음식 - 일반한식"}]},{"lat":"37.47705251","long":"127.1820942","items":[{"name":"한마당","tel":"031-743-6602","addr":"경기도 광주시 남한산성면 산성리 1005","category":"일반휴게음식 - 일반한식"}]},{"lat":"37.4758543","long":"127.1878682","items":[{"name":"해오름","tel":"031-748-3320","addr":"경기도 광주시 남한산성면 산성리 171-1번지 1층","category":"일반휴게음식 - 일반한식"}]}]