[{"lat":"37.893187668","long":"127.05642837","items":[{"name":"#냉삼집","tel":"070-0000-0000","addr":"경기도 동두천시 지행동 731-5번지 103호","category":"일반휴게음식 - 일반한식"},{"name":"커피베이","tel":"031-859-3261","addr":"경기도 동두천시 지행동 731-5번지 동광빌딩 102호","category":"일반휴게음식 - 서양음식"}]},{"lat":"37.889186482","long":"127.05867635","items":[{"name":"& tem(앤템)","tel":"031-865-3746","addr":"경기도 동두천시 지행동 354번지 지행역동원베네스트아파트 지층 203호","category":"의류 - 정장"},{"name":"비타민헤어","tel":"031-859-3113","addr":"경기도 동두천시 지행동 354번지 동원베네스트상가동제지2층 204호","category":"보건위생 - 미용원"}]},{"lat":"37.891999963","long":"127.05296012","items":[{"name":"(주)목간통","tel":"031-857-9200","addr":"경기도 동두천시 지행동 718-3번지 송내프라자 501,601,701호","category":"보건위생 - 사우나"},{"name":"GS25동두천지행점","tel":"","addr":"경기도 동두천시 지행동 718-3번지 송내프라자 103호","category":"유통업 영리 - 편 의 점"},{"name":"놀숲 동두천지행점","tel":"070-7576-0199","addr":"경기도 동두천시 지행동 718-3번지 3층 303호, 304호","category":"레저업소 - 기타레져업소"},{"name":"뚱보집","tel":"031-867-8899","addr":"경기도 동두천시 지행동 718-3번지 본동 112호,113호","category":"일반휴게음식 - 일반한식"},{"name":"루트","tel":"031-862-8080","addr":"경기도 동두천시 지행동 718-3번지 송내프라자 2층 201호","category":"일반휴게음식 - 주점"},{"name":"멕시카나 지행점","tel":"031-865-9249","addr":"경기도 동두천시 지행동 718-3번지 송내프라자 7층 701호","category":"일반휴게음식 - 일반한식"},{"name":"문성","tel":"031-858-9432","addr":"경기도 동두천시 지행동 718-3번지 송내프라자 1층 2호","category":"보건위생 - 화장품"},{"name":"본죽 동두천점","tel":"031-862-0398","addr":"경기도 동두천시 지행동 718-3번지 송내프라자 106호","category":"일반휴게음식 - 일반한식"},{"name":"아로아PC방","tel":"031-857-8231","addr":"경기도 동두천시 지행동 718-3번지 송내프라자3층 306,307,308","category":"레저업소 - 기타레져업소"},{"name":"야미안","tel":"031-861-1861","addr":"경기도 동두천시 지행동 718-3송내프라자205.206.207.208호","category":"일반휴게음식 - 일반한식"},{"name":"에스에스지바","tel":"031-861-8832","addr":"경기도 동두천시 지행동 718-3번지 송내프라자 305호","category":"일반휴게음식 - 일반한식"},{"name":"용우동","tel":"031-857-7766","addr":"경기도 동두천시 지행동 718-3번지 송내프라자 105호","category":"일반휴게음식 - 일반한식"},{"name":"이연희헤어비스","tel":"031-857-5566","addr":"경기도 동두천시 지행동 718-3번지 송내프라자 203호","category":"보건위생 - 미용원"},{"name":"장터","tel":"031-1111-1111","addr":"경기도 동두천시 지행동 718-3번지 송내프라자 101호","category":"음료식품 - 농·축·수산품"},{"name":"젤 네일 잘하는 집","tel":"","addr":"경기도 동두천시 지행동 718-3번지 두손프라자 103호","category":"보건위생 - 피부미용실"},{"name":"커브스 지행클럽","tel":"032-857-1330","addr":"경기도 동두천시 지행동 718-3번지 송내프라자 7층 701호","category":"레저업소 - 헬스클럽"},{"name":"쿡스페셜","tel":"031-866-3007","addr":"경기도 동두천시 지행동 718-3번지 송내프라자 204호","category":"일반휴게음식 - 일반한식"},{"name":"킹당구장","tel":"031-842-0688","addr":"경기도 동두천시 지행동 718-3번지 송내프라자 401,402호","category":"레저업소 - 당 구 장"},{"name":"폰꾸미기","tel":"031-866-0003","addr":"경기도 동두천시 지행동 718-3번지 송내프라자 107호","category":"신변잡화 - 액세서리"},{"name":"플레이 그라운드","tel":"070-1111-1111","addr":"경기도 동두천시 지행동 718-3번지 송내프라자 205, 206호","category":"레저업소 - 기타레져업소"}]},{"lat":"37.892576036","long":"127.05417695","items":[{"name":"(주)비앤비차콜코리아","tel":"031-859-4567","addr":"경기도 동두천시 지행동 695-2번지 연빌딩","category":"연료판매점 - 기타연료"},{"name":"곱분이 곱창 동두천점","tel":"031-863-9282","addr":"경기도 동두천시 지행동 695-2번지 연빌딩 1층 101호","category":"일반휴게음식 - 일반한식"},{"name":"금시당","tel":"031-862-7837","addr":"경기도 동두천시 지행동 695-2번지 연빌딩 104호","category":"신변잡화 - 귀금속"},{"name":"도토리4","tel":"031-858-9142","addr":"경기도 동두천시 지행동 695-2번지 연빌딩 103호","category":"의류 - 정장"},{"name":"반남박씨집의도사공파전곡종중","tel":"031-859-5828","addr":"경기도 동두천시 지행동 695-2 연빌딩2층201호,3층301호","category":"용역 서비스 - 부동산 중개·임대"},{"name":"알래스카 바베큐","tel":"031-861-0021","addr":"경기도 동두천시 지행동 695-2번지 연빌딩 9층 901호","category":"일반휴게음식 - 일반한식"},{"name":"연세굿모닝마취통증의학과","tel":"031-868-8877","addr":"경기도 동두천시 지행동 695-2번지","category":"의원 - 의원"},{"name":"우리서점 송내","tel":"031-862-2929","addr":"경기도 동두천시 지행동 695-2번지 연빌딩 201호","category":"서적문구 - 일반서적"},{"name":"우일칼라","tel":"031-868-4747","addr":"경기도 동두천시 지행동 695-2번지","category":"광학제품 - 사진관"},{"name":"팡스팡스","tel":"070-4156-5567","addr":"경기도 동두천시 지행동 695-2번지 연빌딩 503호","category":"일반휴게음식 - 서양음식"}]},{"lat":"37.892356111","long":"127.06206656","items":[{"name":"(주)이레피앤알","tel":"031-861-8252","addr":"경기도 동두천시 지행동 322-1번지","category":"용역 서비스 - 종합용역"},{"name":"드림미디어(DreamMedia)","tel":"031-857-4368","addr":"경기도 동두천시 지행동 322-1번지 2호","category":"사무통신 - 컴퓨터"},{"name":"코카콜라EDP동두천점","tel":"031-865-0113","addr":"경기도 동두천시 지행동 322-1번지 1층 101호","category":"음료식품 - 기타음료식품"}]},{"lat":"37.889880939","long":"127.0570967","items":[{"name":"(주)천수 중앙주유소","tel":"031-865-2520","addr":"경기도 동두천시 지행동 478-1번지","category":"연료판매점 - SK주유소"}]},{"lat":"37.892575937","long":"127.05440432","items":[{"name":"(주)피자헛동두천","tel":"031-861-7300","addr":"경기도 동두천시 지행동 695-3번지 동현프라자빌딩 2층","category":"유통업 영리 - 인터넷 Mall"},{"name":"(주)피자헛동두천","tel":"031-861-7300","addr":"경기도 동두천시 지행동 695-3번지 동현프라자빌딩 2층","category":"일반휴게음식 - 서양음식"},{"name":"긴죠활어참치전문점","tel":"031-864-8295","addr":"경기도 동두천시 지행동 695-3번지 동현빌딩 102호","category":"일반휴게음식 - 일반한식"},{"name":"김희정 헤어샵","tel":"031-859-5677","addr":"경기도 동두천시 지행동 695-3번지 동현빌딩 202호 동현프라자","category":"보건위생 - 미용원"},{"name":"미스사이공 지행점","tel":"031-858-2059","addr":"경기도 동두천시 지행동 695-3번지 동현빌딩 1층 101호","category":"일반휴게음식 - 서양음식"},{"name":"허브독서실","tel":"031-866-6768","addr":"경기도 동두천시 지행동 695-3번지 동현빌딩 8001호","category":"학원 - 독서실"},{"name":"후 핫요가테스","tel":"070-8844-2585","addr":"경기도 동두천시 지행동 695-3번지 동현빌딩 3층 301호","category":"레저업소 - 헬스클럽"}]},{"lat":"37.891972436","long":"127.05411968","items":[{"name":"0.5프로","tel":"031-865-7881","addr":"경기도 동두천시 지행동 721-1번지 시티타워 501호","category":"의류 - 정장"},{"name":"강실장작업실","tel":"031-861-8832","addr":"경기도 동두천시 지행동 721-1번지 시티타워 5층 504호","category":"보건위생 - 미용원"},{"name":"깨소금횟집","tel":"031-858-3399","addr":"경기도 동두천시 지행동 721-1번지 시티타워 2층 201호","category":"일반휴게음식 - 일식·회집"},{"name":"메가","tel":"031-862-8787","addr":"경기도 동두천시 지행동 721-1번지 시티타워 1층 102호","category":"일반휴게음식 - 서양음식"},{"name":"밀러타임","tel":"031-862-7188","addr":"경기도 동두천시 지행동 721-1번지 시티타워 202호","category":"일반휴게음식 - 주점"},{"name":"봄나라요양원","tel":"031-866-7727","addr":"경기도 동두천시 지행동 721-1번지 시티타워 7층","category":"기타의료기관 - 기타의료기관 및 기타"},{"name":"서래갈매기","tel":"031-864-7267","addr":"경기도 동두천시 지행동 721-1 시티타워 106호107호","category":"일반휴게음식 - 일반한식"},{"name":"세븐 당구장","tel":"031-857-1663","addr":"경기도 동두천시 지행동 721-1번지 시티타워 3층 301,303호","category":"레저업소 - 당 구 장"},{"name":"왕해물찜","tel":"031-861-6669","addr":"경기도 동두천시 지행동 721-1번지 시티타워 205호","category":"일반휴게음식 - 일반한식"},{"name":"이담참치","tel":"031-846-7055","addr":"경기도 동두천시 지행동 721-1번지 시티타워 2동 204호 씨티타워","category":"일반휴게음식 - 일식·회집"},{"name":"종로복떡방","tel":"031-858-1233","addr":"경기도 동두천시 지행동 721-1번지 시티타원 105호","category":"음료식품 - 제과점"},{"name":"진풍참치","tel":"031-859-3782","addr":"경기도 동두천시 지행동 721-1번지 시티타워 110호","category":"일반휴게음식 - 일식·회집"},{"name":"토니모리","tel":"031-868-0555","addr":"경기도 동두천시 지행동 721-1번지 시티타워 103호","category":"보건위생 - 화장품"},{"name":"한돈생고기","tel":"031-861-9199","addr":"경기도 동두천시 지행동 721-1번지 시티타워 109호","category":"일반휴게음식 - 일반한식"},{"name":"활력설악추어탕","tel":"031-862-7793","addr":"경기도 동두천시 지행동 702-1시티타워204","category":"일반휴게음식 - 일반한식"}]},{"lat":"37.893079354","long":"127.05687167","items":[{"name":"007노래연습장","tel":"031-857-2124","addr":"경기도 동두천시 지행동 730-1번지 2층","category":"레저업소 - 노 래 방"},{"name":"59년왕십리불곱창","tel":"031-857-7174","addr":"경기도 동두천시 지행동 730-1번지 무지개 상가 B동 2호","category":"일반휴게음식 - 일반한식"},{"name":"홍인동","tel":"031-868-8945","addr":"경기도 동두천시 지행동 730-1번지 무지개 상가 1층 1호","category":"일반휴게음식 - 일반한식"}]},{"lat":"37.895025657","long":"127.05623643","items":[{"name":"1959추억의옛날통닭닭강정","tel":"031-865-2299","addr":"경기도 동두천시 지행동 726-3번지 101호","category":"일반휴게음식 - 스넥"},{"name":"깡통뒷고기","tel":"031-862-5001","addr":"경기도 동두천시 지행동 726-3번지 1층","category":"일반휴게음식 - 일반한식"}]},{"lat":"37.889331775","long":"127.05620958","items":[{"name":"202족발","tel":"031-857-7799","addr":"경기도 동두천시 지행동 737번지 1층 102호","category":"일반휴게음식 - 일반한식"},{"name":"허니네제주흑도야지","tel":"031-857-5392","addr":"경기도 동두천시 지행동 737번지 1층 101호","category":"일반휴게음식 - 일반한식"}]},{"lat":"37.892972217","long":"127.05470018","items":[{"name":"24시전주명가콩나물국밥지행점","tel":"031-859-6966","addr":"경기도 동두천시 지행동 695-5번지 내행프라자 109호","category":"일반휴게음식 - 일반한식"},{"name":"LUXURY 럭셔리","tel":"031-864-6806","addr":"경기도 동두천시 지행동 695-5번지 내행프라자 3층 302호","category":"일반휴게음식 - 주점"},{"name":"꽃물들임","tel":"031-862-6111","addr":"경기도 동두천시 지행동 695-5번지 내행프라자 109호","category":"회원제형태 - 기타4"},{"name":"다솜요양원","tel":"031-857-7329","addr":"경기도 동두천시 지행동 695-5번지 내행프라자 501호 502","category":"기타의료기관 - 기타의료기관 및 기타"},{"name":"랭커PC방","tel":"070-2714-6822","addr":"경기도 동두천시 지행동 695-5번지 내행프라자 7층","category":"레저업소 - 기타레져업소"},{"name":"세무법인 나우","tel":"031-862-3675","addr":"경기도 동두천시 지행동 695-5번지 내행프라자 804호","category":"용역 서비스 - 법률회계서비스(법인)"},{"name":"세무사임유민사무소","tel":"031-862-3675","addr":"경기도 동두천시 지행동 695-5번지 매행프라자 8층 804호","category":"용역 서비스 - 법률회계서비스(개인)"},{"name":"송내고시텔","tel":"070-8119-5353","addr":"경기도 동두천시 지행동 695-5번지 내행프라자 401호-402호","category":"학원 - 독서실"},{"name":"송내컨벤션웨딩부페","tel":"031-859-8883","addr":"경기도 동두천시 지행동 695-5번지 내행프라자 601동 605호","category":"일반휴게음식 - 일반한식"},{"name":"쇼다운","tel":"070-7538-8449","addr":"경기도 동두천시 지행동 695-5번지 내행프라자 103,104호","category":"의류 - 정장"},{"name":"스파스토리","tel":"031-858-6112","addr":"경기도 동두천시 지행동 695-5번지 내행프라자","category":"보건위생 - 화장품"},{"name":"신쭈꾸미","tel":"070-8286-2288","addr":"경기도 동두천시 지행동 695-5번지 내행프라자 본동 202호","category":"일반휴게음식 - 일반한식"},{"name":"쎄봉토스트","tel":"031-858-3255","addr":"경기도 동두천시 지행동 695-5번지 내행프라자 102호","category":"일반휴게음식 - 스넥"},{"name":"애플하우스","tel":"","addr":"경기도 동두천시 지행동 695-5번지 내행프라자","category":"학원 - 독서실"},{"name":"열두평","tel":"031-111-1111","addr":"경기도 동두천시 지행동 695-5번지 내행프라자 1층 112호","category":"일반휴게음식 - 일반한식"},{"name":"오래갈비","tel":"031-861-4567","addr":"경기도 동두천시 지행동 695-5내행프라자본동203.204호","category":"일반휴게음식 - 일반한식"},{"name":"요거프레소 지행역점","tel":"031-857-9411","addr":"경기도 동두천시 지행동 695-5번지 내행프라자 111호","category":"일반휴게음식 - 서양음식"},{"name":"웃도리","tel":"02-1111-1111","addr":"경기도 동두천시 지행동 695-5번지 내행프라자 205호","category":"의류 - 정장"},{"name":"전우의집","tel":"031-863-3232","addr":"경기도 동두천시 지행동 695-5번지 내행프라자 107호","category":"신변잡화 - 기타잡화"},{"name":"춘천닭갈비쭈꾸미마을","tel":"031-857-7245","addr":"경기도 동두천시 지행동 695-5번지 내행프라자 205호","category":"일반휴게음식 - 일반한식"},{"name":"힐하우스","tel":"070-8259-1085","addr":"경기도 동두천시 지행동 695-5번지 내행프라자 106호","category":"신변잡화 - 신발"}]},{"lat":"37.89413361","long":"127.05650863","items":[{"name":"365대기중","tel":"031-861-9114","addr":"경기도 동두천시 지행동 732번지","category":"일반휴게음식 - 일반한식"}]},{"lat":"37.892909346","long":"127.05425676","items":[{"name":"3일 왕소금구이","tel":"031-866-3192","addr":"경기도 동두천시 지행동 694-7번지 두인빌딩 1층","category":"일반휴게음식 - 일반한식"},{"name":"다비야 요가 필라테스","tel":"031-858-1888","addr":"경기도 동두천시 지행동 694-7번지 두인빌딩 3층","category":"레저업소 - 헬스클럽"},{"name":"옛날장터치킨","tel":"031-858-9963","addr":"경기도 동두천시 지행동 694-7번지 두인빌딩 103호","category":"일반휴게음식 - 스넥"},{"name":"오케이(O.K)당구장클럽","tel":"031-857-7773","addr":"경기도 동두천시 지행동 694-7번지 두인빌딩 2층","category":"레저업소 - 당 구 장"},{"name":"요가쿨라","tel":"031-864-5550","addr":"경기도 동두천시 지행동 694-7번지 두인빌딩 3층","category":"레저업소 - 헬스클럽"},{"name":"커민양꼬치","tel":"031-866-9289","addr":"경기도 동두천시 지행동 694-7번지 두인빌딩 102호","category":"일반휴게음식 - 일반한식"}]},{"lat":"37.892909455","long":"127.05400665","items":[{"name":"3일소고기국밥지행점","tel":"031-866-3198","addr":"경기도 동두천시 지행동 694-6번지","category":"일반휴게음식 - 일반한식"},{"name":"3일소반쭈꾸미","tel":"031-868-3198","addr":"경기도 동두천시 지행동 694-6번지 2층","category":"일반휴게음식 - 일반한식"}]},{"lat":"37.891693872","long":"127.05242559","items":[{"name":"60계치킨 동두천점","tel":"031-868-8292","addr":"경기도 동두천시 지행동 718-1번지 두손프라자 110호","category":"일반휴게음식 - 스넥"},{"name":"그린당구장","tel":"031-866-3949","addr":"경기도 동두천시 지행동 718-1번지 302,303","category":"레저업소 - 당 구 장"},{"name":"글샘학원","tel":"031-861-0452","addr":"경기도 동두천시 지행동 718-1번지 두손프라자 6층","category":"학원 - 보습학원"},{"name":"김미진헤어플라워","tel":"031-863-1219","addr":"경기도 동두천시 지행동 718-1번지 두손프라자 202호","category":"보건위생 - 미용원"},{"name":"김정아헤어뷰","tel":"031-867-7272","addr":"경기도 동두천시 지행동 718-1번지 두손프라자 105호","category":"보건위생 - 미용원"},{"name":"돌김치전골","tel":"031-857-8885","addr":"경기도 동두천시 지행동 718-1번지 두손프라자 111호","category":"일반휴게음식 - 일반한식"},{"name":"동경야시장","tel":"031-857-9288","addr":"경기도 동두천시 지행동 718-1번지 두손프라자본동108호~109호","category":"일반휴게음식 - 일반한식"},{"name":"동두천간호학원요양보호사교육원","tel":"031-867-7664","addr":"경기도 동두천시 지행동 718-1번지 두손프라자 701호","category":"회원제형태 - 학원"},{"name":"동두천점핑다이어트","tel":"031-1111-1111","addr":"경기도 동두천시 지행동 718-1번지 두손프라자 2층 203호","category":"건강식품 - 기타건강식품"},{"name":"두손공인중개사","tel":"031-857-6301","addr":"경기도 동두천시 지행동 718-1번지 두손이리옴프라자","category":"용역 서비스 - 부동산 중개·임대"},{"name":"물 (MOOL)","tel":"070-4042-9368","addr":"경기도 동두천시 지행동 718-1번지 두손프라자 103호","category":"의류 - 정장"},{"name":"물네일","tel":"","addr":"경기도 동두천시 지행동 718-1번지 두손프라자","category":"보건위생 - 피부미용실"},{"name":"미드나잇살롱","tel":"031-865-8991","addr":"경기도 동두천시 지행동 718-1번지 두손프라자 305호","category":"일반휴게음식 - 일반한식"},{"name":"별별아이스크림할인점","tel":"031-862-2214","addr":"경기도 동두천시 지행동 718-1번지 두손프라자 104호","category":"음료식품 - 제과점"},{"name":"본가왕십리곱창","tel":"031-859-2225","addr":"경기도 동두천시 지행동 718-1번지 두손프라자 1층","category":"일반휴게음식 - 일반한식"},{"name":"삼칠포차 동두천점","tel":"031-857-6334","addr":"경기도 동두천시 지행동 718-1번지 두손프라자 304호","category":"일반휴게음식 - 주점"},{"name":"상솔가족","tel":"02-000-0000","addr":"경기도 동두천시 지행동 718-1번지 두손이리움프라자 503,504호","category":"레저업소 - 당 구 장"},{"name":"송내별미식당","tel":"031-859-3785","addr":"경기도 동두천시 지행동 718-1번지 두손프라자 204호","category":"일반휴게음식 - 일반한식"},{"name":"신흥미용재료","tel":"031-863-6379","addr":"경기도 동두천시 지행동 718-1번지 두손프라자","category":"보건위생 - 미용재료"},{"name":"안동찜닭","tel":"031-865-9950","addr":"경기도 동두천시 지행동 718-1번지 두손프라자 113호","category":"일반휴게음식 - 일반한식"},{"name":"에이플러스","tel":"031-861-2618","addr":"경기도 동두천시 지행동 718-1번지 두손프라자 7층 703호","category":"레저업소 - 기타레져업소"},{"name":"요기니요가","tel":"031-865-2953","addr":"경기도 동두천시 지행동 718-1번지 두손프라자 602호","category":"회원제형태 - 레져업소"},{"name":"죽이야기 동두천지행점","tel":"031-858-6233","addr":"경기도 동두천시 지행동 718-1번지 두손프라자 102호","category":"일반휴게음식 - 일반한식"},{"name":"지행종합격투기","tel":"031-532-4045","addr":"경기도 동두천시 지행동 718-1번지 두손프라자 602호","category":"회원제형태 - 레져업소"},{"name":"착한정육점","tel":"070-5017-9642","addr":"경기도 동두천시 지행동 718-1번지 두손프라자 106호","category":"음료식품 - 정육점"},{"name":"청담힐링테라피","tel":"031-866-2101","addr":"경기도 동두천시 지행동 718-1번지 두손프라자 2층 205호","category":"보건위생 - 화장품"},{"name":"체이스컬트 동두천점","tel":"031-859-3884","addr":"경기도 동두천시 지행동 718-1번지 두손이리옴프라자 107호","category":"의류 - 스포츠의류"},{"name":"초콜릿노래연습장","tel":"031-858-7772","addr":"경기도 동두천시 지행동 718-1 두손프라자 403호~404호","category":"레저업소 - 노 래 방"},{"name":"케이팝실용음악학원","tel":"031-790-1347","addr":"경기도 동두천시 지행동 718-1번지 두손프라자 502호","category":"회원제형태 - 학원"},{"name":"프리아이보습학원2관","tel":"031-866-9143","addr":"경기도 동두천시 지행동 718-1번지 두손프라자 603호","category":"학원 - 보습학원"},{"name":"프리아이보습학원2관","tel":"031-866-9143","addr":"경기도 동두천시 지행동 718-1번지 두손프라자 603호","category":"학원 - 보습학원"},{"name":"하루","tel":"070-8690-6706","addr":"경기도 동두천시 지행동 718-1번지 두손프라자 201호","category":"일반휴게음식 - 서양음식"},{"name":"한국체대송내태권도장","tel":"031-859-7550","addr":"경기도 동두천시 지행동 718-1번지 두손프라자 501호","category":"회원제형태 - 학원"}]},{"lat":"37.893443489","long":"127.04792475","items":[{"name":"7번가피자동두천점","tel":"031-867-0777","addr":"경기도 동두천시 지행동 689-4번지","category":"일반휴게음식 - 서양음식"}]},{"lat":"37.893080523","long":"127.05425688","items":[{"name":"AID 곰돌이포토(동두천점)","tel":"031-857-3588","addr":"경기도 동두천시 지행동 694-4번지 202호","category":"광학제품 - 사진관"},{"name":"나인(NINE)","tel":"","addr":"경기도 동두천시 지행동 694-4번지 태현빌딩 201호","category":"일반휴게음식 - 주점"},{"name":"너도나도쪽쪽갈비","tel":"031-868-9282","addr":"경기도 동두천시 지행동 694-4번지 태현빌딩 101호","category":"일반휴게음식 - 일반한식"},{"name":"라바나","tel":"031-868-8988","addr":"경기도 동두천시 지행동 694-4번지 302호","category":"보건위생 - 화장품"},{"name":"바이더러쉬","tel":"031-858-6611","addr":"경기도 동두천시 지행동 694-4번지 태현빌딩 1층 105호","category":"보건위생 - 미용원"},{"name":"스튜디오드블랑","tel":"031-863-3451","addr":"경기도 동두천시 지행동 694-4번지 104호","category":"의류 - 정장"},{"name":"어썸","tel":"070-7435-3993","addr":"경기도 동두천시 지행동 694-4번지 104호","category":"의류 - 정장"},{"name":"영화장품","tel":"031-868-8988","addr":"경기도 동두천시 지행동 694-4번지 태현빌딩 202호","category":"보건위생 - 화장품"}]},{"lat":"37.894491819","long":"127.06106781","items":[{"name":"BHC치킨","tel":"031-858-5577","addr":"경기도 동두천시 지행동 271-6번지","category":"일반휴게음식 - 스넥"},{"name":"피아노이야기음악학원","tel":"031-866-6663","addr":"경기도 동두천시 지행동 271-6번지","category":"학원 - 예·체능계학원"}]},{"lat":"37.893052544","long":"127.05639416","items":[{"name":"BROSIS (브로시스)","tel":"031-865-3732","addr":"경기도 동두천시 지행동 731-2번지 1층 3호","category":"일반휴게음식 - 서양음식"},{"name":"항아리보쌈 동두천","tel":"031-866-5355","addr":"경기도 동두천시 지행동 731-2번지 태영빌딩 1층 101,102호","category":"일반휴게음식 - 일반한식"}]},{"lat":"37.892693893","long":"127.05246037","items":[{"name":"CL요가지행점","tel":"031-864-1701","addr":"경기도 동두천시 지행동 693-2번지 생연프라자 702호","category":"레저업소 - 헬스클럽"},{"name":"가지런이치과의원","tel":"031-868-2828","addr":"경기도 동두천시 지행동 693-2 생연프라자4층402호~403호","category":"의원 - 치과의원"},{"name":"고봉민김밥(동두천지행점)","tel":"031-863-2340","addr":"경기도 동두천시 지행동 693-2번지 생연프라자 107호","category":"일반휴게음식 - 스넥"},{"name":"궁중식건강좌훈","tel":"031-861-8181","addr":"경기도 동두천시 지행동 693-2번지 생연프라자 7층 702호","category":"보건위생 - 피부미용실"},{"name":"댑 코리아(지행점)","tel":"031-866-0050","addr":"경기도 동두천시 지행동 693-2번지","category":"의류 - 내의판매"},{"name":"도현이네용천통닭","tel":"031-000-0000","addr":"경기도 동두천시 지행동 693-2번지 생연프라자 103호","category":"일반휴게음식 - 스넥"},{"name":"모모스테이크","tel":"031-862-9595","addr":"경기도 동두천시 지행동 693-2번지 생연프라자 2층 203호","category":"일반휴게음식 - 일반한식"},{"name":"미소야","tel":"031-864-8810","addr":"경기도 동두천시 지행동 693-2번지 생연프라자 106호","category":"일반휴게음식 - 일반한식"},{"name":"미술나무미술학원","tel":"031-858-5015","addr":"경기도 동두천시 지행동 693-2번지 생연프라자 804호","category":"학원 - 예·체능계학원"},{"name":"발로우","tel":"031-857-4416","addr":"경기도 동두천시 지행동 693-2번지 생연프라자 5층 501호","category":"보건위생 - 화장품"},{"name":"블루","tel":"031-863-9876","addr":"경기도 동두천시 지행동 693-2번지 생연프라자 401호","category":"일반휴게음식 - 서양음식"},{"name":"빵사부 식빵공방","tel":"031-503-8018","addr":"경기도 동두천시 지행동 693-2번지 생연프라자 101호","category":"음료식품 - 제과점"},{"name":"삼십팔점오(38.5)","tel":"070-7420-4891","addr":"경기도 동두천시 지행동 693-2번지 생연프라자 303호","category":"문화.취미 - 애완동물"},{"name":"서울맑은정신건강의학과의원","tel":"031-928-6656","addr":"경기도 동두천시 지행동 693-2번지 생연프라자 305호 306호","category":"의원 - 의원"},{"name":"센스쟁이PC방","tel":"070-5020-5314","addr":"경기도 동두천시 지행동 693-2번지 생연프라자","category":"레저업소 - 기타레져업소"},{"name":"송내엘리트보습제1학원","tel":"031-859-1135","addr":"경기도 동두천시 지행동 693-2번지 생연프라자 6층 601호","category":"학원 - 보습학원"},{"name":"송내한의원","tel":"031-859-1501","addr":"경기도 동두천시 지행동 693-2번지 생연프라자 3층 304호","category":"의원 - 한의원"},{"name":"얌샘김밥 동두천지행점","tel":"","addr":"경기도 동두천시 지행동 693-2번지 생연프라자 102호","category":"일반휴게음식 - 일반한식"},{"name":"연세우람치과","tel":"031-861-7528","addr":"경기도 동두천시 지행동 693-2번지 생연프라자 404호","category":"병원 - 치과병원"},{"name":"정이비인후과의원","tel":"031-859-6494","addr":"경기도 동두천시 지행동 693-2번지 생연프라자 503호","category":"의원 - 의원"},{"name":"주식회사케이티에프정안","tel":"031-846-5018","addr":"경기도 동두천시 지행동 693-2번지 생연프라자 110호","category":"사무통신 - 통신기기"},{"name":"중앙정보통신","tel":"031-862-0051","addr":"경기도 동두천시 지행동 693-2번지 생연프라자 104호","category":"사무통신 - 통신기기"},{"name":"초록스카이학원","tel":"031-862-1693","addr":"경기도 동두천시 지행동 693-2번지 생연프라자 603호 801호","category":"회원제형태 - 학원"},{"name":"평화온누리약국","tel":"031-864-9844","addr":"경기도 동두천시 지행동 693-2번지 생연프라자 505호","category":"약국 - 약국"},{"name":"핑크홀릭헤어","tel":"031-858-7319","addr":"경기도 동두천시 지행동 693-2번지 생연프라자 502호","category":"보건위생 - 미용원"},{"name":"행복한 고기마을","tel":"031-864-1101","addr":"경기도 동두천시 지행동 693-2번지 생연프라자 105호","category":"음료식품 - 정육점"},{"name":"허밍(humming)","tel":"070-4241-8585","addr":"경기도 동두천시 지행동 693-2번지 생연프라자 101호","category":"의류 - 정장"},{"name":"헬로우슬라임","tel":"02-755-6626","addr":"경기도 동두천시 지행동 693-2번지 생연프라자 504호","category":"일반휴게음식 - 서양음식"},{"name":"황제","tel":"031-857-0196","addr":"경기도 동두천시 지행동 693-2번지 생연프라자 602호","category":"보건위생 - 화장품"}]},{"lat":"37.891638897","long":"127.05456282","items":[{"name":"COME ON(컴온)","tel":"070-4138-1181","addr":"경기도 동두천시 지행동 721-3번지 중앙프라자 1층 113호","category":"의류 - 정장"},{"name":"고려에듀학원","tel":"031-858-5441","addr":"경기도 동두천시 지행동 721-3번지 중앙프라자 5층 503호","category":"학원 - 보습학원"},{"name":"김혜란 감정발달연구소","tel":"031-866-5880","addr":"경기도 동두천시 지행동 721-3번지 중앙프라자 702호","category":"학원 - 예·체능계학원"},{"name":"꼬지사께","tel":"","addr":"경기도 동두천시 지행동 721-3번지 중앙프라자 본동 111호","category":"일반휴게음식 - 주점"},{"name":"드림키즈태양태권도","tel":"031-857-6363","addr":"경기도 동두천시 지행동 721-3번지 중앙프라자 702호","category":"학원 - 예·체능계학원"},{"name":"맛간짬뽕","tel":"070-4176-9931","addr":"경기도 동두천시 지행동 721-3번지 중앙프라자 본동 110호","category":"일반휴게음식 - 중국식"},{"name":"뷰티케어","tel":"031-861-1557","addr":"경기도 동두천시 지행동 721-3번지 중앙프라자 3층","category":"보건위생 - 화장품"},{"name":"빵빵노래장","tel":"031-863-0979","addr":"경기도 동두천시 지행동 721-3번지 중앙프라자 204호","category":"일반휴게음식 - 주점"},{"name":"셜록홈즈 동두천지행점","tel":"031-868-8944","addr":"경기도 동두천시 지행동 721-3번지 중앙프라자 401호","category":"레저업소 - 기타레져업소"},{"name":"수꿀벌강정","tel":"031-858-0705","addr":"경기도 동두천시 지행동 721-3번지 중앙프라자 102호","category":"일반휴게음식 - 일반한식"},{"name":"씨유동두천지행중앙점","tel":"031-857-5156","addr":"경기도 동두천시 지행동 721-3번지 중앙프라자 1층 104호","category":"유통업 영리 - 편 의 점"},{"name":"오징어본가","tel":"031-862-5952","addr":"경기도 동두천시 지행동 721-3번지 중앙프라자 108호","category":"일반휴게음식 - 일반한식"},{"name":"옥스포드잉글리시랜드영어학원","tel":"031-862-0553","addr":"경기도 동두천시 지행동 721-3번지 중앙프라자 703호","category":"학원 - 보습학원"},{"name":"이담전수관","tel":"034-864-1100","addr":"경기도 동두천시 지행동 721-3번지 중앙프라자","category":"레저업소 - 헬스클럽"},{"name":"지피에스(G.P.S) 수학 영어 전문학원","tel":"031-862-7441","addr":"경기도 동두천시 지행동 721-3번지 중앙프라자 701호","category":"학원 - 보습학원"},{"name":"지행실용음악학원","tel":"031-861-0904","addr":"경기도 동두천시 지행동 721-3번지 중앙프라자 903호","category":"회원제형태 - 학원"},{"name":"지행쭈꾸미전문점","tel":"031-857-4974","addr":"경기도 동두천시 지행동 721-3번지 중앙프라자 112호","category":"일반휴게음식 - 일반한식"},{"name":"진짜수학리얼영어학원","tel":"031-866-3014","addr":"경기도 동두천시 지행동 721-3번지 중앙프라자","category":"학원 - 보습학원"},{"name":"커피하우스","tel":"031-427-3589","addr":"경기도 동두천시 지행동 721-3번지 중앙프라자 901호","category":"일반휴게음식 - 서양음식"},{"name":"코너스툴","tel":"031-868-5030","addr":"경기도 동두천시 지행동 721-3번지 중앙프라자 403호","category":"서적문구 - 일반서적"},{"name":"클레오파트라","tel":"031-857-1334","addr":"경기도 동두천시 지행동 721-3번지 중앙프라자 8층 802호","category":"회원제형태 - 기타4"},{"name":"킹볶이지행점","tel":"070-4197-8462","addr":"경기도 동두천시 지행동 721-3번지 중앙프라자 102호","category":"일반휴게음식 - 스넥"},{"name":"호밀호두","tel":"031-866-5251","addr":"경기도 동두천시 지행동 721-3번지 중앙프라자 101호","category":"음료식품 - 제과점"}]},{"lat":"37.897110335","long":"127.04779056","items":[{"name":"D2M토탈헤어","tel":"031-865-3370","addr":"경기도 동두천시 지행동 666번지","category":"보건위생 - 미용원"},{"name":"아모레 리리코스","tel":"031-866-3350","addr":"경기도 동두천시 지행동 666번지","category":"보건위생 - 화장품"},{"name":"아모레퍼시픽 리리코스","tel":"031-844-3302","addr":"경기도 동두천시 지행동 666번지","category":"보건위생 - 화장품"},{"name":"아모레퍼시픽리리코스","tel":"031-844-3302","addr":"경기도 동두천시 지행동 666번지","category":"보건위생 - 화장품"},{"name":"조조네 주방","tel":"031-111-1111","addr":"경기도 동두천시 지행동 666번지 1층","category":"일반휴게음식 - 서양음식"},{"name":"피오나네일샵","tel":"031-862-7024","addr":"경기도 동두천시 지행동 666번지 1층 102호","category":"보건위생 - 피부미용실"}]},{"lat":"37.891297236","long":"127.05295964","items":[{"name":"EBS스스로배움터학원","tel":"031-866-4280","addr":"경기도 동두천시 지행동 719-1번지 개림프라자 4층 401호","category":"학원 - 보습학원"},{"name":"HS영어놀이터어학원","tel":"070-7420-0420","addr":"경기도 동두천시 지행동 719-1번지 개림프라자 401-1호","category":"학원 - 외국어학원"},{"name":"강릉횟집","tel":"031-861-9700","addr":"경기도 동두천시 지행동 719-1번지 개림프라자","category":"일반휴게음식 - 일식·회집"},{"name":"국제어린이외국어학원","tel":"031-862-3457","addr":"경기도 동두천시 지행동 719-1번지 개림프라자 6층 601호","category":"학원 - 외국어학원"},{"name":"나인탑독서실","tel":"","addr":"경기도 동두천시 지행동 719-1번지 개림프라자 9층 901호","category":"학원 - 독서실"},{"name":"남주희음악학원","tel":"031-864-8983","addr":"경기도 동두천시 지행동 719-1번지 개림프라자 301호","category":"학원 - 예·체능계학원"},{"name":"노선생맨투맨학원","tel":"031-838-6298","addr":"경기도 동두천시 지행동 719-1번지 개림프라자 5층 501호","category":"학원 - 보습학원"},{"name":"대성N스쿨학원","tel":"031-861-5678","addr":"경기도 동두천시 지행동 719-1번지 개림프라자 4층 402호","category":"학원 - 보습학원"},{"name":"로봇코딩공학교습소","tel":"031-864-8982","addr":"경기도 동두천시 지행동 719-1번지 개림프라자 301호 일부","category":"학원 - 기능학원"},{"name":"마라바리스타학원","tel":"031-864-7030","addr":"경기도 동두천시 지행동 719-1번지 개림프라자 301호","category":"회원제형태 - 학원"},{"name":"맛있는분식","tel":"031-857-4831","addr":"경기도 동두천시 지행동 719-1번지 개림프라자 108호","category":"일반휴게음식 - 스넥"},{"name":"사과나무학원","tel":"031-861-1580","addr":"경기도 동두천시 지행동 719-1번지 개림프라자 8층 802호","category":"학원 - 보습학원"},{"name":"스터디라운지독서실","tel":"031-858-8208","addr":"경기도 동두천시 지행동 719-1번지 개림프라자 701호","category":"학원 - 독서실"},{"name":"외대어학원동두천학원","tel":"031-858-8209","addr":"경기도 동두천시 지행동 719-1번지 개림프라자 701호","category":"회원제형태 - 학원"},{"name":"육쌈냉면","tel":"031-861-6869","addr":"경기도 동두천시 지행동 719-1번지 개림프라자 1층 101호","category":"일반휴게음식 - 일반한식"},{"name":"지행무도합기도","tel":"031-864-7780","addr":"경기도 동두천시 지행동 719-1번지 개림프라자 702호","category":"학원 - 예·체능계학원"},{"name":"춘천골닭갈비","tel":"031-868-2573","addr":"경기도 동두천시 지행동 719-1개림플자102.103호","category":"일반휴게음식 - 일반한식"},{"name":"하베스트드럼학원","tel":"031-864-8982","addr":"경기도 동두천시 지행동 719-1번지 개림프라자 301호","category":"학원 - 예·체능계학원"},{"name":"할리스커피 동두천지행점","tel":"031-859-9100","addr":"경기도 동두천시 지행동 719-1번지 개림프라자105-107호 105호","category":"일반휴게음식 - 서양음식"},{"name":"헤어살롱숲","tel":"031-868-6313","addr":"경기도 동두천시 지행동 719-1번지 개림프라자 203호","category":"보건위생 - 미용원"}]},{"lat":"37.891942454","long":"127.06050875","items":[{"name":"EIE고려대학교국제어학원","tel":"031-864-0541","addr":"경기도 동두천시 지행동 331-1번지 2층","category":"학원 - 외국어학원"},{"name":"줄리어드음악학원","tel":"031-859-2447","addr":"경기도 동두천시 지행동 331-1","category":"회원제형태 - 학원"}]},{"lat":"37.893464468","long":"127.06164681","items":[{"name":"GS25 동두천휴먼빌","tel":"","addr":"경기도 동두천시 지행동 308번지 지행역휴먼빌아파트 101,102호","category":"유통업 영리 - 편 의 점"}]},{"lat":"37.892555759","long":"127.05912226","items":[{"name":"GS25동두천법원점","tel":"","addr":"경기도 동두천시 지행동 289-1번지","category":"유통업 영리 - 편 의 점"},{"name":"더만나스토리","tel":"031-865-9993","addr":"경기도 동두천시 지행동 289-1번지 104호","category":"일반휴게음식 - 일반한식"},{"name":"멘토학원","tel":"031-861-9164","addr":"경기도 동두천시 지행동 289-1번지","category":"학원 - 보습학원"},{"name":"민스헤어","tel":"031-864-5521","addr":"경기도 동두천시 지행동 289-1번지","category":"보건위생 - 미용원"},{"name":"지행닭발","tel":"031-859-2200","addr":"경기도 동두천시 지행동 289-1번지 105호","category":"일반휴게음식 - 일반한식"},{"name":"지행태양태권도장","tel":"031-864-4416","addr":"경기도 동두천시 지행동 289-1번지","category":"학원 - 예·체능계학원"},{"name":"케이지풋살","tel":"031-864-4887","addr":"경기도 동두천시 지행동 289-1번지 2층 201호","category":"레저업소 - 기타레져업소"},{"name":"해법에듀학원","tel":"031-861-2090","addr":"경기도 동두천시 지행동 289-1번지 천호빌딩 3층","category":"학원 - 보습학원"}]},{"lat":"37.897047638","long":"127.04681276","items":[{"name":"GS25동두천점","tel":"","addr":"경기도 동두천시 지행동 665번지","category":"유통업 영리 - 편 의 점"}]},{"lat":"37.891297095","long":"127.05328932","items":[{"name":"GS25동두천현대점","tel":"","addr":"경기도 동두천시 지행동 719-3번지 현대프라자 104호","category":"유통업 영리 - 편 의 점"},{"name":"경희대 호림 태권도장","tel":"031-861-3004","addr":"경기도 동두천시 지행동 719-3번지 현대프라자 2층 201호","category":"학원 - 예·체능계학원"},{"name":"베이비42","tel":"031-857-7643","addr":"경기도 동두천시 지행동 719-3 현대프라자 801호~802호","category":"광학제품 - 사진관"},{"name":"별노래연습장","tel":"031-858-4777","addr":"경기도 동두천시 지행동 719-3번지 현대프라자 202호","category":"레저업소 - 노 래 방"},{"name":"블링","tel":"031-868-0883","addr":"경기도 동두천시 지행동 719-3번지 현대프라자 102호","category":"보건위생 - 화장품"},{"name":"비비큐","tel":"031-857-9282","addr":"경기도 동두천시 지행동 719-3현대프라자1층107","category":"일반휴게음식 - 스넥"},{"name":"쎈수학러닝센터 지행학원","tel":"031-857-9954","addr":"경기도 동두천시 지행동 719-3번지 현대프라자 602호","category":"학원 - 보습학원"},{"name":"안경아울렛","tel":"070-8278-5003","addr":"경기도 동두천시 지행동 719-3번지 현대프라자 103호","category":"보건위생 - 안경"},{"name":"유약국","tel":"031-857-3678","addr":"경기도 동두천시 지행동 719-3번지 현대프라자 101호","category":"약국 - 약국"},{"name":"은평대리점동두천점","tel":"031-865-3010","addr":"경기도 동두천시 지행동 719-3번지 현대프라자 106호","category":"사무통신 - 통신기기"},{"name":"이보영의토킹클럽지행어학원","tel":"031-861-0584","addr":"경기도 동두천시 지행동 719-3번지 현대프라자 601호","category":"회원제형태 - 학원"},{"name":"짝태앤노가리","tel":"","addr":"경기도 동두천시 지행동 719-3번지 현대프라자 본동 108호","category":"일반휴게음식 - 주점"},{"name":"큐티클헤어","tel":"031-857-3228","addr":"경기도 동두천시 지행동 719-3번지 현대프라자 101호","category":"보건위생 - 미용원"},{"name":"팡팡스테이션","tel":"070-4401-8854","addr":"경기도 동두천시 지행동 719-3번지 현대프라자 502호","category":"레저업소 - 기타레져업소"},{"name":"팡팡스테이션","tel":"070-4401-8854","addr":"경기도 동두천시 지행동 719-3번지 현대프라자 5층 502호","category":"레저업소 - 기타레져업소"},{"name":"퐁당퐁당실내낚시카페","tel":"031-867-2454","addr":"경기도 동두천시 지행동 719-3번지 현대프라자 5층 501호","category":"레저업소 - 기타레져업소"}]},{"lat":"37.891963584","long":"127.05375589","items":[{"name":"GS25동두천효원점","tel":"","addr":"경기도 동두천시 지행동 721번지 효원월드타워 103호","category":"유통업 영리 - 편 의 점"},{"name":"김밥나라","tel":"031-857-6080","addr":"경기도 동두천시 지행동 721번지 효원월드타워 105호","category":"일반휴게음식 - 스넥"},{"name":"김복남맥주","tel":"031-862-0179","addr":"경기도 동두천시 지행동 721번지 효원월드타워 2층 202호","category":"일반휴게음식 - 주점"},{"name":"깡패고양이pc방","tel":"031-861-4900","addr":"경기도 동두천시 지행동 721번지 효원월드타워 401동 405호","category":"레저업소 - 기타레져업소"},{"name":"네이처리퍼블릭지행점","tel":"031-866-6122","addr":"경기도 동두천시 지행동 721번지 효원월드타워 104호","category":"보건위생 - 화장품"},{"name":"더스시","tel":"031-864-7066","addr":"경기도 동두천시 지행동 721번지 효원월드타워 301호","category":"일반휴게음식 - 일식·회집"},{"name":"마라순코우","tel":"031-867-8388","addr":"경기도 동두천시 지행동 721번지 효원월드타워","category":"일반휴게음식 - 중국식"},{"name":"못된고양이","tel":"02-3789-7901","addr":"경기도 동두천시 지행동 721번지 효원월드타워 102호","category":"신변잡화 - 액세서리"},{"name":"못말려곱창","tel":"031-867-0551","addr":"경기도 동두천시 지행동 721번지 효원월드타워 1층","category":"일반휴게음식 - 일반한식"},{"name":"바쿠스","tel":"031-863-6976","addr":"경기도 동두천시 지행동 721번지 효원월드타워 501호","category":"일반휴게음식 - 서양음식"},{"name":"스타휘트니스","tel":"031-861-9696","addr":"경기도 동두천시 지행동 721번지 효원월드타워 403호","category":"회원제형태 - 레져업소"},{"name":"씨네24DVD","tel":"031-862-6322","addr":"경기도 동두천시 지행동 721번지 효원월드타워 5층 502호","category":"레저업소 - 기타레져업소"},{"name":"온(ON)","tel":"","addr":"경기도 동두천시 지행동 721번지 효원월드타워 205호","category":"일반휴게음식 - 주점"},{"name":"우럼마왕만두","tel":"031-857-7266","addr":"경기도 동두천시 지행동 721번지 효원월드타워 110호","category":"일반휴게음식 - 일반한식"},{"name":"월드당구장","tel":"031-859-7979","addr":"경기도 동두천시 지행동 721번지 효원월드타워 3층 302호","category":"레저업소 - 당 구 장"},{"name":"육회본가지행점","tel":"070-4032-2037","addr":"경기도 동두천시 지행동 721번지 효원월드타워 1층 109호","category":"일반휴게음식 - 일반한식"},{"name":"이디야지행역점","tel":"031-866-4705","addr":"경기도 동두천시 지행동 721번지 효원월드타워 1층 106호,107호","category":"일반휴게음식 - 서양음식"},{"name":"천국노래연습장","tel":"031-861-6068","addr":"경기도 동두천시 지행동 721번지 효원월드타워 806호","category":"레저업소 - 노 래 방"},{"name":"킹빠","tel":"070-8833-4317","addr":"경기도 동두천시 지행동 721번지 효원월드타워 803호","category":"일반휴게음식 - 일반한식"},{"name":"퇘랑숯불생고기","tel":"031-861-3892","addr":"경기도 동두천시 지행동 721번지 효원월드타워 1층 113호","category":"일반휴게음식 - 일반한식"},{"name":"하남돼지집 동두천 지행역점","tel":"031-868-6876","addr":"경기도 동두천시 지행동 721번지 효원월드타워 2층 203호","category":"일반휴게음식 - 일반한식"},{"name":"호텔월드","tel":"031-859-5300","addr":"경기도 동두천시 지행동 721번지 효원월드타워 9층 10층","category":"숙박업 - 여관/기타숙박업"},{"name":"홈벤토","tel":"031-862-3696","addr":"경기도 동두천시 지행동 721번지 효원월드타워 110호","category":"일반휴게음식 - 일식·회집"},{"name":"효원월드타워(호텔월드)","tel":"031-859-5300","addr":"경기도 동두천시 지행동 721번지 효원월드타워","category":"숙박업 - 여관/기타숙박업"}]},{"lat":"37.889269722","long":"127.05392455","items":[{"name":"GS25송내2단지점","tel":"","addr":"경기도 동두천시 지행동 722-8번지 송내주공아파트 상가동 103호","category":"유통업 영리 - 편 의 점"},{"name":"가위쟁이","tel":"031-858-8676","addr":"경기도 동두천시 지행동 722-8번지 송내주공아파트 상가동 201호","category":"보건위생 - 미용원"},{"name":"송내키즈어린이집[아이행복]","tel":"031-823-2220","addr":"경기도 동두천시 지행동 722-8번지 송내주공아파트 관리동","category":"학원 - 유아원"}]},{"lat":"37.888219121","long":"127.06537132","items":[{"name":"GS25에코휴먼빌점","tel":"","addr":"경기도 동두천시 지행동 201-1번지 1층 좌측2칸","category":"유통업 영리 - 편 의 점"},{"name":"비비헤어","tel":"","addr":"경기도 동두천시 지행동 201-1번지 102호","category":"보건위생 - 미용원"}]},{"lat":"37.888078216","long":"127.0589256","items":[{"name":"GS25지행아이다빌점","tel":"","addr":"경기도 동두천시 지행동 358번지","category":"유통업 영리 - 편 의 점"}]},{"lat":"37.891520917","long":"127.056484","items":[{"name":"GS25지행역점","tel":"","addr":"경기도 동두천시 지행동 735번지","category":"유통업 영리 - 편 의 점"},{"name":"까미헤어샵","tel":"031-859-4600","addr":"경기도 동두천시 지행동 735번지","category":"보건위생 - 미용원"}]},{"lat":"37.893080741","long":"127.05375666","items":[{"name":"H 헤어","tel":"031-858-8934","addr":"경기도 동두천시 지행동 694-2번지 이호빌딩 1층 105호","category":"보건위생 - 미용원"},{"name":"달려라기봉닭발&호프","tel":"031-866-2288","addr":"경기도 동두천시 지행동 694-2번지 2층","category":"일반휴게음식 - 일반한식"},{"name":"동경꼬치","tel":"070-4148-4121","addr":"경기도 동두천시 지행동 694-2번지 이호빌딩 101호","category":"일반휴게음식 - 일반한식"},{"name":"맘스터치 지행1호점","tel":"031-862-9995","addr":"경기도 동두천시 지행동 694-2번지 이호빌딩 1층 102,103호","category":"일반휴게음식 - 스넥"},{"name":"통닭과 노가리","tel":"031-857-9992","addr":"경기도 동두천시 지행동 694-2번지","category":"일반휴게음식 - 일반한식"}]},{"lat":"37.891387555","long":"127.05242539","items":[{"name":"H휘트니스","tel":"031-864-6543","addr":"경기도 동두천시 지행동 718번지 메인프라자 801호","category":"레저업소 - 헬스클럽"},{"name":"구인당한의원","tel":"031-868-1001","addr":"경기도 동두천시 지행동 718번지 메인프라자 301호","category":"의원 - 한의원"},{"name":"대한검도회현인관","tel":"031-868-3691","addr":"경기도 동두천시 지행동 718번지 메인프라자 6층 603호","category":"학원 - 기타 교육기관"},{"name":"더가루동두천점","tel":"031-868-1123","addr":"경기도 동두천시 지행동 718번지 메인프라자 203호","category":"음료식품 - 기타음료식품"},{"name":"동두천미술학원","tel":"031-861-9144","addr":"경기도 동두천시 지행동 718번지 메인프라자 403동","category":"학원 - 예·체능계학원"},{"name":"동주떡공방","tel":"031-862-1304","addr":"경기도 동두천시 지행동 718번지 메인프라자 103호","category":"음료식품 - 제과점"},{"name":"뚜레쥬르 동두천송내(2)","tel":"031-859-1114","addr":"경기도 동두천시 지행동 718번지 메인프라자 105호","category":"음료식품 - 제과점"},{"name":"마이스토리","tel":"031-869-5989","addr":"경기도 동두천시 지행동 718번지 메인프라자 202호","category":"일반휴게음식 - 일반한식"},{"name":"멀티영어대표학원","tel":"031-859-5567","addr":"경기도 동두천시 지행동 718번지 메인프라자 602호","category":"학원 - 보습학원"},{"name":"메인스포츠","tel":"031-864-6543","addr":"경기도 동두천시 지행동 718번지 메인프라자 801호","category":"회원제형태 - 학원"},{"name":"미소드림치과의원","tel":"031-859-2275","addr":"경기도 동두천시 지행동 718번지 메인프라자 302호","category":"의원 - 치과의원"},{"name":"미스터","tel":"031-858-3690","addr":"경기도 동두천시 지행동 718번지 메인프라자 104호","category":"보건위생 - 미용원"},{"name":"봉구스밥버거","tel":"031-866-5094","addr":"경기도 동두천시 지행동 718번지 메인프라자 106호","category":"일반휴게음식 - 스넥"},{"name":"비비드스템프","tel":"070-7579-8657","addr":"경기도 동두천시 지행동 718번지 메인프라자 101호","category":"사무통신 - 기타 사무용품"},{"name":"비비드키즈","tel":"070-7579-8657","addr":"경기도 동두천시 지행동 718번지 메인프라자 101호","category":"의류 - 아동의류"},{"name":"비상아이비츠학원","tel":"031-858-1122","addr":"경기도 동두천시 지행동 718번지 메인프라자 701호","category":"학원 - 보습학원"},{"name":"비타클리닉","tel":"031-862-8700","addr":"경기도 동두천시 지행동 718번지 메인프라자 5동 502호","category":"건강식품 - 기타건강식품"},{"name":"솔드아웃(SOLD OUT)","tel":"070-4176-9931","addr":"경기도 동두천시 지행동 718번지 메인프라자 1층 108호","category":"의류 - 정장"},{"name":"솔로몬태권도","tel":"070-8235-3536","addr":"경기도 동두천시 지행동 718번지 메인프라자 503호","category":"학원 - 예·체능계학원"},{"name":"송내실비집","tel":"031-857-6006","addr":"경기도 동두천시 지행동 718번지 메인프라자 205호","category":"일반휴게음식 - 일반한식"},{"name":"수유리우동","tel":"031-866-9091","addr":"경기도 동두천시 지행동 718번지 메인프라자 111호","category":"일반휴게음식 - 일반한식"},{"name":"슈브헤어아트","tel":"031-865-7678","addr":"경기도 동두천시 지행동 78메인프라자204","category":"보건위생 - 미용원"},{"name":"에벤에셀음악학원","tel":"031-863-3349","addr":"경기도 동두천시 지행동 718번지 메인프라자 501호","category":"회원제형태 - 학원"},{"name":"우리농축산물 할인마트","tel":"031-862-9289","addr":"경기도 동두천시 지행동 718번지 메인프라자 109호","category":"음료식품 - 농·축·수산품"},{"name":"이선형피아노학원","tel":"031-864-8399","addr":"경기도 동두천시 지행동 699메인프라자4층1호","category":"회원제형태 - 학원"},{"name":"정관장경기지행점","tel":"031-862-1304","addr":"경기도 동두천시 지행동 718번지 메인프라자 103호","category":"건강식품 - 홍삼제품"},{"name":"정관장지행점","tel":"031-862-1304","addr":"경기도 동두천시 지행동 718번지 메인프라자 103호","category":"건강식품 - 홍삼제품"},{"name":"정육점오빠","tel":"","addr":"경기도 동두천시 지행동 718번지 메인프라자 201호","category":"일반휴게음식 - 일반한식"},{"name":"좋은친구들문구","tel":"031-857-0882","addr":"경기도 동두천시 지행동 718번지 메인프라자 107호","category":"서적문구 - 문구용품"},{"name":"포토라인","tel":"031-862-3993","addr":"경기도 동두천시 지행동 699메인프라자106","category":"광학제품 - 사진관"},{"name":"폼나리","tel":"031-859-6166","addr":"경기도 동두천시 지행동 718번지 메인프라자 102호","category":"의류 - 정장"},{"name":"프리아이보습학원","tel":"031-866-9144","addr":"경기도 동두천시 지행동 718번지 메인프라자 404호","category":"회원제형태 - 학원"},{"name":"필아트미술학원","tel":"031-863-7990","addr":"경기도 동두천시 지행동 718번지 메인프라자 7층 701호","category":"학원 - 예·체능계학원"},{"name":"핏앤핏마켓","tel":"02-1111-1111","addr":"경기도 동두천시 지행동 718번지 메인프라자 101호","category":"의류 - 정장"},{"name":"홈스테리어","tel":"031-865-8341","addr":"경기도 동두천시 지행동 699메인프라자202호","category":"직물 - 침구·수예점"}]},{"lat":"37.89254751","long":"127.05750792","items":[{"name":"IM HAIR샵","tel":"031-867-0815","addr":"경기도 동두천시 지행동 531-1번지","category":"보건위생 - 미용원"},{"name":"리안텔레콤","tel":"031-822-9858","addr":"경기도 동두천시 지행동 531-1번지 3호","category":"사무통신 - 통신기기"},{"name":"온모바일","tel":"031-822-9858","addr":"경기도 동두천시 지행동 531-1번지 1층","category":"신변잡화 - 기타잡화"}]},{"lat":"37.892276789","long":"127.05845131","items":[{"name":"K2헤어","tel":"031-868-9669","addr":"경기도 동두천시 지행동 285-1번지","category":"보건위생 - 미용원"},{"name":"YOON퍼피살롱","tel":"031-858-2253","addr":"경기도 동두천시 지행동 285-1번지","category":"문화.취미 - 애완동물"},{"name":"세븐일레븐동두천법원점","tel":"031-1577-0711","addr":"경기도 동두천시 지행동 285-1번지 1층","category":"유통업 영리 - 편 의 점"},{"name":"스타일텔레콤","tel":"031-866-5650","addr":"경기도 동두천시 지행동 285-1번지","category":"사무통신 - 통신기기"}]},{"lat":"37.892576468","long":"127.05317651","items":[{"name":"KH프라자","tel":"","addr":"경기도 동두천시 지행동 693-5번지","category":"자동차정비 유지 - 주차장"},{"name":"우리이비인후과의원","tel":"031-866-0974","addr":"경기도 동두천시 지행동 693-5번지 K.H프라자 3층 303,304호","category":"의원 - 의원"},{"name":"투썸플레이스(동두천지행역점)","tel":"031-866-2530","addr":"경기도 동두천시 지행동 693-5번지 K.H프라자","category":"일반휴게음식 - 서양음식"},{"name":"투썸플레이스-지행역점","tel":"031-866-2530","addr":"경기도 동두천시 지행동 693-5번지 1층 102호, 2층 전체","category":"일반휴게음식 - 서양음식"}]},{"lat":"37.89571369","long":"127.04831269","items":[{"name":"K보습학원","tel":"031-865-0303","addr":"경기도 동두천시 지행동 680-1번지 3층","category":"학원 - 보습학원"},{"name":"그린당구클럽","tel":"070-7534-9576","addr":"경기도 동두천시 지행동 680-1번지 2층","category":"레저업소 - 당 구 장"},{"name":"봉구비어","tel":"031-865-4619","addr":"경기도 동두천시 지행동 680-1번지 103호","category":"일반휴게음식 - 주점"},{"name":"부추국수전문점","tel":"031-861-1223","addr":"경기도 동두천시 지행동 680-1번지","category":"일반휴게음식 - 일반한식"},{"name":"피자에땅(동두천점)","tel":"031-861-2082","addr":"경기도 동두천시 지행동 680-1번지","category":"일반휴게음식 - 서양음식"}]},{"lat":"37.896110025","long":"127.0485062","items":[{"name":"MI 스킨케어 바디&풋","tel":"031-861-1069","addr":"경기도 동두천시 지행동 672-2번지 3층 302호","category":"보건위생 - 피부미용실"},{"name":"종로빈대떡(생연점)","tel":"031-861-7307","addr":"경기도 동두천시 지행동 672-2번지","category":"일반휴게음식 - 일반한식"}]},{"lat":"37.891305119","long":"127.05554027","items":[{"name":"N.B휘트니스클럽","tel":"031-858-6223","addr":"경기도 동두천시 지행동 424-1번지 지행역사 1층","category":"회원제형태 - 레져업소"},{"name":"그린몬스터","tel":"070-7420-2515","addr":"경기도 동두천시 지행동 424-1번지","category":"레저업소 - 기타레져업소"},{"name":"동두천 풋살파크","tel":"031-111-1111","addr":"경기도 동두천시 지행동 424-1번지","category":"레저업소 - 기타레져업소"},{"name":"패밀리F&I","tel":"031-868-9590","addr":"경기도 동두천시 지행동 424-1번지 지행역 맞이방","category":"음료식품 - 기타음료식품"}]},{"lat":"37.891519205","long":"127.0601219","items":[{"name":"ZAIB TRADING","tel":"070-8762-5973","addr":"경기도 동두천시 지행동 334-20번지","category":"신변잡화 - 액세서리"}]},{"lat":"37.891769811","long":"127.06343031","items":[{"name":"coffee no.257(커피 257)","tel":"031-111-1111","addr":"경기도 동두천시 지행동 257-2번지","category":"일반휴게음식 - 서양음식"}]},{"lat":"37.891972252","long":"127.05454032","items":[{"name":"e편한안경원","tel":"031-864-7878","addr":"경기도 동두천시 지행동 721-2 지행역프라자 123.124호","category":"보건위생 - 안경"},{"name":"강촌식당(지행역점)","tel":"031-864-1253","addr":"경기도 동두천시 지행동 721-2번지 지행역프라자 112호,113호","category":"일반휴게음식 - 일반한식"},{"name":"김밥천국 지행역점","tel":"031-863-3450","addr":"경기도 동두천시 지행동 721-2번지 지행역프라자 109호","category":"일반휴게음식 - 일반한식"},{"name":"네일  (애)반하다","tel":"031-868-0033","addr":"경기도 동두천시 지행동 721-2번지 지행역프라자 117호","category":"보건위생 - 피부미용실"},{"name":"놀이터","tel":"031-857-4238","addr":"경기도 동두천시 지행동 721-2번지 지행역프라자 118호","category":"의류 - 정장"},{"name":"늘사랑노인전문요양원","tel":"031-872-1234","addr":"경기도 동두천시 지행동 721-2번지 지행역프라자 402호","category":"기타의료기관 - 기타의료기관 및 기타"},{"name":"대광사","tel":"031-862-8857","addr":"경기도 동두천시 지행동 721-2번지 지행역프라자 115호","category":"서적문구 - 문구용품"},{"name":"더벤티 동두천 지행역점","tel":"070-6313-7225","addr":"경기도 동두천시 지행동 721-2번지 지행역프라자 1층 102호","category":"일반휴게음식 - 서양음식"},{"name":"던킨도너츠지행점","tel":"031-861-9045","addr":"경기도 동두천시 지행동 721-2번지 지행역프라자 101호","category":"음료식품 - 제과점"},{"name":"동두천 컨벤션 웨딩","tel":"031-862-2500","addr":"경기도 동두천시 지행동 721-2번지 지행역프라자 6,7층","category":"용역 서비스 - 혼례서비스"},{"name":"동두천알파문구","tel":"031-858-1377","addr":"경기도 동두천시 지행동 721-2번지 지행역프라자 2층 202호~203호","category":"서적문구 - 문구용품"},{"name":"등촌샤브칼국수(동두천점)","tel":"031-816-2340","addr":"경기도 동두천시 지행동 721-2번지 106,114호","category":"일반휴게음식 - 일반한식"},{"name":"떡사랑","tel":"031-863-2040","addr":"경기도 동두천시 지행동 721-2번지 지행프라자 103호","category":"음료식품 - 제과점"},{"name":"락휴코인노래연습장","tel":"070-8831-1198","addr":"경기도 동두천시 지행동 721-2번지 지행역프라자 207호","category":"레저업소 - 노 래 방"},{"name":"럭셔리큐당구장","tel":"031-747-8874","addr":"경기도 동두천시 지행동 721-2번지 지행역프라자 4층 403호","category":"레저업소 - 당 구 장"},{"name":"레드버켓","tel":"031-725-4325","addr":"경기도 동두천시 지행동 721-2번지 지행역프라자 102호","category":"음료식품 - 기타음료식품"},{"name":"명랑시대 쌀핫도그","tel":"","addr":"경기도 동두천시 지행동 721-2번지 지행역프라자 1층 104호","category":"일반휴게음식 - 일반한식"},{"name":"명인만두","tel":"031-864-2340","addr":"경기도 동두천시 지행동 721-2번지 지행역프라자 116호 105","category":"일반휴게음식 - 스넥"},{"name":"미래종합관리","tel":"031-857-7808","addr":"경기도 동두천시 지행동 721-2번지 지행역프라자 지하1층 관리사무소","category":"자동차정비 유지 - 주차장"},{"name":"보디가드 동두천점","tel":"031-857-9903","addr":"경기도 동두천시 지행동 721-2번지 지행역프라자 1층 107호","category":"의류 - 내의판매"},{"name":"서동한의원","tel":"031-863-1075","addr":"경기도 동두천시 지행동 721-2번지 지행역프라자 3층 305호","category":"의원 - 한의원"},{"name":"설빙동두천지행역점","tel":"031-858-4705","addr":"경기도 동두천시 지행동 721-2번지 지행역프라자 205호","category":"일반휴게음식 - 스넥"},{"name":"스킨푸드(지행점)","tel":"031-866-8803","addr":"경기도 동두천시 지행동 721-2번지 지행역프라자 119호","category":"보건위생 - 화장품"},{"name":"스타일리스트클럽더헤어","tel":"031-867-4080","addr":"경기도 동두천시 지행동 721-2번지 지행역프라자 3층 306호,307호","category":"보건위생 - 미용원"},{"name":"시카고치과의원","tel":"031-859-2859","addr":"경기도 동두천시 지행동 721-2번지","category":"의원 - 치과의원"},{"name":"쓰리팝 피시 카페","tel":"070-3524-0654","addr":"경기도 동두천시 지행동 721-2번지 지행역프라자","category":"레저업소 - 기타레져업소"},{"name":"어울림PC","tel":"031-868-7568","addr":"경기도 동두천시 지행동 721-2번지 지행역프라자 204호","category":"레저업소 - 기타레져업소"},{"name":"와쿠와쿠미용실","tel":"031-864-4155","addr":"경기도 동두천시 지행동 721-2번지 내행역프라자상가 201호","category":"보건위생 - 미용원"},{"name":"우리친구슬라임","tel":"031-111-1111","addr":"경기도 동두천시 지행동 721-2번지 지행역프라자 209호","category":"서적문구 - 완구점"},{"name":"운동가짐","tel":"","addr":"경기도 동두천시 지행동 721-2번지 지행역프라자 401호","category":"레저업소 - 헬스클럽"},{"name":"운동가짐","tel":"031-867-2347","addr":"경기도 동두천시 지행동 721-2번지 지행역프라자 401호","category":"레져용품 - 스포츠·레져용품"},{"name":"유일약국","tel":"031-862-2030","addr":"경기도 동두천시 지행동 721-2번지 지행역프라자 304호","category":"약국 - 약국"},{"name":"이니스프리","tel":"031-864-0002","addr":"경기도 동두천시 지행동 721-2번지 지행역프라자 1층 122호","category":"보건위생 - 화장품"},{"name":"이스포츠 피씨 카페","tel":"070-3024-5945","addr":"경기도 동두천시 지행동 721-2번지 지행역프라자","category":"레저업소 - 기타레져업소"},{"name":"쥬씨","tel":"070-4117-1028","addr":"경기도 동두천시 지행동 721-2번지 지행역프라자 108호","category":"일반휴게음식 - 서양음식"},{"name":"카페베네 지행점","tel":"031-857-0011","addr":"경기도 동두천시 지행동 721-2번지 지행역프라자 106호","category":"일반휴게음식 - 서양음식"},{"name":"필라테스정원 동두천 지행점","tel":"031-862-9322","addr":"경기도 동두천시 지행동 721-2번지 지행역프라자 501호","category":"레저업소 - 헬스클럽"},{"name":"하나쥬얼리","tel":"031-864-5889","addr":"경기도 동두천시 지행동 721-2번지 지행역프라자 1층 120호","category":"신변잡화 - 귀금속"}]},{"lat":"37.889913791","long":"127.06362205","items":[{"name":"가람가온수학교습소","tel":"031-868-9969","addr":"경기도 동두천시 지행동 172번지 동양엔파트 106호 동양엔파트상가","category":"회원제형태 - 학원"},{"name":"동양N마트","tel":"031-866-5356","addr":"경기도 동두천시 지행동 172번지 단지내상가 102호","category":"유통업 영리 - 슈퍼마켓"},{"name":"동양어린이집[아이행복]","tel":"031-836-3007","addr":"경기도 동두천시 지행동 172번지 동양엔파트 107동 로비층호","category":"학원 - 유아원"},{"name":"동양어린이집[아이행복]","tel":"031-836-3007","addr":"경기도 동두천시 지행동 172번지 동양엔파크 107호 동로비층","category":"학원 - 유아원"},{"name":"미소진","tel":"","addr":"경기도 동두천시 지행동 172번지 동양엔파트 1층 110호","category":"일반휴게음식 - 일반한식"},{"name":"베베옷방","tel":"031-859-4258","addr":"경기도 동두천시 지행동 172번지 지행 동양엔파트 상가 1층 105","category":"의류 - 정장"},{"name":"씨유동두천동양앤파트점","tel":"031-866-5356","addr":"경기도 동두천시 지행동 172번지 단지 상가 102호","category":"유통업 영리 - 편 의 점"},{"name":"알프스세탁","tel":"031-868-8830","addr":"경기도 동두천시 지행동 172번지 동양엔파트근린생활시설 1층 109호","category":"수리서비스 - 세탁소"},{"name":"온테크","tel":"070-7522-9500","addr":"경기도 동두천시 지행동 172번지 지행동동양엔파트 107동 903호","category":"회원제형태 - 기타1"},{"name":"온테크","tel":"070-7522-9500","addr":"경기도 동두천시 지행동 172번지 동양엔파트 107동 903호","category":"사무통신 - 통신기기"},{"name":"윤선생우리집앞영어교실동양엔파트영어교습","tel":"031-868-9968","addr":"경기도 동두천시 지행동 172번지 동양엔파트 상가 106호","category":"학원 - 외국어학원"},{"name":"종이도시락","tel":"031-866-1998","addr":"경기도 동두천시 지행동 172번지 동양엔파트 1층 108호","category":"일반휴게음식 - 스넥"}]},{"lat":"37.892159667","long":"127.05845122","items":[{"name":"가위소리","tel":"031-111-1111","addr":"경기도 동두천시 지행동 286-35번지 삼원아트빌 101호","category":"보건위생 - 미용원"},{"name":"이모가차려주는밥상","tel":"031-866-3392","addr":"경기도 동두천시 지행동 286-35번지 삼원아트빌본동 102호","category":"일반휴게음식 - 일반한식"},{"name":"화이트크리닝","tel":"","addr":"경기도 동두천시 지행동 286-35번지 상원아트 101호","category":"수리서비스 - 세탁소"}]},{"lat":"37.892576135","long":"127.05394957","items":[{"name":"가장맛있는족발","tel":"031-858-5849","addr":"경기도 동두천시 지행동 695-1번지 한승빌딩 104호","category":"일반휴게음식 - 일반한식"},{"name":"명진종합관리","tel":"031-857-5678","addr":"경기도 동두천시 지행동 695-1번지 한승빌딩 901호","category":"용역 서비스 - 종합용역"},{"name":"본스PC수리","tel":"070-8816-1183","addr":"경기도 동두천시 지행동 695-1번지 한승빌딩 501호","category":"수리서비스 - 사무·통신기기수리"},{"name":"엉터리삼겹살","tel":"031-862-5055","addr":"경기도 동두천시 지행동 695-1번지 한승빌딩 301호","category":"일반휴게음식 - 일반한식"},{"name":"조은아이치과","tel":"031-861-2879","addr":"경기도 동두천시 지행동 695-1번지 한승빌딩 401호","category":"의원 - 치과의원"},{"name":"카네이션요양원","tel":"031-858-3633","addr":"경기도 동두천시 지행동 695-1번지 한승빌딩","category":"기타의료기관 - 기타의료기관 및 기타"}]},{"lat":"37.888159798","long":"127.05786845","items":[{"name":"강남동태탕","tel":"031-867-5511","addr":"경기도 동두천시 지행동 356-7번지","category":"일반휴게음식 - 일반한식"}]},{"lat":"37.894329897","long":"127.06056746","items":[{"name":"강산에","tel":"031-859-5288","addr":"경기도 동두천시 지행동 303번지","category":"일반휴게음식 - 일반한식"}]},{"lat":"37.892829636","long":"127.05100528","items":[{"name":"개인과외 (줄리영어)","tel":"","addr":"경기도 동두천시 지행동 691-3번지 현진에버빌 112동 101호","category":"학원 - 기타 교육기관"},{"name":"에버빌어린이집[아이행복]","tel":"031-862-0571","addr":"경기도 동두천시 지행동 691-3번지 현진에버빌 112동 102호","category":"학원 - 유아원"}]},{"lat":"37.89313533","long":"127.05250614","items":[{"name":"거산세무법인(제2지점)","tel":"070-7723-9825","addr":"경기도 동두천시 지행동 693번지 이담프라자빌딩 6층 601호","category":"용역 서비스 - 법률회계서비스(법인)"},{"name":"공인회계사유기봉사무","tel":"031-864-2360","addr":"경기도 동두천시 지행동 693번지 이담프라자빌딩 401호","category":"용역 서비스 - 법률회계서비스(개인)"},{"name":"김은경음악학원","tel":"031-864-8866","addr":"경기도 동두천시 지행동 693번지 이담프라자 3층 302호","category":"학원 - 예·체능계학원"},{"name":"동두천마니커대리점","tel":"031-865-5954","addr":"경기도 동두천시 지행동 693번지 이담프라자빌딩 101호","category":"음료식품 - 정육점"},{"name":"리틀팍스어학원","tel":"031-857-0579","addr":"경기도 동두천시 지행동 693번지 이담프라자 501호","category":"학원 - 외국어학원"},{"name":"미스터피자(동두천점)","tel":"031-858-1141","addr":"경기도 동두천시 지행동 693번지 이담프라자 2층 201호","category":"일반휴게음식 - 서양음식"},{"name":"바론헤어살롱","tel":"031-865-9177","addr":"경기도 동두천시 지행동 693번지 이담프라자빌딩 202호","category":"보건위생 - 미용원"},{"name":"순흥보습학원","tel":"031-865-2515","addr":"경기도 동두천시 지행동 693번지 이담프라자빌딩 402호","category":"학원 - 보습학원"},{"name":"유현아무용학원","tel":"031-858-0828","addr":"경기도 동두천시 지행동 693번지 아담프라자 602호","category":"학원 - 예·체능계학원"},{"name":"큰집닭강정","tel":"031-859-8333","addr":"경기도 동두천시 지행동 693번지 이담프라자빌딩 102호","category":"일반휴게음식 - 스넥"},{"name":"홍루이젠 지행점","tel":"031-1566-5801","addr":"경기도 동두천시 지행동 693번지 이담프라자빌딩 1층 105호","category":"일반휴게음식 - 서양음식"}]},{"lat":"37.894606079","long":"127.04690226","items":[{"name":"경기북부HP서비스센터","tel":"02-2448-1722","addr":"경기도 동두천시 지행동 678번지 모던빌","category":"사무통신 - 컴퓨터"}]},{"lat":"37.893633051","long":"127.04695853","items":[{"name":"경기북부센타","tel":"031-864-0242","addr":"경기도 동두천시 지행동 686-5번지","category":"자동차정비 유지 - 자동차부품"}]},{"lat":"37.896713627","long":"127.04856342","items":[{"name":"경화루","tel":"031-865-9939","addr":"경기도 동두천시 지행동 671-1번지","category":"일반휴게음식 - 중국식"}]},{"lat":"37.892800091","long":"127.05681462","items":[{"name":"경희지행한의원","tel":"031-857-1075","addr":"경기도 동두천시 지행동 730-3번지 2층","category":"의원 - 한의원"},{"name":"귀엽지롱","tel":"031-861-8832","addr":"경기도 동두천시 지행동 730-3번지 1층 109호","category":"일반휴게음식 - 일반한식"},{"name":"더예쁨","tel":"031-928-5648","addr":"경기도 동두천시 지행동 730-3번지","category":"보건위생 - 피부미용실"},{"name":"법무사김원태사무소","tel":"031-878-0400","addr":"경기도 동두천시 지행동 730-3번지 외1필지 201호","category":"용역 서비스 - 법률회계서비스(개인)"},{"name":"신전떡볶이","tel":"031-868-7111","addr":"경기도 동두천시 지행동 730-3번지 110호","category":"일반휴게음식 - 스넥"},{"name":"양키캔들(동두천점)","tel":"031-858-4879","addr":"경기도 동두천시 지행동 730-3번지 104호","category":"신변잡화 - 기타잡화"},{"name":"에스핏(SFIT)동두천지행점","tel":"031-857-0088","addr":"경기도 동두천시 지행동 730-3번지 107호","category":"의류 - 스포츠의류"},{"name":"장수온누리약국","tel":"031-857-1888","addr":"경기도 동두천시 지행동 730-3번지 101호","category":"약국 - 약국"},{"name":"정빈네일","tel":"","addr":"경기도 동두천시 지행동 730-3번지 108호","category":"보건위생 - 피부미용실"},{"name":"정빈헤어","tel":"031-868-3967","addr":"경기도 동두천시 지행동 730-3번지 108호 4호","category":"보건위생 - 미용원"},{"name":"치킨명작지행역점","tel":"","addr":"경기도 동두천시 지행동 730-3번지 1층 103호,104호","category":"일반휴게음식 - 스넥"}]},{"lat":"37.893304561","long":"127.05692867","items":[{"name":"계륵장군동두천점","tel":"031-863-4966","addr":"경기도 동두천시 지행동 730번지","category":"일반휴게음식 - 일반한식"},{"name":"마리코코","tel":"031-867-1683","addr":"경기도 동두천시 지행동 730번지","category":"의류 - 정장"},{"name":"명성OA","tel":"031-855-1120","addr":"경기도 동두천시 지행동 730번지","category":"사무통신 - 기타 사무용품"},{"name":"슈에뜨베이커리","tel":"031-872-1501","addr":"경기도 동두천시 지행동 730번지 무지개 상가 1층","category":"음료식품 - 제과점"},{"name":"오감발달 체육교실","tel":"031-866-9689","addr":"경기도 동두천시 지행동 730번지 3층 302호","category":"학원 - 기타 교육기관"},{"name":"오감발달실내놀이터","tel":"031-866-9689","addr":"경기도 동두천시 지행동 730번지 1층","category":"일반휴게음식 - 일반한식"}]},{"lat":"37.891493801","long":"127.05667725","items":[{"name":"고대서서갈비 동두천점","tel":"031-862-1292","addr":"경기도 동두천시 지행동 735번지 1호","category":"일반휴게음식 - 일반한식"},{"name":"빨간지붕/(주)에이치앤컴퍼니 동두천지점","tel":"02-1111-1111","addr":"경기도 동두천시 지행동 735-1번지","category":"의류 - 스포츠의류"}]},{"lat":"37.893469703","long":"127.05000525","items":[{"name":"고려대멘토보습학원","tel":"031-858-8183","addr":"경기도 동두천시 지행동 691-3번지 현진에버빌 3층","category":"학원 - 보습학원"},{"name":"기타 앤 기타","tel":"031-864-7959","addr":"경기도 동두천시 지행동 691-3번지 현진에버빌 제상가동 제2층 206호","category":"학원 - 예·체능계학원"},{"name":"머리하는날","tel":"031-858-6171","addr":"경기도 동두천시 지행동 691-3현진에버빌상가102","category":"보건위생 - 미용원"},{"name":"무지개김밥","tel":"031-868-5789","addr":"경기도 동두천시 지행동 691-3번지 현진에버빌 105호","category":"일반휴게음식 - 일반한식"},{"name":"윤카페","tel":"031-858-9496","addr":"경기도 동두천시 지행동 691-3번지 현진에버빌 상가동 106호","category":"일반휴게음식 - 일반한식"},{"name":"이지키즈어린이집","tel":"031-861-7955","addr":"경기도 동두천시 지행동 691-3현진에버빌관리","category":"학원 - 유치원"},{"name":"정은영뷰티샵","tel":"031-863-7702","addr":"경기도 동두천시 지행동 691-3번지 현진에버빌 상가동 2층 205호","category":"보건위생 - 화장품"},{"name":"현진세탁소","tel":"031-864-8647","addr":"경기도 동두천시 지행동 691-3번지 현진에버빌","category":"수리서비스 - 세탁소"}]},{"lat":"37.891999813","long":"127.05331254","items":[{"name":"고려족발","tel":"031-861-9220","addr":"경기도 동두천시 지행동 718-4번지 스타월드빌딩 103호","category":"일반휴게음식 - 일반한식"},{"name":"공차","tel":"031-863-0033","addr":"경기도 동두천시 지행동 718-4번지 스타월드빌딩 1층 113호","category":"일반휴게음식 - 서양음식"},{"name":"국수나무(지행점)","tel":"031-862-8623","addr":"경기도 동두천시 지행동 718-4번지 스타월드빌딩 본동 106호","category":"일반휴게음식 - 일반한식"},{"name":"대풍당","tel":"031-865-2705","addr":"경기도 동두천시 지행동 718-4번지","category":"신변잡화 - 귀금속"},{"name":"더파티스타","tel":"031-862-2228","addr":"경기도 동두천시 지행동 718-4번지 스타월드빌딩 8층 전체","category":"일반휴게음식 - 일반한식"},{"name":"더페이스샵동두천지행점","tel":"031-868-8522","addr":"경기도 동두천시 지행동 718-4번지 스타월드빌딩 107호","category":"보건위생 - 화장품"},{"name":"동두천 파티하우스","tel":"031-858-3992","addr":"경기도 동두천시 지행동 718-4번지 스타월드 801-805호 403","category":"음료식품 - 농·축·수산품"},{"name":"리안헤어동두천지행역점","tel":"031-836-8667","addr":"경기도 동두천시 지행동 718-4번지 스타월드빌딩 205호","category":"보건위생 - 미용원"},{"name":"민트아일랜드","tel":"031-858-7148","addr":"경기도 동두천시 지행동 718-4스타월드3층302.303호","category":"레저업소 - 노 래 방"},{"name":"밝은미소약국","tel":"031-878-9352","addr":"경기도 동두천시 지행동 718-4번지 스타월드빌딩 503호","category":"약국 - 약국"},{"name":"베이비솜스튜디오","tel":"031-868-0300","addr":"경기도 동두천시 지행동 718-4번지 6층 601호,602호","category":"광학제품 - 사진관"},{"name":"블랙빈","tel":"031-866-1205","addr":"경기도 동두천시 지행동 718-4번지 스타월드 403호","category":"의류 - 정장"},{"name":"빽다방","tel":"031-868-2825","addr":"경기도 동두천시 지행동 718-4번지 스타월드빌딩 110호","category":"일반휴게음식 - 서양음식"},{"name":"서울좋은치과","tel":"031-862-2080","addr":"경기도 동두천시 지행동 718-4번지 스타월드빌딩 5층 506호","category":"의원 - 치과의원"},{"name":"스타당구장","tel":"031-865-2411","addr":"경기도 동두천시 지행동 718-4번지 스타월드빌딩 702동 704호","category":"레저업소 - 당 구 장"},{"name":"아이젠심리인지연구소","tel":"031-865-7014","addr":"경기도 동두천시 지행동 718-4번지 스타월드빌딩 506호","category":"보건위생 - 기타대인서비스"},{"name":"애플24신시가지점","tel":"031-858-0043","addr":"경기도 동두천시 지행동 718-4번지 스타월드빌딩 107호","category":"유통업 영리 - 편 의 점"},{"name":"에뛰드하우스지행점","tel":"031-857-0426","addr":"경기도 동두천시 지행동 718-4번지 스타월드타워 112호","category":"보건위생 - 화장품"},{"name":"영약국","tel":"031-868-4334","addr":"경기도 동두천시 지행동 718-4번지 스타월드 407호","category":"약국 - 약국"},{"name":"옛이담골수제족발","tel":"031-858-8898","addr":"경기도 동두천시 지행동 718-4번지 스타빌딩 108호","category":"일반휴게음식 - 일반한식"},{"name":"옛이담골수제족발얼음막걸리","tel":"031-862-5557","addr":"경기도 동두천시 지행동 718-4번지 스타월드빌딩 1층 104,105호","category":"일반휴게음식 - 일반한식"},{"name":"이마트24 동두천지행점","tel":"031-1111-1111","addr":"경기도 동두천시 지행동 718-4번지 스타월드빌딩 102호","category":"유통업 영리 - 편 의 점"},{"name":"이층술집","tel":"031-857-7481","addr":"경기도 동두천시 지행동 718-4번지 스타월드빌딩 2층 201호","category":"일반휴게음식 - 주점"},{"name":"이층카페","tel":"031-857-7481","addr":"경기도 동두천시 지행동 718-4번지 스타월드빌딩 2층 202호","category":"일반휴게음식 - 서양음식"},{"name":"주식회사 지행락볼링장","tel":"031-867-6969","addr":"경기도 동두천시 지행동 718-4번지 스타월드빌딩 9층","category":"레저업소 - 볼 링 장"},{"name":"지행 락 카페","tel":"031-867-6969","addr":"경기도 동두천시 지행동 718-4번지 스타월드빌딩 9층","category":"일반휴게음식 - 서양음식"},{"name":"지행텔레콤","tel":"031-859-8010","addr":"경기도 동두천시 지행동 718-4번지 스타월드 113호","category":"사무통신 - 통신기기"},{"name":"카툰 팩토리","tel":"","addr":"경기도 동두천시 지행동 718-4번지 스타월드빌딩 3층","category":"일반휴게음식 - 서양음식"},{"name":"타이힐링","tel":"031-868-1227","addr":"경기도 동두천시 지행동 718-4번지 스타월드빌딩 502호","category":"보건위생 - 화장품"},{"name":"헤라PC카페","tel":"031-0000-0000","addr":"경기도 동두천시 지행동 718-4번지 스타월드빌딩 3층","category":"레저업소 - 기타레져업소"}]},{"lat":"37.892690725","long":"127.05948616","items":[{"name":"고로케하우스","tel":"031-825-9496","addr":"경기도 동두천시 지행동 292-6번지 1층","category":"일반휴게음식 - 스넥"},{"name":"더맑은피부","tel":"070-4007-4644","addr":"경기도 동두천시 지행동 292-6번지","category":"보건위생 - 화장품"},{"name":"필헤어","tel":"070-8952-6470","addr":"경기도 동두천시 지행동 292-6번지","category":"보건위생 - 미용원"}]},{"lat":"37.894636147","long":"127.06070412","items":[{"name":"골든벨보습학원","tel":"031-857-3939","addr":"경기도 동두천시 지행동 271-1번지","category":"학원 - 보습학원"}]},{"lat":"37.892721272","long":"127.05161911","items":[{"name":"골든복싱","tel":"031-868-8979","addr":"경기도 동두천시 지행동 691-5번지","category":"회원제형태 - 레져업소"},{"name":"그린스크린골프","tel":"031-864-1715","addr":"경기도 동두천시 지행동 691-5번지 영스포렉스 2층 205,206,207,208호","category":"레저업소 - 스크린골프"},{"name":"글라스박스안경원동두천점","tel":"031-864-2332","addr":"경기도 동두천시 지행동 691-5번지 영스포렉스 113호","category":"보건위생 - 안경"},{"name":"뉴 감동","tel":"031-865-0532","addr":"경기도 동두천시 지행동 691-5번지 영스포렉스 106호","category":"보건위생 - 미용원"},{"name":"다인","tel":"","addr":"경기도 동두천시 지행동 691-5번지 후면 영스포렉스 109호","category":"의류 - 정장"},{"name":"롤리폴리","tel":"031-867-5282","addr":"경기도 동두천시 지행동 691-5번지 영스포렉스 301호","category":"레저업소 - 기타레져업소"},{"name":"마샬","tel":"031-866-3426","addr":"경기도 동두천시 지행동 691-5번지 영스포렉스 112호","category":"신변잡화 - 액세서리"},{"name":"맘맘이야","tel":"031-866-8725","addr":"경기도 동두천시 지행동 691-5번지 영스포렉스 109호","category":"일반휴게음식 - 일반한식"},{"name":"바른몸한의원","tel":"031-928-6475","addr":"경기도 동두천시 지행동 691-5번지 영스포렉스 304호","category":"의원 - 한의원"},{"name":"백호태권도장","tel":"031-863-6660","addr":"경기도 동두천시 지행동 691-5번지 영스포츠타운 404호","category":"학원 - 예·체능계학원"},{"name":"보떼 화장품","tel":"031-861-1718","addr":"경기도 동두천시 지행동 691-5번지 영스포렉스 1층 115호","category":"보건위생 - 화장품"},{"name":"봉구비어","tel":"031-865-8515","addr":"경기도 동두천시 지행동 691-5번지 영스포렉스 112호","category":"일반휴게음식 - 주점"},{"name":"블럭파티","tel":"031-865-6977","addr":"경기도 동두천시 지행동 691-5번지","category":"학원 - 기타 교육기관"},{"name":"삼시세끼","tel":"031-866-6640","addr":"경기도 동두천시 지행동 691-5번지 영스포렉스 107호","category":"음료식품 - 기타음료식품"},{"name":"아모레퍼시픽","tel":"031-861-8333","addr":"경기도 동두천시 지행동 691-5번지","category":"보건위생 - 화장품"},{"name":"아빠올때 아이스크림사와","tel":"","addr":"경기도 동두천시 지행동 691-5번지 영스포렉스 109호","category":"유통업 영리 - 편 의 점"},{"name":"아빵","tel":"031-865-3806","addr":"경기도 동두천시 지행동 691-5번지 영스포렉스 1층 108호","category":"음료식품 - 제과점"},{"name":"애견세계","tel":"031-864-5029","addr":"경기도 동두천시 지행동 691-5번지 영스포렉스 111호","category":"문화.취미 - 애완동물"},{"name":"에디슨치킨신시가지지점","tel":"031-864-8292","addr":"경기도 동두천시 지행동 691-5번지 영스포렉스 103호","category":"일반휴게음식 - 주점"},{"name":"영골프아카데미","tel":"031-859-0707","addr":"경기도 동두천시 지행동 691-5번지 영스포렉스 4층 401호","category":"레저업소 - 골프연습장"},{"name":"영골프아카데미","tel":"031-859-0707","addr":"경기도 동두천시 지행동 691-5번지 영스포렉스 401호,402호","category":"레저업소 - 골프연습장"},{"name":"영당구장","tel":"031-857-0907","addr":"경기도 동두천시 지행동 691-5번지 영스포렉스 405호","category":"레저업소 - 당 구 장"},{"name":"영당구클럽","tel":"031-859-0909","addr":"경기도 동두천시 지행동 691-5번지 영스포렉스 4층 405호","category":"레저업소 - 당 구 장"},{"name":"영스포츠타운","tel":"031-859-9090","addr":"경기도 동두천시 지행동 691-5번지 영스포츠타운 6층","category":"회원제형태 - 레져업소"},{"name":"오드온 (ODD ON)","tel":"","addr":"경기도 동두천시 지행동 691-5번지 영스포렉스 109호","category":"의류 - 정장"},{"name":"육고기","tel":"031-867-3360","addr":"경기도 동두천시 지행동 691-5번지 영스포츠타운 1층 110호","category":"음료식품 - 정육점"},{"name":"윤후동물병원","tel":"031-864-0075","addr":"경기도 동두천시 지행동 691-5번지 영스포렉스 101호","category":"기타의료기관 - 동물병원"},{"name":"이오시아","tel":"031-866-4963","addr":"경기도 동두천시 지행동 691-5번지 영스포렉스 111호","category":"의류 - 정장"},{"name":"이원의료기","tel":"031-866-2020","addr":"경기도 동두천시 지행동 691-5번지 영스포렉스 103호","category":"보건위생 - 의료용품"},{"name":"제일축산","tel":"070-7860-9936","addr":"경기도 동두천시 지행동 691-5번지 1층 116,117","category":"음료식품 - 정육점"},{"name":"지행검도관","tel":"070-4038-1725","addr":"경기도 동두천시 지행동 691-5번지 영스포렉스 403호","category":"학원 - 예·체능계학원"},{"name":"처음처럼","tel":"031-866-3426","addr":"경기도 동두천시 지행동 691-5번지 영스포렉스 107호","category":"신변잡화 - 액세서리"},{"name":"카페520","tel":"070-8845-2254","addr":"경기도 동두천시 지행동 691-5번지 영스포렉스 117호","category":"일반휴게음식 - 일반한식"},{"name":"통키스쿼시","tel":"","addr":"경기도 동두천시 지행동 691-5번지 영스포렉스 4층 402호","category":"레저업소 - 헬스클럽"},{"name":"투다리 (지행점)","tel":"031-857-0719","addr":"경기도 동두천시 지행동 691-5번지 영스포타운 102호","category":"일반휴게음식 - 일반한식"},{"name":"파티","tel":"031-864-8388","addr":"경기도 동두천시 지행동 691-5번지 연스포렉스 112호","category":"의류 - 정장"},{"name":"홍키통키","tel":"031-867-2078","addr":"경기도 동두천시 지행동 691-5번지 5층,5층전체","category":"레저업소 - 헬스클럽"}]},{"lat":"37.891549356","long":"127.0532895","items":[{"name":"곱창가","tel":"031-865-9200","addr":"경기도 동두천시 지행동 719-2번지 삼성프라자 103호","category":"일반휴게음식 - 일반한식"},{"name":"닉스","tel":"031-857-9285","addr":"경기도 동두천시 지행동 719-2번지 삼성프라자 201동 204호","category":"일반휴게음식 - 일반한식"},{"name":"불난술집","tel":"031-862-1119","addr":"경기도 동두천시 지행동 719-2번지 삼성프라자 104,105호","category":"일반휴게음식 - 일반한식"},{"name":"블랙당구클럽","tel":"031-858-6969","addr":"경기도 동두천시 지행동 719-2번지 삼성프라자 601,602호","category":"레저업소 - 당 구 장"},{"name":"스트라이크존 지행구장","tel":"031-867-0079","addr":"경기도 동두천시 지행동 719-2번지 삼성프라자 301. 302호","category":"레저업소 - 기타레져업소"},{"name":"엠존","tel":"031-000-0000","addr":"경기도 동두천시 지행동 719-2번지 삼성프라자 701호","category":"레저업소 - 기타레져업소"},{"name":"엠존(M-ZONE)","tel":"","addr":"경기도 동두천시 지행동 719-2번지 삼성프라자 701호","category":"레저업소 - 기타레져업소"},{"name":"육회지존","tel":"031-858-6201","addr":"경기도 동두천시 지행동 719-2번지 삼성프라자 본동 107호","category":"일반휴게음식 - 일반한식"},{"name":"접시고기","tel":"031-862-1119","addr":"경기도 동두천시 지행동 719-2번지 삼성프라자 본동 104호, 105호","category":"일반휴게음식 - 일반한식"},{"name":"짚신매운갈비찜","tel":"031-872-2509","addr":"경기도 동두천시 지행동 719-2번지 삼성프라자 106호","category":"일반휴게음식 - 일반한식"},{"name":"황돈","tel":"031-858-2518","addr":"경기도 동두천시 지행동 719-2번지 삼성프라자","category":"일반휴게음식 - 일반한식"}]},{"lat":"37.895687231","long":"127.04681195","items":[{"name":"곱창일번지","tel":"031-867-9399","addr":"경기도 동두천시 지행동 674-4번지","category":"일반휴게음식 - 일반한식"},{"name":"소머리국밥은행나무집","tel":"031-866-0159","addr":"경기도 동두천시 지행동 674-4번지","category":"일반휴게음식 - 일반한식"}]},{"lat":"37.895493341","long":"127.05797623","items":[{"name":"공감티엔디","tel":"031-862-7755","addr":"경기도 동두천시 지행동 275-17번지","category":"건축자재 - 인테리어전문"}]},{"lat":"37.892131678","long":"127.06045206","items":[{"name":"과일왕","tel":"","addr":"경기도 동두천시 지행동 329번지","category":"음료식품 - 농·축·수산품"},{"name":"응급실국물떡볶이 동두천지행점","tel":"031-863-1191","addr":"경기도 동두천시 지행동 329번지 1층 102호","category":"일반휴게음식 - 스넥"},{"name":"헤어샵","tel":"070-8955-1212","addr":"경기도 동두천시 지행동 329번지 103호","category":"보건위생 - 미용원"}]},{"lat":"37.896137359","long":"127.04771038","items":[{"name":"구이소","tel":"031-857-0038","addr":"경기도 동두천시 지행동 673-3번지","category":"일반휴게음식 - 일반한식"},{"name":"카페673","tel":"031-863-9222","addr":"경기도 동두천시 지행동 673-3번지","category":"일반휴게음식 - 서양음식"}]},{"lat":"37.893331817","long":"127.05642847","items":[{"name":"국가대표 당구클럽","tel":"070-8224-0408","addr":"경기도 동두천시 지행동 731번지 2층","category":"레저업소 - 당 구 장"},{"name":"매력이네 수입창고","tel":"031-864-4455","addr":"경기도 동두천시 지행동 731번지 1층 102호","category":"의류 - 정장"},{"name":"샐프레소","tel":"031-865-0624","addr":"경기도 동두천시 지행동 731번지","category":"일반휴게음식 - 서양음식"},{"name":"짠앤짠스 지행역점","tel":"031-862-5213","addr":"경기도 동두천시 지행동 731번지 103호","category":"일반휴게음식 - 주점"},{"name":"탕수육","tel":"031-864-4455","addr":"경기도 동두천시 지행동 731번지 제1층 102","category":"일반휴게음식 - 일반한식"}]},{"lat":"37.893026934","long":"127.05317682","items":[{"name":"국스밥집(Guk's BOB JIP)","tel":"031-863-0333","addr":"경기도 동두천시 지행동 694번지 예일복합타워 101동 102호","category":"일반휴게음식 - 일반한식"},{"name":"까페 또바기","tel":"","addr":"경기도 동두천시 지행동 694번지 예일복합타워 125호","category":"일반휴게음식 - 서양음식"},{"name":"나이아가라노래방","tel":"031-861-1357","addr":"경기도 동두천시 지행동 694번지 예일복합타워201호~202호 201호","category":"레저업소 - 노 래 방"},{"name":"마장동생고기","tel":"031-844-6100","addr":"경기도 동두천시 지행동 694번지 예일복합타워 110호","category":"일반휴게음식 - 일반한식"},{"name":"명동마을","tel":"031-863-9295","addr":"경기도 동두천시 지행동 694번지 예일복합타워 본-115","category":"일반휴게음식 - 일반한식"},{"name":"보글보글의정부찌개","tel":"070-8616-9289","addr":"경기도 동두천시 지행동 694번지 예일복합타워 1층 113호","category":"일반휴게음식 - 일반한식"},{"name":"사나포차","tel":"031-857-2343","addr":"경기도 동두천시 지행동 694번지 예일복합타워 106호","category":"일반휴게음식 - 일반한식"},{"name":"스시정","tel":"031-858-9396","addr":"경기도 동두천시 지행동 694번지 예일복합타워","category":"일반휴게음식 - 일식·회집"},{"name":"스웩샵(SWAG #)","tel":"031-863-9283","addr":"경기도 동두천시 지행동 694번지 예일복합타워 112호","category":"신변잡화 - 액세서리"},{"name":"신천안문중화요리","tel":"031-858-5999","addr":"경기도 동두천시 지행동 694번지 예일복합타워 1층 107,108호","category":"일반휴게음식 - 중국식"},{"name":"앗싸곱창","tel":"031-857-1333","addr":"경기도 동두천시 지행동 694번지 예일복합타워 116호","category":"일반휴게음식 - 일반한식"},{"name":"양꼬치킬러","tel":"031-863-9696","addr":"경기도 동두천시 지행동 694번지 예일복합타워 1충 118호","category":"일반휴게음식 - 중국식"},{"name":"여우손톱","tel":"031-859-1333","addr":"경기도 동두천시 지행동 694번지 예일복합타워 203호","category":"보건위생 - 피부미용실"},{"name":"연지 타로하우스","tel":"070-7737-7763","addr":"경기도 동두천시 지행동 694번지 예일복합타워 110호","category":"보건위생 - 기타대인서비스"},{"name":"예일빌딩주차타워","tel":"02-955-0761","addr":"경기도 동두천시 지행동 694번지 예일복합타워 5층 501호","category":"자동차정비 유지 - 주차장"},{"name":"옛촌빈대떡","tel":"031-858-0263","addr":"경기도 동두천시 지행동 694번지 예일복합타워 1층 121호","category":"일반휴게음식 - 일반한식"},{"name":"왕십리곱창","tel":"031-866-7771","addr":"경기도 동두천시 지행동 694번지 예일복합타워 109호","category":"일반휴게음식 - 일반한식"},{"name":"우장창창동두천점","tel":"031-000-0000","addr":"경기도 동두천시 지행동 694번지 예일복합타워 1층 117호","category":"일반휴게음식 - 일반한식"},{"name":"윤경심네 윤식당","tel":"031-861-5559","addr":"경기도 동두천시 지행동 694번지 예일복합타워 123동 124호","category":"일반휴게음식 - 일반한식"},{"name":"이담동물병원","tel":"031-861-3355","addr":"경기도 동두천시 지행동 694번지 예일복합타워101호~105호 104호","category":"기타의료기관 - 동물병원"},{"name":"일품순대국","tel":"031-861-4482","addr":"경기도 동두천시 지행동 694번지 예일복합타워 111호","category":"일반휴게음식 - 일반한식"},{"name":"지행포차","tel":"031-111-1111","addr":"경기도 동두천시 지행동 694번지 예일복합타워 1층 122호","category":"일반휴게음식 - 주점"},{"name":"치킨마루 지행점","tel":"031-857-0012","addr":"경기도 동두천시 지행동 694번지 예일복합타워 1층 103호","category":"일반휴게음식 - 스넥"},{"name":"프롬빌리어드 클럽","tel":"031-864-4939","addr":"경기도 동두천시 지행동 694번지 예일복합타워 2층 204,205호","category":"레저업소 - 당 구 장"},{"name":"한국곱창","tel":"031-864-1655","addr":"경기도 동두천시 지행동 694번지 예일복합타워 1층 120호","category":"일반휴게음식 - 일반한식"}]},{"lat":"37.89133258","long":"127.05456261","items":[{"name":"군산오징어 동두천점","tel":"031-863-2574","addr":"경기도 동두천시 지행동 721-4번지 송내메가타운 206호","category":"일반휴게음식 - 일반한식"},{"name":"글라스스토리안경동두천점","tel":"031-858-7002","addr":"경기도 동두천시 지행동 721-4번지 송내메가타운 1층 103호","category":"보건위생 - 안경"},{"name":"늑대와여우PC라운지(지행역점)","tel":"","addr":"경기도 동두천시 지행동 721-4번지 송내메가타운 401동 403호","category":"레저업소 - 기타레져업소"},{"name":"다빈치미술학원","tel":"031-857-1153","addr":"경기도 동두천시 지행동 721-4번지 송내메가타운 604호","category":"학원 - 예·체능계학원"},{"name":"동두천지앤비어학원","tel":"031-865-0559","addr":"경기도 동두천시 지행동 721-4번지 704호 705호","category":"회원제형태 - 학원"},{"name":"동두천지행점핑다이어트","tel":"","addr":"경기도 동두천시 지행동 721-4번지 송내메가타운 201호","category":"건강식품 - 기타건강식품"},{"name":"동인비 피부샵","tel":"031-866-8787","addr":"경기도 동두천시 지행동 721-4번지 송내메가타운 406호","category":"보건위생 - 피부미용실"},{"name":"모짜르트피아노학원","tel":"031-852-5807","addr":"경기도 동두천시 지행동 721-4번지 송내메가타운 605호","category":"학원 - 예·체능계학원"},{"name":"바닐라","tel":"031-861-7340","addr":"경기도 동두천시 지행동 721-4번지 송내메가타운 본동 502호","category":"일반휴게음식 - 주점"},{"name":"바빈스커피","tel":"031-857-7767","addr":"경기도 동두천시 지행동 721-4번지 송내메가타운 111호","category":"일반휴게음식 - 서양음식"},{"name":"보체실용음악학원","tel":"031-863-9441","addr":"경기도 동두천시 지행동 721-4번지 중앙프라자 704호","category":"회원제형태 - 학원"},{"name":"살롱드네이처뷰티학원","tel":"031-865-8281","addr":"경기도 동두천시 지행동 721-4번지 8층 805-806호","category":"학원 - 기능학원"},{"name":"설레임헤어","tel":"","addr":"경기도 동두천시 지행동 721-4번지","category":"보건위생 - 미용원"},{"name":"소문난닭강정","tel":"031-865-7982","addr":"경기도 동두천시 지행동 721-4번지 송내메가타운 1층 106호","category":"일반휴게음식 - 스넥"},{"name":"슈퍼보드","tel":"070-8624-4245","addr":"경기도 동두천시 지행동 721-4번지 송내메가타운 6층 603호","category":"레저업소 - 기타레져업소"},{"name":"엑스오(XO)호프","tel":"031-862-5546","addr":"경기도 동두천시 지행동 721-4번지 송내메가타운 404호","category":"일반휴게음식 - 주점"},{"name":"열린학원제1캠퍼스","tel":"031-864-8124","addr":"경기도 동두천시 지행동 721-4번지 송내메가타운 9층","category":"회원제형태 - 학원"},{"name":"영재바둑학원","tel":"031-857-7714","addr":"경기도 동두천시 지행동 721-4번지 송내메가타운 606호","category":"학원 - 기타 교육기관"},{"name":"예삐플라워","tel":"031-864-1004","addr":"경기도 동두천시 지행동 721-4번지 송내메가타운 107호","category":"문화.취미 - 화원"},{"name":"윤선생영어교실동두천교육센터","tel":"031-864-0505","addr":"경기도 동두천시 지행동 721-4번지 송내메가타운 702동 703호","category":"학원 - 보습학원"},{"name":"윤선생영어교실동두천교육센터","tel":"031-864-0505","addr":"경기도 동두천시 지행동 721-4송내메가타운702~703호9/1","category":"학원 - 학습지 교육"},{"name":"윤선생영어교실동두천센터","tel":"031-864-0505","addr":"경기도 동두천시 지행동 721-4번지 송내메가타운 703호","category":"학원 - 학습지 교육"},{"name":"작은벗","tel":"031-859-5959","addr":"경기도 동두천시 지행동 721-4번지 송내메가타운 405호","category":"일반휴게음식 - 서양음식"},{"name":"전영미술학원","tel":"031-863-8441","addr":"경기도 동두천시 지행동 721-4번지 송내메가타운 604호","category":"회원제형태 - 학원"},{"name":"정명학원","tel":"031-866-1024","addr":"경기도 동두천시 지행동 721-4번지 송내메가타운 601호","category":"학원 - 보습학원"},{"name":"조은미트","tel":"031-864-4200","addr":"경기도 동두천시 지행동 721-4번지 송내메가타운 108동 109호","category":"음료식품 - 정육점"},{"name":"지에스컴퍼니","tel":"031-861-3559","addr":"경기도 동두천시 지행동 721-4번지 송내메가타운 104호","category":"신변잡화 - 기타잡화"},{"name":"진헤어","tel":"031-857-0118","addr":"경기도 동두천시 지행동 721-4번지 송내메가타운 1층 110호","category":"보건위생 - 미용원"},{"name":"청춘다락","tel":"031-894-6664","addr":"경기도 동두천시 지행동 721-4번지 송내메가타운 1002,1003호","category":"일반휴게음식 - 주점"},{"name":"취'하다","tel":"031-111-1111","addr":"경기도 동두천시 지행동 721-4번지 203,204호","category":"일반휴게음식 - 일반한식"},{"name":"캐롬당구클럽","tel":"031-863-8279","addr":"경기도 동두천시 지행동 721-4번지 송내메가카운 503동 506호","category":"레저업소 - 당 구 장"},{"name":"커피볶는집 카페엣 (지행점)","tel":"031-857-5330","addr":"경기도 동두천시 지행동 721-4번지 송내메가타운 2층 205호","category":"일반휴게음식 - 서양음식"},{"name":"푸켓스파","tel":"031-866-2559","addr":"경기도 동두천시 지행동 721-4번지 송내메가타운 3층 302호,303호","category":"보건위생 - 화장품"},{"name":"풀잎문화센터","tel":"031-864-5589","addr":"경기도 동두천시 지행동 721-4번지 송내메가타운 601호","category":"문화.취미 - 문화취미기타"},{"name":"하나국제결혼","tel":"031-857-2153","addr":"경기도 동두천시 지행동 721-4번지 송내메가타운 602호","category":"회원제형태 - 기타4"},{"name":"하오 중국어 튼튼영어 마스터 클럽학원","tel":"031-864-8441","addr":"경기도 동두천시 지행동 721-4번지 송내메가타운 805동 806호","category":"학원 - 보습학원"},{"name":"헤윰아트","tel":"","addr":"경기도 동두천시 지행동 721-4번지 송내메가타운 1002호","category":"문화.취미 - 화랑"}]},{"lat":"37.895358212","long":"127.05795339","items":[{"name":"굽네치킨 불현점","tel":"032-565-9294","addr":"경기도 동두천시 지행동 275-18번지 1층 가운데칸","category":"일반휴게음식 - 스넥"},{"name":"대명테크","tel":"031-858-9292","addr":"경기도 동두천시 지행동 275-18번지 1층 103호","category":"전기제품 - 기타전기제품"},{"name":"맘's 노리터","tel":"","addr":"경기도 동두천시 지행동 275-18번지","category":"의류 - 정장"}]},{"lat":"37.89347075","long":"127.04731086","items":[{"name":"굽네치킨 지행1호점","tel":"031-867-9292","addr":"경기도 동두천시 지행동 688번지","category":"일반휴게음식 - 스넥"}]},{"lat":"37.890107515","long":"127.05409566","items":[{"name":"굿라이트","tel":"031-864-4777","addr":"경기도 동두천시 지행동 722-3번지 동두천싸이언스타워 503호","category":"건축자재 - 조명기구"},{"name":"두드림패션사업협동조합","tel":"070-8827-2397","addr":"경기도 동두천시 지행동 722-3번지 동두천싸이언스타워","category":"의류 - 정장"},{"name":"상록수","tel":"031-963-6666","addr":"경기도 동두천시 지행동 722-3번지 동두천싸이언스타워 102호","category":"의류 - 내의판매"},{"name":"에스에이컴퍼니(SA COMPANY)","tel":"031-866-1903","addr":"경기도 동두천시 지행동 722-3번지 동두천싸이언스타워 902호","category":"의류 - 정장"},{"name":"엑시언","tel":"031-861-0526","addr":"경기도 동두천시 지행동 722-3번지 봉제지식산업센터 207동 206호 경기섬유","category":"의류 - 정장"},{"name":"한마음케어","tel":"031-861-2191","addr":"경기도 동두천시 지행동 722-3번지 싸이언스타워 303호","category":"신변잡화 - 기타잡화"},{"name":"한마음케어","tel":"031-861-2191","addr":"경기도 동두천시 지행동 722-3번지 싸이언스타워 303호","category":"보건위생 - 의료용품"},{"name":"호원무역","tel":"031-861-1909","addr":"경기도 동두천시 지행동 722-3번지 동두천싸이언스타워 903호","category":"의류 - 정장"}]},{"lat":"37.888636275","long":"127.06000598","items":[{"name":"굿샵 행복점","tel":"031-858-6833","addr":"경기도 동두천시 지행동 351-30번지 1층","category":"유통업 영리 - 편 의 점"},{"name":"율리뷰티","tel":"","addr":"경기도 동두천시 지행동 351-30번지","category":"보건위생 - 미용원"}]},{"lat":"37.890302348","long":"127.06133735","items":[{"name":"귀빈각","tel":"031-866-6599","addr":"경기도 동두천시 지행동 370번지","category":"일반휴게음식 - 중국식"},{"name":"세자매곱창집","tel":"031-861-8832","addr":"경기도 동두천시 지행동 370번지 1층","category":"일반휴게음식 - 일반한식"},{"name":"우리동네 정육점","tel":"031-861-7440","addr":"경기도 동두천시 지행동 370번지","category":"음료식품 - 정육점"},{"name":"지랄돼지","tel":"031-861-8832","addr":"경기도 동두천시 지행동 370번지","category":"일반휴게음식 - 일반한식"}]},{"lat":"37.888355136","long":"127.06370035","items":[{"name":"그놈의 닭","tel":"02-1234-1234","addr":"경기도 동두천시 지행동 170-3번지 1층 104호","category":"일반휴게음식 - 일반한식"},{"name":"만원의행복김치전골","tel":"031-1111-1111","addr":"경기도 동두천시 지행동 170-3번지 1층","category":"일반휴게음식 - 일반한식"},{"name":"술로장생","tel":"","addr":"경기도 동두천시 지행동 170-3번지 1층 108호","category":"일반휴게음식 - 주점"},{"name":"요리하는 정육점","tel":"031-858-0304","addr":"경기도 동두천시 지행동 170-3번지 101호","category":"음료식품 - 정육점"}]},{"lat":"37.896110087","long":"127.04834704","items":[{"name":"그때 그집","tel":"031-861-3121","addr":"경기도 동두천시 지행동 672-1번지","category":"일반휴게음식 - 일식·회집"},{"name":"서가해물찜찜찜","tel":"031-866-0042","addr":"경기도 동두천시 지행동 672-1번지","category":"일반휴게음식 - 일반한식"}]},{"lat":"37.889800398","long":"127.05590298","items":[{"name":"그램그램","tel":"031-868-7775","addr":"경기도 동두천시 지행동 738-15번지 1층","category":"일반휴게음식 - 일반한식"}]},{"lat":"37.89344355","long":"127.04776559","items":[{"name":"그리고 미술교습소","tel":"031-859-6372","addr":"경기도 동두천시 지행동 689번지 101호","category":"학원 - 예·체능계학원"}]},{"lat":"37.889339479","long":"127.0590175","items":[{"name":"그린몬스터","tel":"070-8862-6088","addr":"경기도 동두천시 지행동 354번지 동원베네스트 108동 301호","category":"회원제형태 - 기타4"}]},{"lat":"37.892664552","long":"127.05767853","items":[{"name":"금강산","tel":"031-868-6666","addr":"경기도 동두천시 지행동 284-17번지","category":"음료식품 - 정육점"},{"name":"금강산갈비","tel":"031-868-6666","addr":"경기도 동두천시 지행동 284-17번지","category":"일반휴게음식 - 일반한식"}]},{"lat":"37.888881498","long":"127.05578864","items":[{"name":"금메달수산","tel":"031-863-9300","addr":"경기도 동두천시 지행동 738-12번지","category":"음료식품 - 농·축·수산품"},{"name":"속초붉은대게","tel":"031-863-9300","addr":"경기도 동두천시 지행동 738-12번지","category":"일반휴게음식 - 일반한식"}]},{"lat":"37.890133718","long":"127.05596006","items":[{"name":"김동환의참치박사","tel":"031-865-5598","addr":"경기도 동두천시 지행동 738-5번지","category":"일반휴게음식 - 일반한식"},{"name":"만나식당","tel":"031-865-5900","addr":"경기도 동두천시 지행동 738-5번지 1층 1호","category":"일반휴게음식 - 일반한식"},{"name":"산수횟집","tel":"031-863-5353","addr":"경기도 동두천시 지행동 738-5번지 창성빌딩 2층","category":"일반휴게음식 - 일식·회집"},{"name":"지행당구장","tel":"031-857-3517","addr":"경기도 동두천시 지행동 738-5번지 2층 202호","category":"레저업소 - 당 구 장"},{"name":"지행당구장","tel":"","addr":"경기도 동두천시 지행동 738-5번지 2층","category":"레저업소 - 당 구 장"},{"name":"지행염소탕","tel":"031-862-9893","addr":"경기도 동두천시 지행동 738-5번지 2층","category":"일반휴게음식 - 일반한식"}]},{"lat":"37.892909573","long":"127.0537338","items":[{"name":"깐부치킨 (동두천지행역점)","tel":"031-858-9300","addr":"경기도 동두천시 지행동 694-5번지 지행동CJ빌딩 102호,103호","category":"일반휴게음식 - 스넥"},{"name":"손큰할매순대국","tel":"031-857-0234","addr":"경기도 동두천시 지행동 694-5번지 CJ빌딩제104호","category":"일반휴게음식 - 일반한식"}]},{"lat":"37.892692191","long":"127.05634843","items":[{"name":"꼬기꼬기","tel":"031-868-3093","addr":"경기도 동두천시 지행동 731-4번지 2층","category":"일반휴게음식 - 일반한식"},{"name":"남원본가추어탕","tel":"031-858-4616","addr":"경기도 동두천시 지행동 731-4번지","category":"일반휴게음식 - 일반한식"},{"name":"밥맛나는세상 (지행역점)","tel":"031-857-1200","addr":"경기도 동두천시 지행동 731-4번지 1층 104호","category":"일반휴게음식 - 스넥"},{"name":"알리바바 도넛 지행점","tel":"","addr":"경기도 동두천시 지행동 731-4번지 103호","category":"일반휴게음식 - 서양음식"},{"name":"이찌방","tel":"070-4151-0778","addr":"경기도 동두천시 지행동 731-4번지","category":"일반휴게음식 - 주점"},{"name":"포비엔","tel":"070-4403-0955","addr":"경기도 동두천시 지행동 731-4번지 외1","category":"일반휴게음식 - 일반한식"},{"name":"한큐당구장","tel":"031-857-4555","addr":"경기도 동두천시 지행동 731-4번지 2층","category":"레저업소 - 당 구 장"}]},{"lat":"37.894131759","long":"127.06043088","items":[{"name":"꼬꼬곰 스튜디오","tel":"","addr":"경기도 동두천시 지행동 302번지 노조국민주택 2동 2층 205호","category":"서적문구 - 완구점"}]},{"lat":"37.887347842","long":"127.06020961","items":[{"name":"꼬마엔젤/아이맘","tel":"031-000-0000","addr":"경기도 동두천시 지행동 404-6번지 대림목화하이츠빌라 가동 103호","category":"회원제형태 - 기타4"}]},{"lat":"37.891331695","long":"127.05654071","items":[{"name":"꼬치굽는 브라더","tel":"031-867-1555","addr":"경기도 동두천시 지행동 735-2번지","category":"일반휴게음식 - 일반한식"},{"name":"맛찾사","tel":"031-862-2213","addr":"경기도 동두천시 지행동 735-2번지 2호","category":"일반휴게음식 - 일반한식"},{"name":"이모네포차","tel":"031-868-8666","addr":"경기도 동두천시 지행동 735-2번지 1호","category":"일반휴게음식 - 일반한식"},{"name":"히즈핸드(His Hand)","tel":"031-1111-1111","addr":"경기도 동두천시 지행동 735-2번지 3호","category":"일반휴게음식 - 일식·회집"}]},{"lat":"37.89446694","long":"127.05654298","items":[{"name":"꼴통곱창2호점","tel":"031-865-5674","addr":"경기도 동두천시 지행동 727-5번지","category":"일반휴게음식 - 일반한식"},{"name":"이마트24 동두천지행역점","tel":"","addr":"경기도 동두천시 지행동 727-5번지","category":"유통업 영리 - 편 의 점"},{"name":"이마트24 동두천지행역점","tel":"","addr":"경기도 동두천시 지행동 727-5번지","category":"유통업 영리 - 편 의 점"}]},{"lat":"37.89394417","long":"127.05704283","items":[{"name":"꽃을 탐하다","tel":"070-7857-9942","addr":"경기도 동두천시 지행동 729-1번지 그린타워 103호","category":"보건위생 - 화장품"},{"name":"피자알볼로 동두천점","tel":"031-861-8495","addr":"경기도 동두천시 지행동 729-1번지","category":"일반휴게음식 - 서양음식"},{"name":"허가네지지미","tel":"031-863-3355","addr":"경기도 동두천시 지행동 729-1번지 102호","category":"일반휴게음식 - 일반한식"}]},{"lat":"37.892847936","long":"127.0503118","items":[{"name":"나눔유통","tel":"","addr":"경기도 동두천시 지행동 691-3번지 현진에버빌 111동 1505호","category":"음료식품 - 농·축·수산품"}]},{"lat":"37.893691935","long":"127.0569858","items":[{"name":"나능이버섯백숙(지행점)","tel":"031-866-1177","addr":"경기도 동두천시 지행동 729-3번지","category":"일반휴게음식 - 일반한식"},{"name":"다솜기획","tel":"031-866-0477","addr":"경기도 동두천시 지행동 729-3번지","category":"용역 서비스 - 종합용역"},{"name":"슬로우( SLOWOO)","tel":"031-866-0672","addr":"경기도 동두천시 지행동 729-3번지","category":"음료식품 - 정육점"},{"name":"슬로우(SLOWOO)","tel":"031-866-0672","addr":"경기도 동두천시 지행동 729-3번지","category":"일반휴게음식 - 서양음식"}]},{"lat":"37.890520575","long":"127.05715401","items":[{"name":"나래자동차공업사","tel":"031-863-3330","addr":"경기도 동두천시 지행동 351-2번지","category":"자동차정비 유지 - 자동차정비"},{"name":"보령석재","tel":"031-862-3700","addr":"경기도 동두천시 지행동 351-2번지","category":"기타 - 기타 전문점"}]},{"lat":"37.894971451","long":"127.05656609","items":[{"name":"나리타 이자카야 동두천점","tel":"","addr":"경기도 동두천시 지행동 727-8번지","category":"일반휴게음식 - 일식·회집"},{"name":"동두천 달카페","tel":"031-857-1357","addr":"경기도 동두천시 지행동 727-8번지 해피 102호","category":"일반휴게음식 - 서양음식"}]},{"lat":"37.891636315","long":"127.06014472","items":[{"name":"나무숲어린이집[아이행복]","tel":"031-861-5556","addr":"경기도 동두천시 지행동 334-18번지","category":"학원 - 유아원"}]},{"lat":"37.889968997","long":"127.06134846","items":[{"name":"낭만 낙곱새","tel":"031-858-0322","addr":"경기도 동두천시 지행동 370-5번지 건물정면 1호","category":"일반휴게음식 - 일반한식"},{"name":"사당골부대찌개돌구이","tel":"031-857-1616","addr":"경기도 동두천시 지행동 370-5번지 1층","category":"일반휴게음식 - 일반한식"},{"name":"차누네푸드(CHANUNE FOOD)","tel":"031-827-4855","addr":"경기도 동두천시 지행동 370-5번지 2호","category":"일반휴게음식 - 일반한식"}]},{"lat":"37.887858034","long":"127.06670105","items":[{"name":"내셔널에이전시(National agency)","tel":"031-535-0825","addr":"경기도 동두천시 지행동 196번지 동두천에코휴먼빌2차 107동 1101호","category":"용역 서비스 - 사무서비스"},{"name":"닥터 케이 (K)홈클린","tel":"","addr":"경기도 동두천시 지행동 196번지 동두천에코휴먼빌2차 103동 902호","category":"용역 서비스 - 종합용역"},{"name":"라온어린이집[아이행복]","tel":"031-859-7004","addr":"경기도 동두천시 지행동 196번지 동두천에코휴먼빌2차 관리동","category":"학원 - 유아원"},{"name":"아기정원어린이집[아이행복]","tel":"031-863-2452","addr":"경기도 동두천시 지행동 196번지 동두천에코휴먼빌2차 101동 105호","category":"학원 - 유아원"}]},{"lat":"37.894884766","long":"127.04848271","items":[{"name":"노랑뚱땡이","tel":"031-858-6888","addr":"경기도 동두천시 지행동 684-4번지 103호","category":"의류 - 아동의류"},{"name":"카톡헤어","tel":"031-865-8665","addr":"경기도 동두천시 지행동 684-4번지","category":"보건위생 - 미용원"}]},{"lat":"37.888773212","long":"127.05617508","items":[{"name":"놀러와당구클럽","tel":"070-4144-6410","addr":"경기도 동두천시 지행동 737-5번지 2층","category":"레저업소 - 당 구 장"},{"name":"아이포토기획","tel":"031-865-1185","addr":"경기도 동두천시 지행동 737-5번지 301호","category":"광학제품 - 사진관"}]},{"lat":"37.895046925","long":"127.04850555","items":[{"name":"농업회사법인 가을미담(주)","tel":"031-866-8944","addr":"경기도 동두천시 지행동 684-3 101","category":"음료식품 - 농·축·수산품"},{"name":"라울","tel":"031-866-0979","addr":"경기도 동두천시 지행동 684-3번지 101호","category":"의류 - 정장"},{"name":"바이몽 (by Mont)","tel":"031-111-1111","addr":"경기도 동두천시 지행동 684-3번지 103호","category":"일반휴게음식 - 서양음식"},{"name":"뷰네일","tel":"031-859-3307","addr":"경기도 동두천시 지행동 684-3번지 104호","category":"보건위생 - 피부미용실"},{"name":"주 (JOO)헤어","tel":"031-859-3377","addr":"경기도 동두천시 지행동 684-3번지 1층 102호","category":"보건위생 - 미용원"}]},{"lat":"37.894605583","long":"127.04820968","items":[{"name":"누리보듬어린이집[아이행복]","tel":"031-861-7955","addr":"경기도 동두천시 지행동 683-8번지 한진에버빌 관리동","category":"학원 - 유아원"}]},{"lat":"37.895110469","long":"127.047255","items":[{"name":"뉴페이스뷰티라인","tel":"031-868-0246","addr":"경기도 동두천시 지행동 677-8번지","category":"보건위생 - 피부미용실"}]},{"lat":"37.892110362","long":"127.06684114","items":[{"name":"느티나무","tel":"031-866-7878","addr":"경기도 동두천시 지행동 248번지","category":"일반휴게음식 - 일반한식"}]},{"lat":"37.894743877","long":"127.06147729","items":[{"name":"늘푸른어린이집[아이행복]","tel":"031-861-3585","addr":"경기도 동두천시 지행동 268-3번지","category":"학원 - 유아원"}]},{"lat":"37.892000141","long":"127.05253948","items":[{"name":"다기봉푸드","tel":"031-861-5707","addr":"경기도 동두천시 지행동 718-2번지 성지에스앤비타워본 204호","category":"일반휴게음식 - 일반한식"},{"name":"더불어꿈북카페","tel":"031-862-0615","addr":"경기도 동두천시 지행동 718-2번지 성지에스앤비타워 709호","category":"일반휴게음식 - 서양음식"},{"name":"동두천 충효 태권도","tel":"031-868-1318","addr":"경기도 동두천시 지행동 718-2번지 성지에스앤비타워 706호","category":"학원 - 예·체능계학원"},{"name":"라롬드","tel":"031-866-2234","addr":"경기도 동두천시 지행동 718-2번지 성지에스앤비타워 113동 208호","category":"일반휴게음식 - 서양음식"},{"name":"무한우주별떡볶이","tel":"031-866-2045","addr":"경기도 동두천시 지행동 718-2번지 성지에스앤비타워 2층 203호","category":"일반휴게음식 - 일반한식"},{"name":"뮤즈영재음악학원","tel":"","addr":"경기도 동두천시 지행동 718-2번지 성지에스앤비타워 6층 607호","category":"학원 - 예·체능계학원"},{"name":"미래인재학원","tel":"031-0000-0000","addr":"경기도 동두천시 지행동 718-2번지 성지에스앤비타워 603호, 604호","category":"학원 - 보습학원"},{"name":"박성민헤어클리닉","tel":"031-862-6668","addr":"경기도 동두천시 지행동 718-2번지 성지에스앤비타워 207호","category":"보건위생 - 미용원"},{"name":"베스킨라빈스동두천내행점","tel":"031-861-0031","addr":"경기도 동두천시 지행동 718-2번지 성진에스앤비타워 101호","category":"음료식품 - 제과점"},{"name":"사랑모아","tel":"031-868-3275","addr":"경기도 동두천시 지행동 718-2번지 성지에스앤비타워601~602호 601호","category":"기타의료기관 - 기타의료기관 및 기타"},{"name":"서울&서울소아과","tel":"031-859-1929","addr":"경기도 동두천시 지행동 718-2번지 성지에스앤비타워 407호","category":"회원제형태 - 건강식품"},{"name":"서울&서울소아과의원","tel":"031-859-1929","addr":"경기도 동두천시 지행동 718-2번지 성지타워빌딩 407호","category":"의원 - 의원"},{"name":"서울보청기","tel":"031-858-9761","addr":"경기도 동두천시 지행동 718-2번지 성지에스앤비타워 402호","category":"기타의료기관 - 기타의료기관 및 기타"},{"name":"서울피부비만클리닉","tel":"031-858-9760","addr":"경기도 동두천시 지행동 718-2.401호~402호","category":"회원제형태 - 기타4"},{"name":"성지독서실","tel":"031-861-9800","addr":"경기도 동두천시 지행동 718-2번지 성지에스앤비타워 805호","category":"학원 - 독서실"},{"name":"세영세무회계사무소","tel":"031-863-4255","addr":"경기도 동두천시 지행동 718-2번지 성지에스앤비타워 3층 307호","category":"용역 서비스 - 법률회계서비스(개인)"},{"name":"수 약국","tel":"031-858-6411","addr":"경기도 동두천시 지행동 718-2번지 성지에스앤비타워 4층 402호","category":"약국 - 약국"},{"name":"술곳","tel":"031-866-5926","addr":"경기도 동두천시 지행동 718-2번지 성지에스앤비타워 2층 205호","category":"일반휴게음식 - 주점"},{"name":"슈슈","tel":"031-858-8049","addr":"경기도 동두천시 지행동 718-2번지 성지에스앤비타워 108호","category":"신변잡화 - 신발"},{"name":"슈슈","tel":"031-858-8049","addr":"경기도 동두천시 지행동 718-2번지 성지에스앤비타워 108호","category":"신변잡화 - 신발"},{"name":"아소비 동두천 지행센터 학원","tel":"031-864-5579","addr":"경기도 동두천시 지행동 718-2번지 성지에스앤비타워 703호","category":"학원 - 보습학원"},{"name":"연희공방","tel":"031-862-7159","addr":"경기도 동두천시 지행동 718-2번지 성지타워 703호","category":"문화.취미 - 문화취미기타"},{"name":"오렌즈동두천점","tel":"031-862-2332","addr":"경기도 동두천시 지행동 718-2번지 성지에스앤비타워 110호","category":"보건위생 - 안경"},{"name":"자기주도학습 지혜의숲 수학 교습소","tel":"070-4789-2382","addr":"경기도 동두천시 지행동 718-2번지 성지에스엔비 709호","category":"학원 - 보습학원"},{"name":"지행열린치과","tel":"031-859-2080","addr":"경기도 동두천시 지행동 718-2번지 성지에스앤비타워 2층 201호","category":"의원 - 치과의원"},{"name":"지행척척통증의학과의원","tel":"031-858-8800","addr":"경기도 동두천시 지행동 718-2번지 성지에스앤비타워 5층 501호, 502호, 503호","category":"의원 - 의원"},{"name":"창고형할인매장","tel":"070-7013-8874","addr":"경기도 동두천시 지행동 718-2번지 성지에스앤비타워 109호","category":"의류 - 정장"},{"name":"채플린노래방","tel":"031-859-6365","addr":"경기도 동두천시 지행동 718-2번지 성지에스앤비타워 304호","category":"레저업소 - 노 래 방"},{"name":"청담동 말자싸롱(동두천 지행점)","tel":"031-867-2718","addr":"경기도 동두천시 지행동 718-2번지 성지에스앤비타워 202호","category":"일반휴게음식 - 주점"},{"name":"캠프케이시 버거앤비어","tel":"031-857-0303","addr":"경기도 동두천시 지행동 718-2번지 성지에스앤비타워 3층 301,302,306호","category":"일반휴게음식 - 서양음식"},{"name":"캠프케이시(신시가지점)","tel":"031-857-0303","addr":"경기도 동두천시 지행동 718-2번지 성지에스앤비타워 301,302,306호","category":"일반휴게음식 - 일반한식"},{"name":"코지캠퍼스영어학원","tel":"070-4791-0579","addr":"경기도 동두천시 지행동 718-2번지 성지에스앤비타워 605호","category":"학원 - 보습학원"},{"name":"타임유 스터디카페 동두천지행점","tel":"","addr":"경기도 동두천시 지행동 718-2번지 성지에스앤비타워 504호","category":"용역 서비스 - 사무서비스"},{"name":"프롬.비 (FROM.B)","tel":"031-867-0622","addr":"경기도 동두천시 지행동 718-2번지 성지에스앤비타워 1층 112호","category":"의류 - 아동의류"},{"name":"하나약국","tel":"031-867-1905","addr":"경기도 동두천시 지행동 718-2번지 성지에스앤비타워 405호","category":"약국 - 약국"},{"name":"한성치과의원","tel":"031-858-2876","addr":"경기도 동두천시 지행동 718-2번지 성지에스앤비타워 404호","category":"의원 - 치과의원"},{"name":"향원","tel":"031-862-8620","addr":"경기도 동두천시 지행동 718-2번지 성지에스앤비타워 205호","category":"일반휴게음식 - 중국식"},{"name":"홍길동전 노래연습장 지행점","tel":"070-4151-0707","addr":"경기도 동두천시 지행동 718-2번지 성지에스앤비타워 2층 209,210호","category":"레저업소 - 노 래 방"},{"name":"홍은비영어교습소","tel":"070-5031-0327","addr":"경기도 동두천시 지행동 718-2번지 성지에스앤비타워 707호","category":"학원 - 외국어학원"}]},{"lat":"37.891131654","long":"127.06042854","items":[{"name":"다모","tel":"","addr":"경기도 동두천시 지행동 336-8번지","category":"일반휴게음식 - 일반한식"}]},{"lat":"37.892603684","long":"127.05273315","items":[{"name":"다본안경원","tel":"031-863-8008","addr":"경기도 동두천시 지행동 693-3번지 청솔프라자 401호","category":"보건위생 - 안경"},{"name":"동양한의원","tel":"031-861-7575","addr":"경기도 동두천시 지행동 693-3번지 청솔프라자 3층","category":"의원 - 한의원"},{"name":"아이윌피부과의원","tel":"031-859-7933","addr":"경기도 동두천시 지행동 693-3번지 청솔프라자 501호","category":"의원 - 의원"},{"name":"지행수치과의원","tel":"031-858-2879","addr":"경기도 동두천시 지행동 693-3번지 청솔프라자 6층 601호","category":"의원 - 치과의원"}]},{"lat":"37.893663721","long":"127.05950964","items":[{"name":"다온헤어샵","tel":"031-868-9966","addr":"경기도 동두천시 지행동 298-12번지","category":"보건위생 - 미용원"},{"name":"프라임미디어","tel":"031-866-8898","addr":"경기도 동두천시 지행동 298-12","category":"용역 서비스 - 종합용역"}]},{"lat":"37.891825494","long":"127.06017897","items":[{"name":"대성유리창호","tel":"031-865-2541","addr":"경기도 동두천시 지행동 332-26번지 미라클하우스 B동 101호","category":"회원제형태 - 기타4"}]},{"lat":"37.891913778","long":"127.06378285","items":[{"name":"대영조명","tel":"031-858-9701","addr":"경기도 동두천시 지행동 258번지","category":"건축자재 - 조명기구"},{"name":"외고서점","tel":"031-838-6111","addr":"경기도 동두천시 지행동 258번지","category":"서적문구 - 일반서적"},{"name":"외고서점","tel":"031-838-6111","addr":"경기도 동두천시 지행동 258번지","category":"서적문구 - 일반서적"}]},{"lat":"37.896299208","long":"127.04854043","items":[{"name":"대한민국","tel":"031-864-0838","addr":"경기도 동두천시 지행동 671-4번지","category":"일반휴게음식 - 칵테일바"}]},{"lat":"37.897137595","long":"127.04717663","items":[{"name":"대한사료","tel":"031-868-7558","addr":"경기도 동두천시 지행동 665-2번지","category":"농업 - 비료,사료,종자"}]},{"lat":"37.895633235","long":"127.04665275","items":[{"name":"더 (THE)치킨맨","tel":"031-864-9990","addr":"경기도 동두천시 지행동 674-3번지","category":"일반휴게음식 - 스넥"},{"name":"청주댁","tel":"031-865-1030","addr":"경기도 동두천시 지행동 674-3번지","category":"일반휴게음식 - 일반한식"},{"name":"황소","tel":"031-866-3693","addr":"경기도 동두천시 지행동 674-3번지","category":"일반휴게음식 - 일반한식"}]},{"lat":"37.893520774","long":"127.05695157","items":[{"name":"더바 (THE BAR)","tel":"031-861-5480","addr":"경기도 동두천시 지행동 729-4번지 2층 201호","category":"일반휴게음식 - 주점"},{"name":"라온헤어살롱(지행점)","tel":"031-857-3191","addr":"경기도 동두천시 지행동 729-4번지 101호","category":"보건위생 - 미용원"},{"name":"세븐일레븐동두천지행평화점","tel":"031-868-4161","addr":"경기도 동두천시 지행동 729-4번지 제이앤제이빌딩 104호","category":"유통업 영리 - 편 의 점"},{"name":"앤 (Ann)","tel":"031-858-3824","addr":"경기도 동두천시 지행동 729-4번지 제이앤제이빌딩 101호","category":"의류 - 정장"},{"name":"케빈사진관","tel":"031-866-3131","addr":"경기도 동두천시 지행동 729-4번지 제이앤제이 401호","category":"광학제품 - 사진관"},{"name":"행복한피부","tel":"031-867-2338","addr":"경기도 동두천시 지행동 729-4번지 203호","category":"보건위생 - 피부미용실"}]},{"lat":"37.891494028","long":"127.05617704","items":[{"name":"더블킹커피지행점","tel":"031-868-8759","addr":"경기도 동두천시 지행동 734번지","category":"일반휴게음식 - 서양음식"},{"name":"일초닭발","tel":"031-858-3782","addr":"경기도 동두천시 지행동 734번지","category":"일반휴게음식 - 일반한식"}]},{"lat":"37.891549497","long":"127.05295981","items":[{"name":"더샵","tel":"031-863-2369","addr":"경기도 동두천시 지행동 719번지 한스빌딩 302호","category":"보건위생 - 화장품"},{"name":"봄 헤어","tel":"031-857-0077","addr":"경기도 동두천시 지행동 719번지 한스빌딩 2층 202호","category":"보건위생 - 미용원"},{"name":"썸씽(something)","tel":"03-111-1111","addr":"경기도 동두천시 지행동 719번지 한스빌딩 3층 304호","category":"일반휴게음식 - 주점"},{"name":"양세당구클럽","tel":"031-865-6834","addr":"경기도 동두천시 지행동 719번지 한스빌딩 402~403호 402호","category":"레저업소 - 당 구 장"},{"name":"영등포우동","tel":"031-857-2220","addr":"경기도 동두천시 지행동 719번지 한스빌딩 본동 101호","category":"일반휴게음식 - 일반한식"},{"name":"육꼬집","tel":"031-866-1236","addr":"경기도 동두천시 지행동 719번지 한스빌딩 106동 108호","category":"일반휴게음식 - 일반한식"},{"name":"저스트슬립호텔 지행역점/(주)저스트1호","tel":"031-859-8806","addr":"경기도 동두천시 지행동 719번지 6층,7층","category":"숙박업 - 여관/기타숙박업"},{"name":"지행왕족발","tel":"031-868-9863","addr":"경기도 동두천시 지행동 719번지 한스빌딩 104호","category":"일반휴게음식 - 일반한식"},{"name":"투피엠 (2PM)","tel":"031-861-3860","addr":"경기도 동두천시 지행동 719번지 한스빌딩 506호","category":"일반휴게음식 - 주점"},{"name":"퍼스트","tel":"070-4176-9931","addr":"경기도 동두천시 지행동 719번지 한스빌딩 303호","category":"일반휴게음식 - 주점"},{"name":"포차어게인","tel":"031-868-2757","addr":"경기도 동두천시 지행동 719번지 한스빌딩 202호","category":"일반휴게음식 - 일반한식"},{"name":"홍콩반점 0410 PLUS (동두천지행역점)","tel":"031-868-0410","addr":"경기도 동두천시 지행동 719번지 한스빌딩 2층 201호","category":"일반휴게음식 - 중국식"}]},{"lat":"37.890194701","long":"127.06039371","items":[{"name":"더클래스","tel":"031-866-3369","addr":"경기도 동두천시 지행동 348번지","category":"보건위생 - 미용원"}]},{"lat":"37.892944229","long":"127.05683746","items":[{"name":"더하이영어학원","tel":"031-858-7225","addr":"경기도 동두천시 지행동 730-2번지 죽산빌딩 2층","category":"학원 - 외국어학원"},{"name":"동두천 전자담배","tel":"031-861-5703","addr":"경기도 동두천시 지행동 730-2번지 죽산빌딩 1층","category":"기타 - 기타 전문점"},{"name":"런텔레콤","tel":"031-863-3010","addr":"경기도 동두천시 지행동 730-2번지 죽산빌딩 104호","category":"사무통신 - 통신기기"},{"name":"송청민물매운탕","tel":"031-851-7202","addr":"경기도 동두천시 지행동 730-2번지 죽산빌딩","category":"일반휴게음식 - 일반한식"}]},{"lat":"37.895245625","long":"127.04720961","items":[{"name":"돈까로스편의점","tel":"031-861-5005","addr":"경기도 동두천시 지행동 677-7번지","category":"유통업 영리 - 편 의 점"}]},{"lat":"37.8957411","long":"127.04731222","items":[{"name":"돈방석토종순대국","tel":"031-865-7081","addr":"경기도 동두천시 지행동 679번지","category":"일반휴게음식 - 일반한식"}]},{"lat":"37.894187806","long":"127.05620172","items":[{"name":"돈사랑","tel":"031-861-8832","addr":"경기도 동두천시 지행동 726-9번지 104호","category":"일반휴게음식 - 일반한식"},{"name":"디디치킨","tel":"031-827-0990","addr":"경기도 동두천시 지행동 726-9번지 10","category":"일반휴게음식 - 스넥"},{"name":"반전726","tel":"031-865-1900","addr":"경기도 동두천시 지행동 726-9번지","category":"일반휴게음식 - 일반한식"},{"name":"올리브 호프","tel":"070-4176-9931","addr":"경기도 동두천시 지행동 726-9번지","category":"일반휴게음식 - 주점"},{"name":"조개나라","tel":"","addr":"경기도 동두천시 지행동 726-9번지","category":"음료식품 - 농·축·수산품"},{"name":"평화로마차","tel":"031-861-9922","addr":"경기도 동두천시 지행동 726-9번지","category":"일반휴게음식 - 일반한식"},{"name":"해뜰날","tel":"","addr":"경기도 동두천시 지행동 726-9번지 4호","category":"유통업 영리 - 슈퍼마켓"},{"name":"해물천하 조개구이","tel":"031-867-7707","addr":"경기도 동두천시 지행동 726-9번지","category":"일반휴게음식 - 일반한식"}]},{"lat":"37.888605925","long":"127.0664857","items":[{"name":"돈치까페","tel":"031-865-3337","addr":"경기도 동두천시 지행동 204-2번지","category":"일반휴게음식 - 일반한식"}]},{"lat":"37.896137436","long":"127.04750574","items":[{"name":"돈코","tel":"031-866-1771","addr":"경기도 동두천시 지행동 673-2번지 1층","category":"일반휴게음식 - 일반한식"},{"name":"돈코복코","tel":"031-1111-1111","addr":"경기도 동두천시 지행동 673-2번지 1층","category":"일반휴게음식 - 일반한식"}]},{"lat":"37.896110533","long":"127.04717602","items":[{"name":"동대문엽기떡볶이","tel":"031-865-5592","addr":"경기도 동두천시 지행동 673번지 1층","category":"일반휴게음식 - 일반한식"},{"name":"성희포차","tel":"031-865-8955","addr":"경기도 동두천시 지행동 673번지","category":"일반휴게음식 - 주점"}]},{"lat":"37.889944537","long":"127.05592582","items":[{"name":"동두천 박장어","tel":"031-554-9100","addr":"경기도 동두천시 지행동 738-6번지","category":"일반휴게음식 - 일반한식"}]},{"lat":"37.895713615","long":"127.04850596","items":[{"name":"동두천곱창","tel":"031-868-1555","addr":"경기도 동두천시 지행동 680-2번지","category":"일반휴게음식 - 일반한식"},{"name":"영일자전거용품","tel":"031-868-0010","addr":"경기도 동두천시 지행동 680-2번지 101호","category":"레져용품 - 스포츠·레져용품"},{"name":"페리카나(송내)","tel":"031-864-9292","addr":"경기도 동두천시 지행동 680-2번지 103호","category":"일반휴게음식 - 스넥"},{"name":"형제물닭갈비","tel":"031-866-9763","addr":"경기도 동두천시 지행동 680-2번지","category":"일반휴게음식 - 일반한식"}]},{"lat":"37.889744582","long":"127.05967716","items":[{"name":"동두천어린이집[아이행복]","tel":"031-865-8838","addr":"경기도 동두천시 지행동 350-32번지","category":"학원 - 유아원"}]},{"lat":"37.889444377","long":"127.06539509","items":[{"name":"동두천정직한두부","tel":"031-865-5872","addr":"경기도 동두천시 지행동 183번지","category":"음료식품 - 기타음료식품"}]},{"lat":"37.888853938","long":"127.05695953","items":[{"name":"동원공인중개사사무소","tel":"031-866-1710","addr":"경기도 동두천시 지행동 475-1번지 영종상가 103호","category":"용역 서비스 - 부동산 중개·임대"}]},{"lat":"37.889690433","long":"127.05987038","items":[{"name":"동원헤어샵","tel":"","addr":"경기도 동두천시 지행동 350-30번지","category":"보건위생 - 미용원"}]},{"lat":"37.895740792","long":"127.04811943","items":[{"name":"동해수산","tel":"031-858-2257","addr":"경기도 동두천시 지행동 680번지 1층","category":"일반휴게음식 - 일반한식"},{"name":"얼큰식당","tel":"031-861-8832","addr":"경기도 동두천시 지행동 680번지","category":"일반휴게음식 - 일반한식"},{"name":"영웅태권도장","tel":"031-868-2260","addr":"경기도 동두천시 지행동 680번지","category":"학원 - 예·체능계학원"},{"name":"인생술집","tel":"070-4176-9931","addr":"경기도 동두천시 지행동 680번지","category":"일반휴게음식 - 주점"}]},{"lat":"37.889548163","long":"127.05584596","items":[{"name":"드마리(DeMarie)","tel":"031-857-3628","addr":"경기도 동두천시 지행동 738-8번지 1층","category":"일반휴게음식 - 중국식"},{"name":"울랄라 노래연습장","tel":"031-868-5059","addr":"경기도 동두천시 지행동 738-8번지","category":"레저업소 - 노 래 방"}]},{"lat":"37.896074611","long":"127.04686903","items":[{"name":"들소","tel":"031-865-2188","addr":"경기도 동두천시 지행동 662-5번지 들소","category":"일반휴게음식 - 일반한식"}]},{"lat":"37.8931642","long":"127.04792458","items":[{"name":"딜리푸드","tel":"031-865-9633","addr":"경기도 동두천시 지행동 689-6번지","category":"일반휴게음식 - 일반한식"}]},{"lat":"37.893827065","long":"127.05700864","items":[{"name":"또봉이통닭 지행점","tel":"031-886-1063","addr":"경기도 동두천시 지행동 729-2번지 1층","category":"일반휴게음식 - 스넥"},{"name":"사랑샤브샤브","tel":"031-862-1818","addr":"경기도 동두천시 지행동 729-2번지 2층","category":"일반휴게음식 - 일반한식"},{"name":"애 사랑양꼬치","tel":"031-111-1111","addr":"경기도 동두천시 지행동 729-2번지","category":"일반휴게음식 - 중국식"},{"name":"쥬베나일 블라썸","tel":"031-857-0857","addr":"경기도 동두천시 지행동 729-2번지 1층","category":"의류 - 정장"}]},{"lat":"37.892276589","long":"127.05887194","items":[{"name":"뚜레쥬르 동두천지행","tel":"031-863-0149","addr":"경기도 동두천시 지행동 286번지","category":"음료식품 - 제과점"},{"name":"삼성곱창","tel":"031-866-8066","addr":"경기도 동두천시 지행동 286번지","category":"일반휴게음식 - 일반한식"}]},{"lat":"37.895241402","long":"127.05728253","items":[{"name":"뚱가네소한마리정육식당","tel":"031-863-5292","addr":"경기도 동두천시 지행동 728번지","category":"일반휴게음식 - 일반한식"}]},{"lat":"37.89477229","long":"127.05862372","items":[{"name":"뜨란채어린이집[아이행복]","tel":"031-863-2004","addr":"경기도 동두천시 지행동 270-3번지 지행주공아파트","category":"학원 - 유아원"}]},{"lat":"37.894714003","long":"127.04740256","items":[{"name":"라라(lala)디퓨저","tel":"031-000-0000","addr":"경기도 동두천시 지행동 678-3번지 204호","category":"신변잡화 - 기타잡화"}]},{"lat":"37.892603398","long":"127.0534039","items":[{"name":"라라코스트 동두천점","tel":"031-858-8382","addr":"경기도 동두천시 지행동 693-6번지 3층","category":"주방용구 - 주방용구"},{"name":"마샹스헤어살롱","tel":"031-841-5021","addr":"경기도 동두천시 지행동 693-6번지 크라운732 2층 201호","category":"보건위생 - 미용원"},{"name":"채선당플러스 동두천점","tel":"031-857-6777","addr":"경기도 동두천시 지행동 693-6번지 501,502호","category":"일반휴게음식 - 일반한식"},{"name":"채선당플러스동두천점","tel":"031-857-6777","addr":"경기도 동두천시 지행동 693-6번지 크라운 732호","category":"일반휴게음식 - 일반한식"},{"name":"토즈멤버십라운지동두천지행센타","tel":"031-861-0917","addr":"경기도 동두천시 지행동 693-6번지 크라운732 4층 401호","category":"용역 서비스 - 사무서비스"},{"name":"토즈스터디센터동두천지행독서실","tel":"031-861-0917","addr":"경기도 동두천시 지행동 693-6번지 크라운732빌딩 4층 401호","category":"학원 - 독서실"}]},{"lat":"37.88999611","long":"127.06117796","items":[{"name":"라온미장","tel":"031-861-8832","addr":"경기도 동두천시 지행동 370-4번지","category":"보건위생 - 미용원"},{"name":"착한 삼겹살","tel":"031-859-9293","addr":"경기도 동두천시 지행동 370-4번지","category":"일반휴게음식 - 일반한식"}]},{"lat":"37.894799982","long":"127.05720262","items":[{"name":"라피네헤어","tel":"031-857-0147","addr":"경기도 동두천시 지행동 728-5번지 106호","category":"보건위생 - 미용원"},{"name":"브루잉카페","tel":"","addr":"경기도 동두천시 지행동 728-5번지 2층 201호","category":"일반휴게음식 - 서양음식"},{"name":"수넬","tel":"031-857-0770","addr":"경기도 동두천시 지행동 728-5번지 오복하우스 105호","category":"보건위생 - 피부미용실"}]},{"lat":"37.894578449","long":"127.04848252","items":[{"name":"럭셔리컷","tel":"031-866-9925","addr":"경기도 동두천시 지행동 684-6번지","category":"보건위생 - 미용원"},{"name":"헬로벨","tel":"070-7796-7774","addr":"경기도 동두천시 지행동 684-6번지 103호","category":"사무통신 - 통신기기"}]},{"lat":"37.897110252","long":"127.04800657","items":[{"name":"런드리위드카페","tel":"","addr":"경기도 동두천시 지행동 666-1번지 상가 102호 101호,102호","category":"수리서비스 - 세탁소"}]},{"lat":"37.897137458","long":"127.04754045","items":[{"name":"레드빈","tel":"031-864-9471","addr":"경기도 동두천시 지행동 665-4번지","category":"일반휴게음식 - 서양음식"},{"name":"태후사랑","tel":"031-861-3647","addr":"경기도 동두천시 지행동 665-4번지","category":"보건위생 - 화장품"}]},{"lat":"37.893470673","long":"127.0475155","items":[{"name":"로드맵수학교실교습소","tel":"070-7519-0982","addr":"경기도 동두천시 지행동 688-4번지 102호","category":"회원제형태 - 학원"}]},{"lat":"37.887385433","long":"127.05692435","items":[{"name":"로켓트보일러북부판매(주)","tel":"031-862-9000","addr":"경기도 동두천시 지행동 406-11번지","category":"건축자재 - 보일러·펌프·샷시"},{"name":"한북인쇄교재","tel":"031-852-6125","addr":"경기도 동두천시 지행동 406-11번지 2층","category":"서적문구 - 출판 및 인쇄물"}]},{"lat":"37.889915842","long":"127.05950677","items":[{"name":"루스틱","tel":"031-000-0000","addr":"경기도 동두천시 지행동 350-12번지 101호","category":"신변잡화 - 기타잡화"},{"name":"진성공조","tel":"070-4130-9416","addr":"경기도 동두천시 지행동 350-12번지","category":"전기제품 - 냉열기기"}]},{"lat":"37.892866228","long":"127.0496297","items":[{"name":"리틀하늘빛어린이집[아이행복]","tel":"070-7715-8841","addr":"경기도 동두천시 지행동 691-3번지 현진에버빌 110동 101호","category":"학원 - 유아원"}]},{"lat":"37.894749627","long":"127.04848263","items":[{"name":"마레","tel":"031-866-3412","addr":"경기도 동두천시 지행동 684-5번지","category":"의류 - 정장"},{"name":"청춘미장","tel":"031-868-7437","addr":"경기도 동두천시 지행동 684-5번지","category":"보건위생 - 미용원"},{"name":"클루드몽","tel":"031-865-7324","addr":"경기도 동두천시 지행동 684-5번지","category":"일반휴게음식 - 서양음식"},{"name":"클린세탁","tel":"031-859-5688","addr":"경기도 동두천시 지행동 684-5번지","category":"수리서비스 - 세탁소"}]},{"lat":"37.891438749","long":"127.05881447","items":[{"name":"마음(MA:UM)","tel":"031-858-8794","addr":"경기도 동두천시 지행동 286-12번지","category":"일반휴게음식 - 일반한식"},{"name":"우아헤어","tel":"031-859-0344","addr":"경기도 동두천시 지행동 286-12번지","category":"보건위생 - 미용원"}]},{"lat":"37.895191074","long":"127.04850564","items":[{"name":"마초헤어샵","tel":"031-868-8203","addr":"경기도 동두천시 지행동 684-2번지 다솜빌딩 104호","category":"보건위생 - 미용원"},{"name":"멍#","tel":"031-865-7585","addr":"경기도 동두천시 지행동 684-2번지 다솜빌 102호","category":"문화.취미 - 애완동물"},{"name":"스시김","tel":"031-858-7842","addr":"경기도 동두천시 지행동 684-2번지","category":"일반휴게음식 - 일식·회집"}]},{"lat":"37.889331411","long":"127.05700535","items":[{"name":"만석꾼","tel":"031-868-2544","addr":"경기도 동두천시 지행동 477-3번지","category":"음료식품 - 미곡상"},{"name":"오토오아시스지행점","tel":"031-866-0951","addr":"경기도 동두천시 지행동 477-3번지","category":"자동차정비 유지 - 자동차시트·타이어"}]},{"lat":"37.894160073","long":"127.05773649","items":[{"name":"만수무강 한복 전문점","tel":"031-858-8959","addr":"경기도 동두천시 지행동 282-17번지 세도상가 201,202호","category":"의류 - 맞춤복점"},{"name":"씨유동두천현대점","tel":"031-861-2993","addr":"경기도 동두천시 지행동 282-17번지 세도 상가 101호","category":"유통업 영리 - 편 의 점"},{"name":"터치드피아노학원","tel":"031-866-1358","addr":"경기도 동두천시 지행동 282-17번지 세도상가 4층","category":"학원 - 예·체능계학원"}]},{"lat":"37.895740962","long":"127.04767603","items":[{"name":"만인호프","tel":"031-863-0966","addr":"경기도 동두천시 지행동 679-2번지","category":"일반휴게음식 - 주점"},{"name":"제이당구클럽","tel":"031-861-8832","addr":"경기도 동두천시 지행동 679-2번지 ,2-3층","category":"레저업소 - 당 구 장"}]},{"lat":"37.888719304","long":"127.05584536","items":[{"name":"맛자랑순대국","tel":"031-863-6677","addr":"경기도 동두천시 지행동 738-13번지","category":"일반휴게음식 - 일반한식"}]},{"lat":"37.894248584","long":"127.06103352","items":[{"name":"머리세상","tel":"031-862-1789","addr":"경기도 동두천시 지행동 303-3번지","category":"보건위생 - 미용원"},{"name":"문소반","tel":"070-8870-0203","addr":"경기도 동두천시 지행동 303-3번지","category":"음료식품 - 기타음료식품"}]},{"lat":"37.892576228","long":"127.05373357","items":[{"name":"메디칼요양원","tel":"031-858-1188","addr":"경기도 동두천시 지행동 695번지 M클리닉센터 8 ,9,10","category":"기타의료기관 - 기타의료기관 및 기타"},{"name":"미메이드치과","tel":"031-857-2875","addr":"경기도 동두천시 지행동 695번지 M클리닉센터 402호","category":"의원 - 치과의원"},{"name":"제니성형외과의원","tel":"031-859-4000","addr":"경기도 동두천시 지행동 695번지 M클리닉센터 5층 501호","category":"의원 - 의원"},{"name":"조은피부비뇨기과","tel":"031-864-1711","addr":"경기도 동두천시 지행동 695번지","category":"의원 - 의원"},{"name":"지행간호학원","tel":"031-866-4250","addr":"경기도 동두천시 지행동 695번지","category":"학원 - 기능학원"},{"name":"지행탑내과","tel":"031-857-5656","addr":"경기도 동두천시 지행동 695번지 엠클리닉빌딩 3층 301,302호","category":"의원 - 의원"}]},{"lat":"37.893692138","long":"127.05654242","items":[{"name":"명륜진사갈비 지행점","tel":"031-866-9279","addr":"경기도 동두천시 지행동 732-3번지","category":"일반휴게음식 - 일반한식"},{"name":"올리앤(동두천지행점)","tel":"031-853-2879","addr":"경기도 동두천시 지행동 732-3번지 1층 103호","category":"일반휴게음식 - 서양음식"},{"name":"일미양꼬치","tel":"031-857-1818","addr":"경기도 동두천시 지행동 732-3번지 104호","category":"일반휴게음식 - 중국식"}]},{"lat":"37.895497549","long":"127.04809654","items":[{"name":"명성건축","tel":"031-874-5004","addr":"경기도 동두천시 지행동 681-4번지","category":"용역 서비스 - 기타용역서비스"},{"name":"선연설렁탕","tel":"031-865-5999","addr":"경기도 동두천시 지행동 681-4번지","category":"일반휴게음식 - 일반한식"}]},{"lat":"37.890023205","long":"127.06104156","items":[{"name":"명인반찬","tel":"031-862-4883","addr":"경기도 동두천시 지행동 370-3번지","category":"음료식품 - 기타음료식품"},{"name":"자담치킨","tel":"031-858-8885","addr":"경기도 동두천시 지행동 370-3번지","category":"일반휴게음식 - 스넥"}]},{"lat":"37.888304332","long":"127.0570387","items":[{"name":"명품칼샤브","tel":"031-866-3665","addr":"경기도 동두천시 지행동 474-4번지","category":"일반휴게음식 - 일반한식"},{"name":"챔프스포츠","tel":"031-838-7989","addr":"경기도 동두천시 지행동 474-4번지 봉익빌딩 3층","category":"레져용품 - 스포츠·레져용품"}]},{"lat":"37.892937135","long":"127.05248327","items":[{"name":"무쏘 지행역점/주식회사 하벤","tel":"031-865-7999","addr":"경기도 동두천시 지행동 693-1번지 3층","category":"일반휴게음식 - 일반한식"}]},{"lat":"37.889996964","long":"127.05942726","items":[{"name":"무자크","tel":"031-866-0058","addr":"경기도 동두천시 지행동 350-11번지 111-1호","category":"의류 - 스포츠의류"}]},{"lat":"37.892781074","long":"127.05895191","items":[{"name":"문지기열쇠","tel":"031-862-1333","addr":"경기도 동두천시 지행동 290-5번지 삼익빌라 나동 102호","category":"수리서비스 - 기타수리서비스"}]},{"lat":"37.892024511","long":"127.05848522","items":[{"name":"물텀벙","tel":"031-865-8137","addr":"경기도 동두천시 지행동 286-29번지","category":"일반휴게음식 - 일반한식"}]},{"lat":"37.888133192","long":"127.056959","items":[{"name":"미각","tel":"031-857-5177","addr":"경기도 동두천시 지행동 474번지","category":"일반휴게음식 - 중국식"}]},{"lat":"37.890719288","long":"127.05604006","items":[{"name":"미송참치","tel":"031-859-8827","addr":"경기도 동두천시 지행동 738-3번지 2층","category":"일반휴게음식 - 일식·회집"},{"name":"수호상사","tel":"070-8899-2196","addr":"경기도 동두천시 지행동 738-3번지 뉴스타빌 407호","category":"자동차정비 유지 - 자동차부품"},{"name":"용구비어","tel":"031-865-0925","addr":"경기도 동두천시 지행동 738-3번지 1층","category":"일반휴게음식 - 주점"}]},{"lat":"37.894105325","long":"127.05920302","items":[{"name":"미인헤어살롱","tel":"031-866-1705","addr":"경기도 동두천시 지행동 299-4번지","category":"보건위생 - 미용원"}]},{"lat":"37.892079141","long":"127.05725747","items":[{"name":"미장","tel":"031-865-0066","addr":"경기도 동두천시 지행동 340-1","category":"보건위생 - 미용원"},{"name":"한국맥도날드 동두천지행점","tel":"02-0000-0000","addr":"경기도 동두천시 지행동 340-1번지 1층","category":"일반휴게음식 - 서양음식"}]},{"lat":"37.89524109","long":"127.0579533","items":[{"name":"미체","tel":"","addr":"경기도 동두천시 지행동 275-19번지 3층 301호","category":"보건위생 - 화장품"},{"name":"이로운아카데미학원","tel":"070-7738-7770","addr":"경기도 동두천시 지행동 275-19번지 2층","category":"학원 - 보습학원"},{"name":"한빛전기자재","tel":"070-8816-3983","addr":"경기도 동두천시 지행동 275-19번지 1층","category":"전기제품 - 기타전기제품"}]},{"lat":"37.890518008","long":"127.06246298","items":[{"name":"민 인테리어","tel":"","addr":"경기도 동두천시 지행동 374-7번지 한울빌라 가동 301호","category":"건축자재 - 인테리어전문"}]},{"lat":"37.894133533","long":"127.05667917","items":[{"name":"박원명 초밥&참치","tel":"031-865-7908","addr":"경기도 동두천시 지행동 732-1번지 1층","category":"일반휴게음식 - 일식·회집"}]},{"lat":"37.89330749","long":"127.05011883","items":[{"name":"베스트","tel":"070-7580-5152","addr":"경기도 동두천시 지행동 691-3번지 현진에버빌 107동 1102호","category":"의류 - 내의판매"},{"name":"하늘빛어린이집[아이행복]","tel":"031-824-8842","addr":"경기도 동두천시 지행동 691-3번지 현진에버빌 107동 105호","category":"학원 - 유아원"}]},{"lat":"37.896471063","long":"127.04675557","items":[{"name":"별미칡냉면","tel":"031-861-1414","addr":"경기도 동두천시 지행동 664-6번지","category":"일반휴게음식 - 일반한식"}]},{"lat":"37.896857926","long":"127.04817696","items":[{"name":"브엘신희선피아노학원","tel":"031-863-2524","addr":"경기도 동두천시 지행동 670번지","category":"학원 - 예·체능계학원"}]},{"lat":"37.894908094","long":"127.0572027","items":[{"name":"비어앤크림(Beer&Cream,픽미픽미아이스)","tel":"","addr":"경기도 동두천시 지행동 728-2번지 1동 106호","category":"음료식품 - 기타음료식품"},{"name":"세나(SENA)","tel":"070-4808-0519","addr":"경기도 동두천시 지행동 728-2번지 OK하우스 105호","category":"의류 - 정장"},{"name":"중원","tel":"031-867-7111","addr":"경기도 동두천시 지행동 728-2번지","category":"일반휴게음식 - 중국식"}]},{"lat":"37.897074","long":"127.04856365","items":[{"name":"산약초","tel":"031-862-9033","addr":"경기도 동두천시 지행동 666-4번지","category":"약국 - 한약방"},{"name":"흥부네산약초식당","tel":"031-862-9033","addr":"경기도 동두천시 지행동 666-4번지","category":"일반휴게음식 - 일반한식"}]},{"lat":"37.893248795","long":"127.06053251","items":[{"name":"삼성동물병원","tel":"031-858-7975","addr":"경기도 동두천시 지행동 325-13번지 2층","category":"기타의료기관 - 동물병원"}]},{"lat":"37.890187563","long":"127.0564262","items":[{"name":"삼차막식당","tel":"031-859-3253","addr":"경기도 동두천시 지행동 736-5번지 신화프라자 101호","category":"일반휴게음식 - 일반한식"},{"name":"이영휘한복","tel":"031-864-0620","addr":"경기도 동두천시 지행동 736-5번지","category":"의류 - 맞춤복점"},{"name":"타이어프로동두천지행역점","tel":"031-865-6625","addr":"경기도 동두천시 지행동 736-5번지","category":"자동차정비 유지 - 자동차시트·타이어"}]},{"lat":"37.889441285","long":"127.05302659","items":[{"name":"새싹키움어린이집[아이행복]","tel":"031-823-1510","addr":"경기도 동두천시 지행동 722-8번지 송내주공아파트 205동 102호","category":"학원 - 유아원"}]},{"lat":"37.893730928","long":"127.0501191","items":[{"name":"선물나라","tel":"031-825-3222","addr":"경기도 동두천시 지행동 691-3번지 현진에버빌 105동 501호","category":"회원제형태 - 기타4"},{"name":"아이숲어린이집[아이행복]","tel":"031-861-7710","addr":"경기도 동두천시 지행동 691-3번지 현진에버빌 105동 101호","category":"학원 - 유아원"}]},{"lat":"37.896299895","long":"127.04673273","items":[{"name":"선업식당","tel":"031-862-5381","addr":"경기도 동두천시 지행동 664-3번지","category":"일반휴게음식 - 일반한식"},{"name":"약산흑염소탕","tel":"031-863-8900","addr":"경기도 동두천시 지행동 664-3번지","category":"일반휴게음식 - 일반한식"}]},{"lat":"37.893693316","long":"127.0538935","items":[{"name":"세븐일레븐동두천부영점","tel":"","addr":"경기도 동두천시 지행동 692-6번지 부영아파트 상가 106호","category":"유통업 영리 - 편 의 점"},{"name":"편의점사랑슈퍼","tel":"031-851-8378","addr":"경기도 동두천시 지행동 692-6번지 부영아파트 상가 106호","category":"유통업 영리 - 슈퍼마켓"}]},{"lat":"37.88755561","long":"127.05906162","items":[{"name":"세븐일레븐지행원룸점","tel":"031-1577-0711","addr":"경기도 동두천시 지행동 406-63번지","category":"유통업 영리 - 편 의 점"}]},{"lat":"37.892186604","long":"127.0586445","items":[{"name":"세아떼이용원","tel":"","addr":"경기도 동두천시 지행동 286-21","category":"보건위생 - 이용원"}]},{"lat":"37.895799487","long":"127.05834026","items":[{"name":"셀프24시","tel":"031-861-8922","addr":"경기도 동두천시 지행동 275-3번지","category":"자동차정비 유지 - 세차장"},{"name":"카 케어존","tel":"031-861-5055","addr":"경기도 동두천시 지행동 275-3번지","category":"자동차정비 유지 - 자동차정비"},{"name":"클린 디디씨(DDC)","tel":"031-866-4267","addr":"경기도 동두천시 지행동 275-3번지","category":"용역 서비스 - 종합용역"}]},{"lat":"37.890686083","long":"127.04934411","items":[{"name":"솔라피데피아노교습소","tel":"031-857-6166","addr":"경기도 동두천시 지행동 717-2번지 송내주공1단지 1동 204호","category":"학원 - 예·체능계학원"},{"name":"일단지주공세탁소","tel":"031-859-7048","addr":"경기도 동두천시 지행동 717-2.송내주공1단지상가.205","category":"수리서비스 - 세탁소"},{"name":"헤어까페","tel":"031-859-8055","addr":"경기도 동두천시 지행동 717-2번지","category":"보건위생 - 미용원"}]},{"lat":"37.895993662","long":"127.04650517","items":[{"name":"송정떡갈비","tel":"031-867-0202","addr":"경기도 동두천시 지행동 662-3번지","category":"일반휴게음식 - 일반한식"},{"name":"육회한참치엔연어","tel":"","addr":"경기도 동두천시 지행동 662-3번지","category":"일반휴게음식 - 일반한식"}]},{"lat":"37.891358889","long":"127.05617694","items":[{"name":"솥삼","tel":"031-864-9288","addr":"경기도 동두천시 지행동 734-1번지","category":"일반휴게음식 - 일반한식"}]},{"lat":"37.889437984","long":"127.0602567","items":[{"name":"수빈모터스","tel":"031-867-1300","addr":"경기도 동두천시 지행동 367-3번지","category":"자동차정비 유지 - 자동차정비"}]},{"lat":"37.888688592","long":"127.06348463","items":[{"name":"술타벅스","tel":"031-857-3983","addr":"경기도 동두천시 지행동 171-12번지 2층","category":"일반휴게음식 - 주점"},{"name":"이마트24 동두천지행타운점","tel":"031-111-1111","addr":"경기도 동두천시 지행동 171-12번지","category":"유통업 영리 - 편 의 점"}]},{"lat":"37.895606278","long":"127.04645946","items":[{"name":"숯불9292","tel":"031-868-9291","addr":"경기도 동두천시 지행동 674-2번지","category":"일반휴게음식 - 일반한식"},{"name":"우진산전","tel":"031-877-8273","addr":"경기도 동두천시 지행동 674-2번지","category":"수리서비스 - 가정용품수리"},{"name":"토모","tel":"070-4176-9931","addr":"경기도 동두천시 지행동 674-2번지","category":"일반휴게음식 - 일반한식"}]},{"lat":"37.893575182","long":"127.05617854","items":[{"name":"스시미","tel":"031-861-6257","addr":"경기도 동두천시 지행동 726-13번지 1층 102호","category":"일반휴게음식 - 일식·회집"},{"name":"앞마당닭발(지행점)","tel":"031-867-3533","addr":"경기도 동두천시 지행동 726-13번지","category":"일반휴게음식 - 일반한식"}]},{"lat":"37.890214258","long":"127.05715378","items":[{"name":"스피드메이트 지행점","tel":"031-868-8368","addr":"경기도 동두천시 지행동 479-1번지","category":"자동차정비 유지 - 자동차정비"}]},{"lat":"37.892520169","long":"127.05817864","items":[{"name":"시장피자","tel":"031-864-4433","addr":"경기도 동두천시 지행동 284-2번지","category":"일반휴게음식 - 서양음식"},{"name":"주식회사동두천축구클럽","tel":"070-8800-6899","addr":"경기도 동두천시 지행동 284-2번지","category":"학원 - 기타 교육기관"}]},{"lat":"37.895966693","long":"127.04634599","items":[{"name":"신간짬뽕","tel":"031-863-7959","addr":"경기도 동두천시 지행동 662-2번지 1층","category":"일반휴게음식 - 일반한식"}]},{"lat":"37.895082571","long":"127.04950604","items":[{"name":"신천문구","tel":"031-859-0449","addr":"경기도 동두천시 지행동 691 부영3단지단지내상가1층103호","category":"서적문구 - 문구용품"},{"name":"아리수헤어","tel":"031-866-3777","addr":"경기도 동두천시 지행동 691 부영상가 104","category":"보건위생 - 미용원"}]},{"lat":"37.895020673","long":"127.04645912","items":[{"name":"신촌한우마을","tel":"031-861-9920","addr":"경기도 동두천시 지행동 675-3번지","category":"일반휴게음식 - 일반한식"}]},{"lat":"37.893522731","long":"127.0525064","items":[{"name":"씨유동두천지행우체국점","tel":"031-866-7263","addr":"경기도 동두천시 지행동 692-7번지 동두천지행동우체국 1층","category":"유통업 영리 - 편 의 점"}]},{"lat":"37.894413039","long":"127.05620188","items":[{"name":"아리가또맘마 동두천 지행점","tel":"070-7730-4032","addr":"경기도 동두천시 지행동 726-7번지 1층","category":"일반휴게음식 - 일식·회집"}]},{"lat":"37.890440014","long":"127.05600575","items":[{"name":"아리랑신관","tel":"031-864-2435","addr":"경기도 동두천시 지행동 738-4","category":"일반휴게음식 - 일반한식"}]},{"lat":"37.892830989","long":"127.04757195","items":[{"name":"아리솔어린이집[아이행복]","tel":"031-857-7733","addr":"경기도 동두천시 지행동 687-7번지","category":"학원 - 유아원"},{"name":"연세에듀학원","tel":"031-864-5636","addr":"경기도 동두천시 지행동 687-7번지 1층","category":"학원 - 보습학원"}]},{"lat":"37.897074062","long":"127.04840448","items":[{"name":"아사랑헤어","tel":"031-868-7288","addr":"경기도 동두천시 지행동 666-3번지","category":"보건위생 - 미용원"}]},{"lat":"37.896443348","long":"127.04856326","items":[{"name":"아이스크림할인마트","tel":"031-862-2214","addr":"경기도 동두천시 지행동 671-3번지 1층","category":"유통업 영리 - 슈퍼마켓"},{"name":"하루스시","tel":"031-857-4186","addr":"경기도 동두천시 지행동 671-3번지 1층","category":"일반휴게음식 - 일식·회집"}]},{"lat":"37.894105029","long":"127.05981694","items":[{"name":"아이시스(양주대리점)","tel":"031-000-0000","addr":"경기도 동두천시 지행동 298-2번지 2층","category":"음료식품 - 기타음료식품"}]},{"lat":"37.892970307","long":"127.05887247","items":[{"name":"안다미로","tel":"031-000-0000","addr":"경기도 동두천시 지행동 294-2번지","category":"보건위생 - 미용원"}]},{"lat":"37.890024231","long":"127.05892708","items":[{"name":"알라딘EDU","tel":"02-2063-0669","addr":"경기도 동두천시 지행동 350-19 대림목화빌라 201 23/5","category":"회원제형태 - 학원"}]},{"lat":"37.894773246","long":"127.05656594","items":[{"name":"애니카랜드지행정","tel":"031-861-3484","addr":"경기도 동두천시 지행동 727-7번지","category":"자동차정비 유지 - 자동차정비"}]},{"lat":"37.89461099","long":"127.0567591","items":[{"name":"야미앤바베쿡스","tel":"031-858-8292","addr":"경기도 동두천시 지행동 727-4번지 2층","category":"일반휴게음식 - 일반한식"},{"name":"인비토","tel":"070-8819-3000","addr":"경기도 동두천시 지행동 727-4번지","category":"일반휴게음식 - 일반한식"}]},{"lat":"37.887384551","long":"127.0588114","items":[{"name":"양주파스퇴르","tel":"031-866-3883","addr":"경기도 동두천시 지행동 406-45번지","category":"음료식품 - 기타음료식품"},{"name":"이레피엔알에이","tel":"031-871-1123","addr":"경기도 동두천시 지행동 406-45번지","category":"용역 서비스 - 종합용역"}]},{"lat":"37.895497391","long":"127.04850583","items":[{"name":"어수정국수집본점","tel":"031-866-6005","addr":"경기도 동두천시 지행동 684번지","category":"일반휴게음식 - 일반한식"},{"name":"지옥떡볶이","tel":"031-859-5255","addr":"경기도 동두천시 지행동 684번지","category":"일반휴게음식 - 일반한식"}]},{"lat":"37.890302539","long":"127.06095083","items":[{"name":"언니네살롱","tel":"070-5031-0327","addr":"경기도 동두천시 지행동 348-2번지","category":"보건위생 - 미용원"},{"name":"워시프렌즈 셀프빨래방 동두천지행점","tel":"031-111-1111","addr":"경기도 동두천시 지행동 348-2번지 1층 3호","category":"수리서비스 - 세탁소"},{"name":"페트레잇","tel":"","addr":"경기도 동두천시 지행동 348-2번지","category":"광학제품 - 사진관"},{"name":"힐냥이","tel":"031-858-1711","addr":"경기도 동두천시 지행동 348-2번지 1층","category":"일반휴게음식 - 서양음식"}]},{"lat":"37.888583327","long":"127.05767551","items":[{"name":"에이스","tel":"","addr":"경기도 동두천시 지행동 474-5번지 2층","category":"보건위생 - 화장품"}]},{"lat":"37.895025409","long":"127.05678214","items":[{"name":"엘리팝 지행역점","tel":"031-826-7828","addr":"경기도 동두천시 지행동 727-1번지","category":"일반휴게음식 - 주점"}]},{"lat":"37.893357393","long":"127.05953215","items":[{"name":"엘지냉난방설치점","tel":"031-865-9405","addr":"경기도 동두천시 지행동 296번지 동현주택 102호","category":"용역 서비스 - 기타용역서비스"}]},{"lat":"37.892603593","long":"127.05294916","items":[{"name":"연세 세브란스 치과의원","tel":"031-857-7504","addr":"경기도 동두천시 지행동 693-4번지 301,302호","category":"의원 - 치과의원"}]},{"lat":"37.890105141","long":"127.05929092","items":[{"name":"연세우유","tel":"031-862-4310","addr":"경기도 동두천시 지행동 350-1번지","category":"음료식품 - 기타음료식품"},{"name":"한국유리샷시","tel":"031-868-5314","addr":"경기도 동두천시 지행동 350-1번지 한국유리샷시 1동","category":"건축자재 - 유리"}]},{"lat":"37.892165649","long":"127.06453338","items":[{"name":"예그린어린이집","tel":"031-857-6100","addr":"경기도 동두천시 지행동 262-7번지","category":"학원 - 유아원"},{"name":"예그린어린이집[아이행복]","tel":"031-857-6100","addr":"경기도 동두천시 지행동 262-7번지","category":"학원 - 유아원"}]},{"lat":"37.894749723","long":"127.04823251","items":[{"name":"오늘의날씨","tel":"02-3272-8661","addr":"경기도 동두천시 지행동 683-4번지","category":"일반휴게음식 - 서양음식"}]},{"lat":"37.895714187","long":"127.04700524","items":[{"name":"오늘의치킨","tel":"031-858-1966","addr":"경기도 동두천시 지행동 674-5번지","category":"일반휴게음식 - 스넥"},{"name":"커피를생각하다","tel":"031-866-3704","addr":"경기도 동두천시 지행동 674-5번지 1층","category":"일반휴게음식 - 서양음식"}]},{"lat":"37.895740888","long":"127.04786931","items":[{"name":"오리야오리야","tel":"031-866-9233","addr":"경기도 동두천시 지행동 679-3번지","category":"일반휴게음식 - 일반한식"}]},{"lat":"37.896137298","long":"127.04786955","items":[{"name":"와싸다회집","tel":"031-864-4388","addr":"경기도 동두천시 지행동 673-4번지","category":"일반휴게음식 - 일반한식"},{"name":"토마토포차","tel":"070-5043-5801","addr":"경기도 동두천시 지행동 673-4번지","category":"일반휴게음식 - 일반한식"}]},{"lat":"37.896137497","long":"127.04734657","items":[{"name":"와우리","tel":"032-446-1186","addr":"경기도 동두천시 지행동 673-1번지","category":"일반휴게음식 - 일반한식"},{"name":"하봉암돼지부속","tel":"031-866-9322","addr":"경기도 동두천시 지행동 673-1번지","category":"일반휴게음식 - 일반한식"}]},{"lat":"37.894466674","long":"127.0571228","items":[{"name":"와이디모바일(YD mobile)","tel":"031-861-9955","addr":"경기도 동두천시 지행동 728-4번지","category":"사무통신 - 통신기기"},{"name":"지엠 (GM)골프클리닉&스크린","tel":"031-857-5600","addr":"경기도 동두천시 지행동 728-4번지","category":"레저업소 - 스크린골프"},{"name":"향기캠프","tel":"031-861-0021","addr":"경기도 동두천시 지행동 728-4번지","category":"신변잡화 - 기타잡화"}]},{"lat":"37.896300163","long":"127.04600511","items":[{"name":"우주공업사","tel":"031-864-2189","addr":"경기도 동두천시 지행동 661-3번지","category":"회원제형태 - 기타4"}]},{"lat":"37.887240553","long":"127.05849299","items":[{"name":"우주크레인","tel":"031-862-3131","addr":"경기도 동두천시 지행동 406-58번지 동진빌라 나동 303호","category":"자동차판매 - 기타운송"}]},{"lat":"37.895552285","long":"127.0462889","items":[{"name":"원조강변마차","tel":"031-862-1259","addr":"경기도 동두천시 지행동 674-1번지","category":"일반휴게음식 - 일반한식"},{"name":"장모님진해장국","tel":"031-863-3095","addr":"경기도 동두천시 지행동 674-1번지","category":"일반휴게음식 - 일반한식"}]},{"lat":"37.896857776","long":"127.04856351","items":[{"name":"유경미술","tel":"031-863-4050","addr":"경기도 동두천시 지행동 671번지","category":"학원 - 예·체능계학원"}]},{"lat":"37.888882736","long":"127.05295801","items":[{"name":"이담어린이집[아이행복]","tel":"031-859-3210","addr":"경기도 동두천시 지행동 722-6번지 이담어린이집","category":"학원 - 유아원"},{"name":"이담어린이집[아이행복]","tel":"031-859-3210","addr":"경기도 동두천시 지행동 722-6번지","category":"학원 - 유아원"}]},{"lat":"37.894746384","long":"127.05620212","items":[{"name":"이담작업장","tel":"031-861-9009","addr":"경기도 동두천시 지행동 726-5번지","category":"일반휴게음식 - 일반한식"}]},{"lat":"37.890943101","long":"127.0590983","items":[{"name":"이담통상","tel":"031-862-4861","addr":"경기도 동두천시 지행동 342-1번지 현성하이츠 301호","category":"기타 - 기타 전문점"}]},{"lat":"37.891275925","long":"127.06017855","items":[{"name":"이마트24 지행빌리지","tel":"031-1111-1111","addr":"경기도 동두천시 지행동 334-1번지","category":"유통업 영리 - 편 의 점"}]},{"lat":"37.891194145","long":"127.07750388","items":[{"name":"이마트24동두천영웅점","tel":"03-111-1111","addr":"경기도 동두천시 지행동 산23-2번지 2동 지하2층","category":"유통업 영리 - 편 의 점"}]},{"lat":"37.890880948","long":"127.05715427","items":[{"name":"이종구낙지세상","tel":"031-865-5559","addr":"경기도 동두천시 지행동 352-3번지","category":"일반휴게음식 - 일반한식"}]},{"lat":"37.887552593","long":"127.06506382","items":[{"name":"장수식당","tel":"","addr":"경기도 동두천시 지행동 193번지 104호","category":"일반휴게음식 - 일반한식"},{"name":"통돼지 두루치기","tel":"031-866-1117","addr":"경기도 동두천시 지행동 193번지 1층","category":"일반휴게음식 - 일반한식"}]},{"lat":"37.891439515","long":"127.05717742","items":[{"name":"장쌤스터디영어교습소","tel":"070-4046-5547","addr":"경기도 동두천시 지행동 340-17번지 2층","category":"학원 - 외국어학원"},{"name":"코아부동산공인중개사사무소","tel":"031-859-2900","addr":"경기도 동두천시 지행동 340-17","category":"용역 서비스 - 부동산 중개·임대"},{"name":"티스테이션 동두천점","tel":"031-862-2446","addr":"경기도 동두천시 지행동 340-17번지","category":"자동차정비 유지 - 자동차시트·타이어"}]},{"lat":"37.896578488","long":"127.04856334","items":[{"name":"장터식당","tel":"031-861-7191","addr":"경기도 동두천시 지행동 671-2번지","category":"일반휴게음식 - 일반한식"}]},{"lat":"37.89191447","long":"127.06243","items":[{"name":"재크와콩나무","tel":"031-857-6277","addr":"경기도 동두천시 지행동 322-12번지","category":"건축자재 - 목재·석재·철물"}]},{"lat":"37.896831381","long":"127.04690359","items":[{"name":"전주물꽁아구찜","tel":"031-696-5047","addr":"경기도 동두천시 지행동 667번지 1층","category":"일반휴게음식 - 일반한식"}]},{"lat":"37.895497921","long":"127.0471188","items":[{"name":"정해황태구이","tel":"031-863-9292","addr":"경기도 동두천시 지행동 677-5번지","category":"일반휴게음식 - 일반한식"}]},{"lat":"37.896579255","long":"127.04653962","items":[{"name":"제일지물상사","tel":"031-865-4187","addr":"경기도 동두천시 지행동 664-1번지","category":"직물 - 카페트,커튼,천막,지물"}]},{"lat":"37.891270319","long":"127.0707284","items":[{"name":"종이골가든","tel":"031-864-8988","addr":"경기도 동두천시 지행동 66-2번지 1층","category":"일반휴게음식 - 일반한식"}]},{"lat":"37.890770709","long":"127.06158783","items":[{"name":"종이골영농조합","tel":"031-866-9992","addr":"경기도 동두천시 지행동 373-4번지","category":"학원 - 기타 교육기관"}]},{"lat":"37.895077396","long":"127.06112512","items":[{"name":"주블리","tel":"031-867-1230","addr":"경기도 동두천시 지행동 270-34번지 A동 103호","category":"문화.취미 - 애완동물"}]},{"lat":"37.891528081","long":"127.06039474","items":[{"name":"주코스메틱","tel":"031-868-3577","addr":"경기도 동두천시 지행동 332-6번지 유진빌라 1동 302호","category":"보건위생 - 화장품"}]},{"lat":"37.892859468","long":"127.06434069","items":[{"name":"쥬비코스 르네셀","tel":"031-857-4646","addr":"경기도 동두천시 지행동 262-10번지","category":"회원제형태 - 기타1"}]},{"lat":"37.894009876","long":"127.05096057","items":[{"name":"지앤에이테크놀로지","tel":"031-863-9926","addr":"경기도 동두천시 지행동 691-3번지 현진에버빌 103동 501호","category":"수리서비스 - 기타수리서비스"},{"name":"탑앤김","tel":"031-861-2724","addr":"경기도 동두천시 지행동 691-3번지 현진에버빌 103동 103호","category":"학원 - 기타 교육기관"}]},{"lat":"37.886853919","long":"127.05684439","items":[{"name":"지영안전산업","tel":"031-542-1721","addr":"경기도 동두천시 지행동 407-11번지","category":"기타 - 기타 전문점"},{"name":"태양가전중고나라","tel":"031-866-8940","addr":"경기도 동두천시 지행동 407-11번지 1층","category":"전기제품 - 가전제품"}]},{"lat":"37.897101631","long":"127.04698333","items":[{"name":"지행메밀","tel":"031-861-0099","addr":"경기도 동두천시 지행동 665-1번지 1층","category":"일반휴게음식 - 일반한식"}]},{"lat":"37.889663201","long":"127.06029098","items":[{"name":"지행명품손세차","tel":"031-868-2567","addr":"경기도 동두천시 지행동 368-9번지","category":"자동차정비 유지 - 세차장"}]},{"lat":"37.894527511","long":"127.06176134","items":[{"name":"지행오리골","tel":"031-866-9252","addr":"경기도 동두천시 지행동 268-6번지","category":"일반휴게음식 - 일반한식"}]},{"lat":"37.892691018","long":"127.05887226","items":[{"name":"지행인테리어","tel":"031-862-7339","addr":"경기도 동두천시 지행동 290-5 삼익빌라1층 102","category":"건축자재 - 인테리어전문"}]},{"lat":"37.887610509","long":"127.05726555","items":[{"name":"지행점기아오토큐","tel":"031-863-8582","addr":"경기도 동두천시 지행동 406-2","category":"자동차정비 유지 - 자동차정비"}]},{"lat":"37.891025394","long":"127.05650638","items":[{"name":"짬뽕의 자신감","tel":"031-866-0828","addr":"경기도 동두천시 지행동 736번지","category":"일반휴게음식 - 일반한식"}]},{"lat":"37.894331955","long":"127.05620182","items":[{"name":"차이나빌","tel":"031-858-5686","addr":"경기도 동두천시 지행동 726-8번지","category":"일반휴게음식 - 중국식"}]},{"lat":"37.889358982","long":"127.05581172","items":[{"name":"참수물옹심이메밀칼국수","tel":"031-858-5273","addr":"경기도 동두천시 지행동 738-9번지","category":"일반휴게음식 - 일반한식"},{"name":"청년다방","tel":"031-866-5055","addr":"경기도 동두천시 지행동 738-9번지","category":"일반휴게음식 - 서양음식"}]},{"lat":"37.893047088","long":"127.04790178","items":[{"name":"참숯싱싱생고기","tel":"031-868-9981","addr":"경기도 동두천시 지행동 689-7번지 1층","category":"일반휴게음식 - 일반한식"}]},{"lat":"37.893663852","long":"127.05923679","items":[{"name":"처갓집(지행점)","tel":"031-865-9994","addr":"경기도 동두천시 지행동 295-7번지","category":"일반휴게음식 - 스넥"},{"name":"현대할인마트","tel":"031-857-2828","addr":"경기도 동두천시 지행동 295-7번지","category":"유통업 영리 - 슈퍼마켓"}]},{"lat":"37.896110152","long":"127.0481765","items":[{"name":"켐프케이시바베큐","tel":"031-868-3352","addr":"경기도 동두천시 지행동 672번지","category":"일반휴게음식 - 주점"}]},{"lat":"37.886520573","long":"127.05684414","items":[{"name":"코털이벤트공연기획사","tel":"031-868-8229","addr":"경기도 동두천시 지행동 407-8번지","category":"용역 서비스 - 사무서비스"}]},{"lat":"37.892158856","long":"127.06014513","items":[{"name":"크린토피아 지행초교점","tel":"031-857-1186","addr":"경기도 동두천시 지행동 328-7번지","category":"수리서비스 - 세탁소"}]},{"lat":"37.888750526","long":"127.0656446","items":[{"name":"킵인터치(keep in touch)","tel":"","addr":"경기도 동두천시 지행동 204-3번지","category":"일반휴게음식 - 서양음식"}]},{"lat":"37.895191871","long":"127.04640238","items":[{"name":"태경에어컨","tel":"031-0000-0000","addr":"경기도 동두천시 지행동 675-2번지 경도빌II 302호","category":"용역 서비스 - 기타용역서비스"}]},{"lat":"37.895912708","long":"127.04615268","items":[{"name":"태림목조건설","tel":"031-861-3434","addr":"경기도 동두천시 지행동 662-1번지","category":"건축자재 - 부동산 분양"}]},{"lat":"37.893944389","long":"127.05656534","items":[{"name":"토우개발","tel":"031-865-5492","addr":"경기도 동두천시 지행동 732-2번지 404호","category":"건축자재 - 기타건축자재"}]},{"lat":"37.896326481","long":"127.04790377","items":[{"name":"통큰부대찌개","tel":"031-868-4270","addr":"경기도 동두천시 지행동 669-9번지","category":"일반휴게음식 - 일반한식"}]},{"lat":"37.896768748","long":"127.04573252","items":[{"name":"트윈픽스","tel":"031-862-7896","addr":"경기도 동두천시 지행동 661번지","category":"자동차정비 유지 - 자동차부품"}]},{"lat":"37.894965947","long":"127.04823264","items":[{"name":"푸라닭 치킨 동두천지행점","tel":"031-866-9206","addr":"경기도 동두천시 지행동 682-10번지 1층 101호","category":"일반휴게음식 - 스넥"}]},{"lat":"37.892222229","long":"127.05950854","items":[{"name":"하나축산물판매장","tel":"031-865-6223","addr":"경기도 동두천시 지행동 292-12번지","category":"음료식품 - 정육점"}]},{"lat":"37.894909281","long":"127.05456511","items":[{"name":"하람피부관리실","tel":"031-859-3638","addr":"경기도 동두천시 지행동 692-3번지","category":"보건위생 - 피부미용실"}]},{"lat":"37.892798957","long":"127.05923613","items":[{"name":"한가득반찬","tel":"031-859-5685","addr":"경기도 동두천시 지행동 293-2번지","category":"음료식품 - 기타음료식품"}]},{"lat":"37.896768421","long":"127.04661932","items":[{"name":"한가정통어죽동두천점","tel":"031-865-3501","addr":"경기도 동두천시 지행동 664-4번지","category":"일반휴게음식 - 일반한식"}]},{"lat":"37.887052098","long":"127.05690137","items":[{"name":"한성전기조명","tel":"","addr":"경기도 동두천시 지행동 407-6번지 1층","category":"건축자재 - 조명기구"}]},{"lat":"37.890718796","long":"127.05712005","items":[{"name":"한촌설렁탕 동두천점","tel":"031-865-3777","addr":"경기도 동두천시 지행동 340-8번지","category":"일반휴게음식 - 일반한식"}]},{"lat":"37.896605665","long":"127.0481768","items":[{"name":"함지박찹쌀순대국","tel":"031-865-5778","addr":"경기도 동두천시 지행동 670-2번지","category":"일반휴게음식 - 일반한식"}]},{"lat":"37.89121475","long":"127.0561541","items":[{"name":"해물마을","tel":"031-859-3334","addr":"경기도 동두천시 지행동 734-2번지 상가 1층","category":"일반휴게음식 - 일반한식"}]},{"lat":"37.894172453","long":"127.04994885","items":[{"name":"현진그룹과외","tel":"","addr":"경기도 동두천시 지행동 691-3번지 현진에버빌 102동 1층 102호","category":"학원 - 기타 교육기관"}]},{"lat":"37.892942517","long":"127.06045269","items":[{"name":"호식이두마리치킨","tel":"031-862-3399","addr":"경기도 동두천시 지행동 325-1번지","category":"일반휴게음식 - 주점"}]},{"lat":"37.896605761","long":"127.04792668","items":[{"name":"호진유통","tel":"031-879-2516","addr":"경기도 동두천시 지행동 669-7번지 201호","category":"음료식품 - 기타음료식품"}]},{"lat":"37.892076361","long":"127.06297582","items":[{"name":"효담원 노인전문요양센터","tel":"031-866-1212","addr":"경기도 동두천시 지행동 316번지","category":"기타의료기관 - 기타의료기관 및 기타"}]},{"lat":"37.891052125","long":"127.0571544","items":[{"name":"효진카프라자","tel":"031-864-3070","addr":"경기도 동두천시 지행동 352-5번지","category":"자동차정비 유지 - 자동차정비"}]}]