[{"lat":"37.368667781","long":"126.81032457","imageIndex":4,"items":[{"name":"BHC 능곡점","tel":"031-435-9992","addr":"경기도 시흥시 능곡동 745번지","indutype":"음식점업 - 일반음식점","category":"restaurant"},{"name":"마라천향","tel":"031-842-6001","addr":"경기도 시흥시 능곡동 745번지 한일프라자 201호","indutype":"음식점업 - 중식","category":"restaurant"},{"name":"스완커피","tel":"031-318-7823","addr":"경기도 시흥시 능곡동 745번지 한일프라자 102호","indutype":"음식점업 - 커피,음료,디저트","category":"restaurant"},{"name":"신떡능곡점","tel":"031-317-8998","addr":"경기도 시흥시 능곡동 745번지 한일프라자 103호","indutype":"음식점업 - 음식","category":"restaurant"},{"name":"커피에반하다","tel":"070-8810-4164","addr":"경기도 시흥시 능곡동 745번지 한일프라자 106호","indutype":"음식점업 - 커피숍","category":"restaurant"},{"name":"피자스쿨시흥능곡점","tel":"031-404-5444","addr":"경기도 시흥시 능곡동 745번지 한일프라자 1층","indutype":"음식점업 - 피자전문점","category":"restaurant"}]},{"lat":"37.368607363","long":"126.81196163","imageIndex":4,"items":[{"name":"갈비야","tel":"031-317-9289","addr":"경기도 시흥시 능곡동 748번지","indutype":"음식점업 - 일반음식점,갈비 외","category":"restaurant"},{"name":"봉구비어","tel":"","addr":"경기도 시흥시 능곡동 748번지","indutype":"음식점업 - 일반음식점","category":"restaurant"},{"name":"제메이양꼬치","tel":"031-404-5678","addr":"경기도 시흥시 능곡동 748번지","indutype":"음식점업 - 기타음식점","category":"restaurant"},{"name":"착한곱","tel":"","addr":"경기도 시흥시 능곡동 748번지 영프라자 106호","indutype":"음식점업 - 한식","category":"restaurant"}]},{"lat":"37.36797622","long":"126.8116923","imageIndex":4,"items":[{"name":"감탄 능곡점","tel":"031-435-4356","addr":"경기도 시흥시 능곡동 756번지 미래도프라자 102호","indutype":"음식점업 - 분식","category":"restaurant"},{"name":"명량핫도그","tel":"031-317-2794","addr":"경기도 시흥시 능곡동 756번지 미래도프라자 101호","indutype":"음식점업 - 휴게음식점","category":"restaurant"}]},{"lat":"37.362441871","long":"126.81599582","imageIndex":4,"items":[{"name":"강릉교동짬뽕","tel":"","addr":"경기도 시흥시 능곡동 831번지 103호","indutype":"음식점업 - 한식","category":"restaurant"}]},{"lat":"37.369003771","long":"126.81193805","imageIndex":4,"items":[{"name":"개경순대국","tel":"031-318-7545","addr":"경기도 시흥시 능곡동 737번지 동도프라자 102호","indutype":"음식점업 - 한식","category":"restaurant"},{"name":"소왔쏘","tel":"031-314-9282","addr":"경기도 시흥시 능곡동 737번지 1층 114~6호","indutype":"음식점업 - 한식","category":"restaurant"},{"name":"엘에이(LA)북창동순두부 시흥능곡점","tel":"031-318-6606","addr":"경기도 시흥시 능곡동 737번지 109,110호","indutype":"음식점업 - 한식","category":"restaurant"},{"name":"은경이네닭발앤치킨","tel":"031-312-0092","addr":"경기도 시흥시 능곡동 737번지 108호","indutype":"음식점업 - 기타음식","category":"restaurant"},{"name":"한솥도시락능곡점","tel":"031-313-8585","addr":"경기도 시흥시 능곡동 737번지","indutype":"음식점업 - 한식","category":"restaurant"}]},{"lat":"37.368692563","long":"126.81452403","imageIndex":4,"items":[{"name":"경복궁 삼계탕","tel":"031-311-0011","addr":"경기도 시흥시 능곡동 619번지","indutype":"음식점업 - 한식","category":"restaurant"},{"name":"카페 619(CAFE619)","tel":"031-311-0619","addr":"경기도 시흥시 능곡동 619번지 2층 일부호","indutype":"음식점업 - 커피전문점","category":"restaurant"}]},{"lat":"37.368947552","long":"126.81060608","imageIndex":4,"items":[{"name":"고릴라호프광장","tel":"031-311-0883","addr":"경기도 시흥시 능곡동 741번지","indutype":"음식점업 - 일반음식점","category":"restaurant"},{"name":"마미바베큐","tel":"031-317-7272","addr":"경기도 시흥시 능곡동 741번지 태영프라자 1층 116호","indutype":"음식점업 - 치킨","category":"restaurant"},{"name":"빨간코다리갑오징어","tel":"031-404-7757","addr":"경기도 시흥시 능곡동 741번지","indutype":"음식점업 - 한식","category":"restaurant"},{"name":"육감만족 능곡점","tel":"031-313-9212","addr":"경기도 시흥시 능곡동 741번지","indutype":"음식점업 - 한식","category":"restaurant"},{"name":"프링(freeing)","tel":"070-8844-5978","addr":"경기도 시흥시 능곡동 741번지 태영프라자 1층 109호","indutype":"음식점업 - 카페","category":"restaurant"},{"name":"후루룩즉석떡볶이 능곡11호점","tel":"031-314-3330","addr":"경기도 시흥시 능곡동 741번지 태영프라자 1층 104호","indutype":"음식점업 - 즉석떡볶이","category":"restaurant"},{"name":"훌랄라바베큐치킨 능곡점","tel":"031-404-7792","addr":"경기도 시흥시 능곡동 741번지","indutype":"음식점업 - 기타음식점","category":"restaurant"}]},{"lat":"37.370028046","long":"126.81016304","imageIndex":4,"items":[{"name":"공주밤빵 왕자커피","tel":"031-318-1118","addr":"경기도 시흥시 능곡동 516번지 대성빌딩 1층 101호","indutype":"음식점업 - 베이커리","category":"restaurant"}]},{"lat":"37.370224903","long":"126.80932713","imageIndex":4,"items":[{"name":"곽만근갈비탕 시흥점","tel":"031-435-4500","addr":"경기도 시흥시 능곡동 510번지","indutype":"음식점업 - 한식","category":"restaurant"}]},{"lat":"37.368363325","long":"126.81148812","imageIndex":4,"items":[{"name":"구노포차","tel":"031-311-1540","addr":"경기도 시흥시 능곡동 751번지","indutype":"음식점업 - 일반음식점","category":"restaurant"},{"name":"더맛쪽갈비","tel":"031-317-8590","addr":"경기도 시흥시 능곡동 751번지","indutype":"음식점업 - 한식","category":"restaurant"},{"name":"매콤이포차","tel":"","addr":"경기도 시흥시 능곡동 751번지 성광프라자 108호","indutype":"음식점업 - 주점","category":"restaurant"}]},{"lat":"37.368806531","long":"126.81254816","imageIndex":4,"items":[{"name":"국수나무시흥능곡점","tel":"031-315-9959","addr":"경기도 시흥시 능곡동 758번지 현대프라자 106호","indutype":"음식점업 - 음식점","category":"restaurant"},{"name":"명륜진사갈비능곡점","tel":"031-311-3443","addr":"경기도 시흥시 능곡동 758번지 207,208호","indutype":"음식점업 - 한식","category":"restaurant"},{"name":"프렌즈슬라임카페","tel":"031-311-7919","addr":"경기도 시흥시 능곡동 758번지 현대프라자 6층 601호","indutype":"음식점업 - 음식점","category":"restaurant"},{"name":"한방전주콩나물국밥 능곡장현점","tel":"","addr":"경기도 시흥시 능곡동 758번지 현대프라자 1층 112~3호","indutype":"음식점업 - 한식","category":"restaurant"}]},{"lat":"37.368551219","long":"126.81067483","imageIndex":4,"items":[{"name":"궁전차이나","tel":"031-404-8867","addr":"경기도 시흥시 능곡동 744번지 월드프라자 201호","indutype":"음식점업 - 중식","category":"restaurant"},{"name":"대생이생고기집","tel":"031-435-2655","addr":"경기도 시흥시 능곡동 744번지 2층","indutype":"음식점업 - 음식","category":"restaurant"},{"name":"봉구스밥버거","tel":"031-317-3119","addr":"경기도 시흥시 능곡동 744번지","indutype":"음식점업 - 일반음식점","category":"restaurant"},{"name":"율담회관","tel":"","addr":"경기도 시흥시 능곡동 744번지 월드프라자 103호","indutype":"음식점업 - 한식","category":"restaurant"},{"name":"카페글렌 능곡점","tel":"031-317-3373","addr":"경기도 시흥시 능곡동 744번지","indutype":"음식점업 - 휴게음식점","category":"restaurant"},{"name":"해우","tel":"031-317-4470","addr":"경기도 시흥시 능곡동 744번지 월드프라자 101,102호","indutype":"음식점업 - 한식","category":"restaurant"}]},{"lat":"37.36949599","long":"126.80988218","imageIndex":4,"items":[{"name":"김밥천국","tel":"031-317-7955","addr":"경기도 시흥시 능곡동 719번지 능곡타운 107호","indutype":"음식점업 - 휴게음식점","category":"restaurant"},{"name":"김정옥쌈밥","tel":"031-315-7196","addr":"경기도 시흥시 능곡동 719번지 능곡타운 201호","indutype":"음식점업 - 한식","category":"restaurant"},{"name":"명태마당","tel":"031-431-7667","addr":"경기도 시흥시 능곡동 719번지 능곡타운 204호","indutype":"음식점업 - 한식","category":"restaurant"}]},{"lat":"37.371001722","long":"126.81052181","imageIndex":4,"items":[{"name":"더착한커피","tel":"","addr":"경기도 시흥시 능곡동 540번지","indutype":"음식점업 - 카페","category":"restaurant"}]},{"lat":"37.364193349","long":"126.81254853","imageIndex":4,"items":[{"name":"도시어부","tel":"031-318-8228","addr":"경기도 시흥시 능곡동 800번지 상가동 102호","indutype":"음식점업 - 기타음식","category":"restaurant"}]},{"lat":"37.370081646","long":"126.80988068","imageIndex":4,"items":[{"name":"동춘옥","tel":"031-318-1988","addr":"경기도 시흥시 능곡동 514번지","indutype":"음식점업 - 한식","category":"restaurant"}]},{"lat":"37.36588522","long":"126.81693553","imageIndex":4,"items":[{"name":"뜨레피아","tel":"031-410-0451","addr":"경기도 시흥시 능곡동 712번지 신일해피트리 상가 101호","indutype":"음식점업 - 카페","category":"restaurant"}]},{"lat":"37.366500694","long":"126.81301682","imageIndex":4,"items":[{"name":"만나꼬마김밥","tel":"031-318-1155","addr":"경기도 시흥시 능곡동 787번지 휴먼시아 상가동 101호","indutype":"음식점업 - 분식,커피","category":"restaurant"},{"name":"성미네분식앤포차","tel":"","addr":"경기도 시흥시 능곡동 787번지 휴먼시아 상가동 201호","indutype":"음식점업 - 음식점","category":"restaurant"}]},{"lat":"37.364747381","long":"126.80971372","imageIndex":4,"items":[{"name":"맘스터치능곡점","tel":"031-317-9251","addr":"경기도 시흥시 능곡동 782번지 신안 상가 101호","indutype":"음식점업 - 기타음식","category":"restaurant"}]},{"lat":"37.369307956","long":"126.81060516","imageIndex":4,"items":[{"name":"메가엠지씨커피 시흥능곡역점","tel":"","addr":"경기도 시흥시 능곡동 733번지 능곡프라자 1층 103호","indutype":"음식점업 - 카페","category":"restaurant"},{"name":"빈스트리커피","tel":"","addr":"경기도 시흥시 능곡동 733번지","indutype":"음식점업 - 커피등 식음료","category":"restaurant"}]},{"lat":"37.368696935","long":"126.81163403","imageIndex":4,"items":[{"name":"문서방네 꼼장어","tel":"031-435-5679","addr":"경기도 시흥시 능곡동 747번지 광장프라자 109호","indutype":"음식점업 - 한식","category":"restaurant"},{"name":"밥상","tel":"031-311-3313","addr":"경기도 시흥시 능곡동 747번지","indutype":"음식점업 - 한식","category":"restaurant"},{"name":"장현능곡비비큐점","tel":"031-317-1515","addr":"경기도 시흥시 능곡동 747번지","indutype":"음식점업 - 기타음식점","category":"restaurant"},{"name":"퀘마 능곡점","tel":"031-312-7224","addr":"경기도 시흥시 능곡동 747번지 광장프라자 201호","indutype":"음식점업 - 기타음식점","category":"restaurant"},{"name":"펀 비어킹","tel":"031-404-6240","addr":"경기도 시흥시 능곡동 747번지 광장프라자 2층 202호","indutype":"음식점업 - 호프","category":"restaurant"}]},{"lat":"37.369144653","long":"126.80991694","imageIndex":4,"items":[{"name":"물꼬기나라","tel":"031-318-6288","addr":"경기도 시흥시 능곡동 728번지","indutype":"음식점업 - 음식","category":"restaurant"},{"name":"토부리병천순대감자탕능곡점","tel":"031-404-2388","addr":"경기도 시흥시 능곡동 728번지 건아빌딩 2층 202호","indutype":"음식점업 - 한식","category":"restaurant"}]},{"lat":"37.368307377","long":"126.81032549","imageIndex":4,"items":[{"name":"블럭제빵소 시흥능곡점","tel":"031-317-3660","addr":"경기도 시흥시 능곡동 752번지 효창프라자 1층 104호","indutype":"음식점업 - 제과,제빵","category":"restaurant"},{"name":"프랑세즈제과점","tel":"031-317-4934","addr":"경기도 시흥시 능곡동 752번지 효창프라자 1층","indutype":"음식점업 - 제과점","category":"restaurant"},{"name":"피자마루 능곡점","tel":"031-435-1089","addr":"경기도 시흥시 능곡동 752번지 효창프라자 1층 103호","indutype":"음식점업 - 기타음식,피자","category":"restaurant"}]},{"lat":"37.368191054","long":"126.8108225","imageIndex":4,"items":[{"name":"서창서서갈비","tel":"031-404-5005","addr":"경기도 시흥시 능곡동 753번지 2층","indutype":"음식점업 - 한식","category":"restaurant"},{"name":"쿡1015","tel":"031-313-1015","addr":"경기도 시흥시 능곡동 753번지 신성프라자 101호","indutype":"음식점업 - 한식","category":"restaurant"}]},{"lat":"37.369137845","long":"126.81127165","imageIndex":4,"items":[{"name":"소담촌능곡점","tel":"031-317-3377","addr":"경기도 시흥시 능곡동 735번지","indutype":"음식점업 - 한식","category":"restaurant"}]},{"lat":"37.370388945","long":"126.81046693","imageIndex":4,"items":[{"name":"신전떡볶이","tel":"031-317-6669","addr":"경기도 시흥시 능곡동 544번지 102호","indutype":"음식점업 - 분식","category":"restaurant"},{"name":"카페하루","tel":"031-404-4185","addr":"경기도 시흥시 능곡동 544번지 103호","indutype":"음식점업 - 카페","category":"restaurant"}]},{"lat":"37.366307129","long":"126.81594108","imageIndex":4,"items":[{"name":"온기","tel":"","addr":"경기도 시흥시 능곡동 710번지 어울림센터 1동","indutype":"음식점업 - 비알콜 음료점업","category":"restaurant"}]},{"lat":"37.368273772","long":"126.81182701","imageIndex":4,"items":[{"name":"육대장능곡점","tel":"031-312-5213","addr":"경기도 시흥시 능곡동 750번지 1층 105~7호","indutype":"음식점업 - 한식","category":"restaurant"},{"name":"진미감자탕","tel":"","addr":"경기도 시흥시 능곡동 750번지","indutype":"음식점업 - 한식","category":"restaurant"},{"name":"태영생막창 능곡점","tel":"031-435-9295","addr":"경기도 시흥시 능곡동 750번지 103-4호","indutype":"음식점업 - 막창","category":"restaurant"},{"name":"하나비","tel":"","addr":"경기도 시흥시 능곡동 750번지 다우빌딩 110호","indutype":"음식점업 - 한식","category":"restaurant"}]},{"lat":"37.370531246","long":"126.80932635","imageIndex":4,"items":[{"name":"준베이커리","tel":"","addr":"경기도 시흥시 능곡동 508번지 1층 일부호","indutype":"음식점업 - 베이커리카페","category":"restaurant"}]},{"lat":"37.370441828","long":"126.80974428","imageIndex":4,"items":[{"name":"진실식당","tel":"031-317-6494","addr":"경기도 시흥시 능곡동 523번지","indutype":"음식점업 - 한식","category":"restaurant"}]},{"lat":"37.368056763","long":"126.81135343","imageIndex":4,"items":[{"name":"짜이라이","tel":"031-404-1149","addr":"경기도 시흥시 능곡동 755번지","indutype":"음식점업 - 중식","category":"restaurant"}]},{"lat":"37.370613056","long":"126.80976642","imageIndex":4,"items":[{"name":"최고집칼국수","tel":"031-404-8882","addr":"경기도 시흥시 능곡동 522번지","indutype":"음식점업 - 한식","category":"restaurant"}]},{"lat":"37.370198094","long":"126.80946267","imageIndex":4,"items":[{"name":"카페블라썸","tel":"031-404-3456","addr":"경기도 시흥시 능곡동 511번지 102호","indutype":"음식점업 - 커피, 꽃차","category":"restaurant"}]},{"lat":"37.370745619","long":"126.81373993","imageIndex":4,"items":[{"name":"피자나라치킨공주 시흥능곡점","tel":"031-404-5892","addr":"경기도 시흥시 능곡동 563-1번지 1층","indutype":"음식점업 - 일반음식점","category":"restaurant"},{"name":"하늘자전거","tel":"031-312-2874","addr":"경기도 시흥시 능곡동 563-1번지 101호","indutype":"음식점업 - 기타음식점","category":"restaurant"}]},{"lat":"37.370997955","long":"126.81377317","imageIndex":4,"items":[{"name":"황소화로육가","tel":"031-310-8592","addr":"경기도 시흥시 능곡동 563번지","indutype":"음식점업 - 한식","category":"restaurant"}]},{"lat":"37.36605259","long":"126.81451934","imageIndex":13,"items":[{"name":"IN헤어","tel":"","addr":"경기도 시흥시 능곡동 789번지 시흥능곡엘드수목토아파트","indutype":"개인서비스업 - 미용업","category":"beauty"}]},{"lat":"37.368551219","long":"126.81067483","imageIndex":13,"items":[{"name":"SM프로헤어","tel":"031-404-7797","addr":"경기도 시흥시 능곡동 744번지","indutype":"개인서비스업 - 미용","category":"beauty"}]},{"lat":"37.368947552","long":"126.81060608","imageIndex":13,"items":[{"name":"강원사","tel":"","addr":"경기도 시흥시 능곡동 741번지 태영프라자","indutype":"소매업 - 미용재료","category":"beauty"}]},{"lat":"37.364747381","long":"126.80971372","imageIndex":13,"items":[{"name":"로즈헤어","tel":"031-404-6661","addr":"경기도 시흥시 능곡동 782번지 106호","indutype":"개인서비스업 - 미용업","category":"beauty"}]},{"lat":"37.368056763","long":"126.81135343","imageIndex":13,"items":[{"name":"보노헤어","tel":"","addr":"경기도 시흥시 능곡동 755번지 호평프라자 2층 201호","indutype":"개인서비스업 - 미용실","category":"beauty"}]},{"lat":"37.366500694","long":"126.81301682","imageIndex":13,"items":[{"name":"블루밍헤어샵","tel":"031-312-7559","addr":"경기도 시흥시 능곡동 787번지 휴먼시아9단지 상가 2층 203호","indutype":"개인서비스업 - 미용업","category":"beauty"}]},{"lat":"37.369307956","long":"126.81060516","imageIndex":13,"items":[{"name":"블루클럽","tel":"031-317-0477","addr":"경기도 시흥시 능곡동 733번지","indutype":"개인서비스업 - 미용업","category":"beauty"},{"name":"신아헤어","tel":"","addr":"경기도 시흥시 능곡동 733번지 능곡프라자 102호","indutype":"개인서비스업 - 미용업","category":"beauty"}]},{"lat":"37.367913988","long":"126.81221175","imageIndex":13,"items":[{"name":"샬롱뮤즈(Salon Muse)","tel":"031-312-9007","addr":"경기도 시흥시 능곡동 762번지 송죽센타프라자 104호","indutype":"개인서비스업 - 미용실","category":"beauty"}]},{"lat":"37.367025492","long":"126.80882736","imageIndex":13,"items":[{"name":"신선미헤어","tel":"031-404-6032","addr":"경기도 시흥시 능곡동 768번지 휴먼시아","indutype":"개인서비스업 - 미용실","category":"beauty"}]},{"lat":"37.370857561","long":"126.81052218","imageIndex":13,"items":[{"name":"쎄라헤어스타일리스트","tel":"031-432-0708","addr":"경기도 시흥시 능곡동 541번지 103호","indutype":"개인서비스업 - 미용업","category":"beauty"}]},{"lat":"37.371001722","long":"126.81052181","imageIndex":13,"items":[{"name":"이젠헤어","tel":"031-435-8253","addr":"경기도 시흥시 능곡동 540번지 2층","indutype":"개인서비스업 - 미용업","category":"beauty"}]},{"lat":"37.368191054","long":"126.8108225","imageIndex":13,"items":[{"name":"컷트보이","tel":"031-404-3332","addr":"경기도 시흥시 능곡동 753번지 신성프라자 106호","indutype":"개인서비스업 - 미용업","category":"beauty"}]},{"lat":"37.370224903","long":"126.80932713","imageIndex":13,"items":[{"name":"킬러미용실","tel":"031-404-5310","addr":"경기도 시흥시 능곡동 510번지 2층 201호","indutype":"개인서비스업 - 미용업","category":"beauty"}]},{"lat":"37.366732079","long":"126.81123262","imageIndex":13,"items":[{"name":"헤어 아르더","tel":"","addr":"경기도 시흥시 능곡동 775번지 상록힐스테이트아파트 101호","indutype":"개인서비스업 - 미용실","category":"beauty"}]},{"lat":"37.36797622","long":"126.8116923","imageIndex":13,"items":[{"name":"헤어팡팡","tel":"031-435-2020","addr":"경기도 시흥시 능곡동 756번지 203,204호","indutype":"개인서비스업 - 일반미용업","category":"beauty"}]},{"lat":"37.368667781","long":"126.81032457","imageIndex":16,"items":[{"name":"YBM잉글루 영어영재학원","tel":"031-435-2961","addr":"경기도 시흥시 능곡동 745번지 한일프라자 501호","indutype":"교육서비스업 - 외국어학원","category":"study"},{"name":"비욘드어드밴스트 이룸학원","tel":"031-317-1555","addr":"경기도 시흥시 능곡동 745번지 한일프라자 401, 402호","indutype":"교육서비스업 - 보습학원","category":"study"},{"name":"에듀원학원","tel":"031-312-4252","addr":"경기도 시흥시 능곡동 745번지 502~504호","indutype":"교육서비스업 - 학교교과교습학원","category":"study"},{"name":"화가마을 미술학원","tel":"031-317-8555","addr":"경기도 시흥시 능곡동 745번지 한일프라자 403호","indutype":"교육서비스업 - 미술학원","category":"study"}]},{"lat":"37.367913988","long":"126.81221175","imageIndex":16,"items":[{"name":"경희대능곡태권도","tel":"031-318-6262","addr":"경기도 시흥시 능곡동 762번지 센타프라자 5층","indutype":"교육서비스업 - 학원(태권도)","category":"study"},{"name":"능곡정철어학원","tel":"031-317-0568","addr":"경기도 시흥시 능곡동 762번지 센터프라자 6층 603호","indutype":"교육서비스업 - 어학원","category":"study"},{"name":"삼성영어팩토수학학원","tel":"031-404-0571","addr":"경기도 시흥시 능곡동 762번지 송죽센타프라자 301호","indutype":"교육서비스업 - 보습학원","category":"study"},{"name":"아첼음악학원","tel":"031-318-2282","addr":"경기도 시흥시 능곡동 762번지 센타프라자 501호","indutype":"교육서비스업 - 피아노학원","category":"study"}]},{"lat":"37.36797622","long":"126.8116923","imageIndex":16,"items":[{"name":"김부섭 수학학원","tel":"031-312-2900","addr":"경기도 시흥시 능곡동 756번지 미래도프라자 601호","indutype":"교육서비스업 - 수학학원","category":"study"},{"name":"능력토피아학원","tel":"031-435-1105","addr":"경기도 시흥시 능곡동 756번지 미래프라자 5층 503, 504호","indutype":"교육서비스업 - 보습학원","category":"study"},{"name":"비상잉글리쉬아이시흥능곡학원","tel":"031-317-0511","addr":"경기도 시흥시 능곡동 756번지 미래도프라자 304호","indutype":"교육서비스업 - 학원","category":"study"}]},{"lat":"37.368056763","long":"126.81135343","imageIndex":16,"items":[{"name":"남선음악학원","tel":"031-435-1135","addr":"경기도 시흥시 능곡동 755번지 호평프라자 503호","indutype":"교육서비스업 - 음악학원","category":"study"},{"name":"비발디음악학원","tel":"031-317-2323","addr":"경기도 시흥시 능곡동 755번지 호평프라자 304호","indutype":"교육서비스업 - 음악학원","category":"study"},{"name":"유케이학원","tel":"031-435-5111","addr":"경기도 시흥시 능곡동 755번지 호평프라자 404호","indutype":"교육서비스업 - 학원","category":"study"}]},{"lat":"37.36949599","long":"126.80988218","imageIndex":16,"items":[{"name":"능곡대치프라임학원","tel":"031-313-0979","addr":"경기도 시흥시 능곡동 719번지 501~502호","indutype":"교육서비스업 - 교습학원","category":"study"}]},{"lat":"37.369307956","long":"126.81060516","imageIndex":16,"items":[{"name":"보나음악교습소","tel":"031-318-4865","addr":"경기도 시흥시 능곡동 733번지 능곡프라자 404호","indutype":"교육서비스업 - 음악학원","category":"study"},{"name":"위너스 태권도장","tel":"031-404-1311","addr":"경기도 시흥시 능곡동 733번지 능곡프라자 603호","indutype":"교육서비스업 - 태권도학원","category":"study"}]},{"lat":"37.368273772","long":"126.81182701","imageIndex":16,"items":[{"name":"영재바둑학원","tel":"031-435-1050","addr":"경기도 시흥시 능곡동 750번지 다우빌딩 504호","indutype":"교육서비스업 - 바둑학원","category":"study"}]},{"lat":"37.364747381","long":"126.80971372","imageIndex":16,"items":[{"name":"오렌지음악학원","tel":"031-404-2003","addr":"경기도 시흥시 능곡동 782번지 시흥능곡신안인스빌아파트 201~2호","indutype":"교육서비스업 - 음악학원","category":"study"}]},{"lat":"37.368806531","long":"126.81254816","imageIndex":16,"items":[{"name":"익힘 수학학원","tel":"031-317-5544","addr":"경기도 시흥시 능곡동 758번지 현대프라자 3층 302호","indutype":"교육서비스업 - 수학학원","category":"study"},{"name":"필아트능곡미술학원","tel":"031-317-4950","addr":"경기도 시흥시 능곡동 758번지 현대프라자 301호","indutype":"교육서비스업 - 미술학원","category":"study"}]},{"lat":"37.368947552","long":"126.81060608","imageIndex":17,"items":[{"name":"e-슈포토","tel":"031-318-2906","addr":"경기도 시흥시 능곡동 741번지","indutype":"개인서비스업 - 사진","category":"other"},{"name":"길성유통","tel":"","addr":"경기도 시흥시 능곡동 741번지","indutype":"소매업 - 아동복","category":"other"},{"name":"리코코","tel":"","addr":"경기도 시흥시 능곡동 741번지","indutype":"소매업 - 의류","category":"other"},{"name":"삼촌인테리어","tel":"031-315-8588","addr":"경기도 시흥시 능곡동 741번지","indutype":"소매업 - 지물","category":"other"},{"name":"안경매니저","tel":"031-318-6797","addr":"경기도 시흥시 능곡동 741번지","indutype":"소매업 - 안경","category":"other"}]},{"lat":"37.369198252","long":"126.80963458","imageIndex":17,"items":[{"name":"㈜디아이","tel":"070-4693-0330","addr":"경기도 시흥시 능곡동 727번지 서일프라자 501호","indutype":"제조업 - 도소매,제조","category":"other"}]},{"lat":"37.368363325","long":"126.81148812","imageIndex":17,"items":[{"name":"가브리엘 캐롬클럽","tel":"070-8878-7500","addr":"경기도 시흥시 능곡동 751번지 성광프라자 501호","indutype":"개인서비스업 - 스포츠","category":"other"},{"name":"명품노래연습장","tel":"031-318-4174","addr":"경기도 시흥시 능곡동 751번지 401-2호","indutype":"스포츠및여가관련서비스업 - 노래연습장","category":"other"},{"name":"샹떼PC방 시흥능곡점","tel":"","addr":"경기도 시흥시 능곡동 751번지 성광프라자 3층 301-303호","indutype":"개인서비스업 - PC방","category":"other"}]},{"lat":"37.36949599","long":"126.80988218","imageIndex":17,"items":[{"name":"국검검도관","tel":"031-404-4540","addr":"경기도 시흥시 능곡동 719번지 능곡타운 8층 802호","indutype":"교육서비스업 - 검도","category":"other"},{"name":"다영 공인중개사 사무소","tel":"031-318-3322","addr":"경기도 시흥시 능곡동 719번지 능곡타운 114호","indutype":"개인서비스업 - 부동산중개업","category":"other"},{"name":"블랙홀스크린골프","tel":"031-316-0056","addr":"경기도 시흥시 능곡동 719번지 능곡타운 601호","indutype":"스포츠및여가관련서비스업 - 골프연습장","category":"other"}]},{"lat":"37.368056763","long":"126.81135343","imageIndex":17,"items":[{"name":"글라스박스안경원","tel":"031-405-5555","addr":"경기도 시흥시 능곡동 755번지 호평프라자 105~106호","indutype":"소매업 - 안경","category":"other"},{"name":"수라궁반찬","tel":"","addr":"경기도 시흥시 능곡동 755번지 호평프라자 107호","indutype":"제조업 - 반찬","category":"other"},{"name":"열정태권도장","tel":"031-435-0788","addr":"경기도 시흥시 능곡동 755번지 호평프라자 501,502호","indutype":"교육서비스업 - 태권도","category":"other"}]},{"lat":"37.36797622","long":"126.8116923","imageIndex":17,"items":[{"name":"나라찬태권도","tel":"031-311-5755","addr":"경기도 시흥시 능곡동 756번지 603,604호","indutype":"교육서비스업 - 태권도","category":"other"},{"name":"비타민 청과야채","tel":"031-435-1422","addr":"경기도 시흥시 능곡동 756번지 미래도프라자 106호","indutype":"소매업 - 과실","category":"other"},{"name":"크린토피아 시흥능곡점","tel":"031-315-2020","addr":"경기도 시흥시 능곡동 756번지 미래도프라자 106-2호","indutype":"개인서비스업 - 세탁업","category":"other"},{"name":"하나농산물","tel":"031-404-1122","addr":"경기도 시흥시 능곡동 756번지 미래도프라자 108호","indutype":"소매업 - 농산물","category":"other"},{"name":"휴먼문구플러스","tel":"031-311-8386","addr":"경기도 시흥시 능곡동 756번지 미래도프라자 102호","indutype":"소매업 - 문구","category":"other"}]},{"lat":"37.368307377","long":"126.81032549","imageIndex":17,"items":[{"name":"놀숲 시흥장현 가온신도시점","tel":"031-404-2112","addr":"경기도 시흥시 능곡동 752번지 효창프라자 203호","indutype":"개인서비스업 - 도서대여","category":"other"},{"name":"능곡늘푸른정형외과","tel":"031-317-7252","addr":"경기도 시흥시 능곡동 752번지 효창프라자 303호","indutype":"보건업 - 정형외과","category":"other"},{"name":"비와이씨(BYC)","tel":"031-404-4928","addr":"경기도 시흥시 능곡동 752번지 효창프라자 105호","indutype":"소매업 - 속옷","category":"other"},{"name":"온스타일다운마켓(Tworld)","tel":"031-317-6660","addr":"경기도 시흥시 능곡동 752번지 효창프라자 106~107호","indutype":"소매업 - 통신기기,잡화,액세서리","category":"other"},{"name":"자라는소아청년과의원","tel":"031-315-1272","addr":"경기도 시흥시 능곡동 752번지 효창프라자 302호","indutype":"보건업 - 소아과","category":"other"},{"name":"홍성한우축산물직판장","tel":"031-318-7284","addr":"경기도 시흥시 능곡동 752번지","indutype":"소매업 - 식육","category":"other"}]},{"lat":"37.369137845","long":"126.81127165","imageIndex":17,"items":[{"name":"농수산물직거래장","tel":"","addr":"경기도 시흥시 능곡동 735번지 능곡동정우빌딩 102호","indutype":"소매업 - 야채","category":"other"},{"name":"다희네반찬","tel":"031-318-8787","addr":"경기도 시흥시 능곡동 735번지 정우빌딩 1층 103호","indutype":"소매업 - 반찬","category":"other"},{"name":"매니아당구장","tel":"031-317-3301","addr":"경기도 시흥시 능곡동 735번지 4층","indutype":"스포츠및여가관련서비스업 - 당구장","category":"other"},{"name":"방아쟁이떡집","tel":"031-492-9237","addr":"경기도 시흥시 능곡동 735번지 정우빌딩","indutype":"제조업 - 떡류","category":"other"}]},{"lat":"37.362915655","long":"126.81363542","imageIndex":17,"items":[{"name":"농업회사법인 시흥표고 주식회사","tel":"031-319-0105","addr":"경기도 시흥시 능곡동 414-3번지","indutype":"소매업 - 작물재배,버섯재배","category":"other"},{"name":"협동조합 시흥효도회","tel":"070-4126-0145","addr":"경기도 시흥시 능곡동 414-3번지","indutype":"소매업 - 곤충사육,체험,가공판매","category":"other"}]},{"lat":"37.368273772","long":"126.81182701","imageIndex":17,"items":[{"name":"능곡동주민자치위원회","tel":"070-4266-4735","addr":"경기도 시흥시 능곡동 750번지","indutype":"기타 - 주민자치위원회","category":"other"}]},{"lat":"37.369307956","long":"126.81060516","imageIndex":17,"items":[{"name":"능곡지앤비어학원","tel":"031-404-4320","addr":"경기도 시흥시 능곡동 733번지 능곡프라자 401~402호","indutype":"교육서비스업 - 영어, 보습","category":"other"},{"name":"보석명가","tel":"031-402-1001","addr":"경기도 시흥시 능곡동 733번지 능곡프라자 107호","indutype":"소매업 - 귀금속,시계","category":"other"},{"name":"안경나라 능곡점","tel":"031-317-1300","addr":"경기도 시흥시 능곡동 733번지 능곡프라자 105호","indutype":"소매업 - 안경","category":"other"},{"name":"큐티펫","tel":"031-318-4789","addr":"경기도 시흥시 능곡동 733번지 능곡프라자 108~9호","indutype":"소매업 - 애완용품","category":"other"}]},{"lat":"37.367913988","long":"126.81221175","imageIndex":17,"items":[{"name":"능곡청과","tel":"031-312-5556","addr":"경기도 시흥시 능곡동 762번지 센타프라자 101호","indutype":"소매업 - 청과","category":"other"},{"name":"러블리모모","tel":"070-8886-9584","addr":"경기도 시흥시 능곡동 762번지","indutype":"소매업 - 아동복","category":"other"},{"name":"명품한우도매센타","tel":"031-318-8278","addr":"경기도 시흥시 능곡동 762번지","indutype":"소매업 - 식육판매업","category":"other"}]},{"lat":"37.370695324","long":"126.81048873","imageIndex":17,"items":[{"name":"능곡형제축산","tel":"031-404-3553","addr":"경기도 시흥시 능곡동 542번지 104호","indutype":"소매업 - 식육","category":"other"},{"name":"또바기세탁명가","tel":"031-318-3396","addr":"경기도 시흥시 능곡동 542번지 101호","indutype":"개인서비스업 - 세탁소","category":"other"}]},{"lat":"37.37150252","long":"126.8137719","imageIndex":17,"items":[{"name":"보쉬카 능곡점","tel":"031-404-1233","addr":"경기도 시흥시 능곡동 561번지","indutype":"개인서비스업 - 카센터","category":"other"}]},{"lat":"37.368551219","long":"126.81067483","imageIndex":17,"items":[{"name":"샵노래연습장","tel":"031-317-2210","addr":"경기도 시흥시 능곡동 744번지 4층 402,403호","indutype":"스포츠및여가관련서비스업 - 노래연습장","category":"other"},{"name":"엔플라워","tel":"031-404-8595","addr":"경기도 시흥시 능곡동 744번지 월드프라자 109호","indutype":"소매업 - 관엽. 꽃","category":"other"}]},{"lat":"37.369218387","long":"126.81093278","imageIndex":17,"items":[{"name":"서협문고","tel":"031-316-8230","addr":"경기도 시흥시 능곡동 734번지 201호","indutype":"소매업 - 서적","category":"other"}]},{"lat":"37.368696935","long":"126.81163403","imageIndex":17,"items":[{"name":"스크린골프존","tel":"031-317-8597","addr":"경기도 시흥시 능곡동 747번지","indutype":"개인서비스업 - 스크린골프","category":"other"},{"name":"첼로노래연습장","tel":"","addr":"경기도 시흥시 능곡동 747번지 4층 401호,402호","indutype":"스포츠및여가관련서비스업 - 노래연습장","category":"other"}]},{"lat":"37.368474445","long":"126.81335052","imageIndex":17,"items":[{"name":"시흥시노인종합복지관","tel":"031-404-3100","addr":"경기도 시흥시 능곡동 765번지","indutype":"기타 - 복지관","category":"other"}]},{"lat":"37.363611914","long":"126.81519145","imageIndex":17,"items":[{"name":"아로마세탁","tel":"031-318-8188","addr":"경기도 시흥시 능곡동 802번지 우남퍼스트빌","indutype":"개인서비스업 - 세탁업","category":"other"}]},{"lat":"37.369144653","long":"126.80991694","imageIndex":17,"items":[{"name":"아이기스 시흥주짓수","tel":"031-404-0487","addr":"경기도 시흥시 능곡동 728번지 건아빌딩 601호","indutype":"교육서비스업 - 주짓수,합기도","category":"other"}]},{"lat":"37.368495282","long":"126.80952349","imageIndex":17,"items":[{"name":"아토키즈카페","tel":"070-8623-3747","addr":"경기도 시흥시 능곡동 724번지 5층","indutype":"개인서비스업 - 실내놀이터, 키즈카페","category":"other"},{"name":"올리브","tel":"","addr":"경기도 시흥시 능곡동 724번지 101호","indutype":"소매업 - 의류","category":"other"}]},{"lat":"37.368806531","long":"126.81254816","imageIndex":17,"items":[{"name":"안프로 골프 아카데미","tel":"031-313-9863","addr":"경기도 시흥시 능곡동 758번지 현대프라자 402~404호","indutype":"스포츠및여가관련서비스업 - 골프연습장","category":"other"},{"name":"푸르미약국","tel":"031-315-5880","addr":"경기도 시흥시 능곡동 758번지 현대프라자 110호","indutype":"보건업 - 의약품, 의료기","category":"other"}]},{"lat":"37.370054837","long":"126.81001622","imageIndex":17,"items":[{"name":"알파 (시흥장현점)","tel":"031-317-1478","addr":"경기도 시흥시 능곡동 515번지 101호","indutype":"소매업 - 문구, 잡화","category":"other"}]},{"lat":"37.362441871","long":"126.81599582","imageIndex":17,"items":[{"name":"어!진짜한우네","tel":"031-318-1928","addr":"경기도 시흥시 능곡동 831번지","indutype":"소매업 - 정육점","category":"other"}]},{"lat":"37.36605259","long":"126.81451934","imageIndex":17,"items":[{"name":"엘드세탁소","tel":"","addr":"경기도 시흥시 능곡동 789번지","indutype":"소매업 - 세탁업","category":"other"}]},{"lat":"37.36691942","long":"126.81008069","imageIndex":17,"items":[{"name":"은혜세탁","tel":"031-404-9355","addr":"경기도 시흥시 능곡동 772번지 휴먼시아 상가 103호","indutype":"개인서비스업 - 세탁소","category":"other"},{"name":"한솔플러스수학 능곡교습소","tel":"031-404-9042","addr":"경기도 시흥시 능곡동 772번지 능곡7단지 상가 203호","indutype":"교육서비스업 - 교습소","category":"other"}]},{"lat":"37.370198094","long":"126.80946267","imageIndex":17,"items":[{"name":"찡바이크","tel":"031-404-3055","addr":"경기도 시흥시 능곡동 511번지","indutype":"스포츠및여가관련서비스업 - 자전거","category":"other"}]},{"lat":"37.370001236","long":"126.81029858","imageIndex":17,"items":[{"name":"청자네이불가게","tel":"","addr":"경기도 시흥시 능곡동 517번지","indutype":"소매업 - 이불","category":"other"}]},{"lat":"37.368607363","long":"126.81196163","imageIndex":17,"items":[{"name":"쿨노래연습장","tel":"031-313-9033","addr":"경기도 시흥시 능곡동 748번지 201~202호","indutype":"개인서비스업 - 노래연습장","category":"other"}]},{"lat":"37.367025492","long":"126.80882736","imageIndex":17,"items":[{"name":"크린토피아 휴먼시아6","tel":"031-404-7702","addr":"경기도 시흥시 능곡동 768번지 휴먼시아 상가 102호","indutype":"소매업 - 세탁업","category":"other"}]},{"lat":"37.370857561","long":"126.81052218","imageIndex":17,"items":[{"name":"피부이야기","tel":"","addr":"경기도 시흥시 능곡동 541번지 104호","indutype":"소매업 - 화장품","category":"other"}]},{"lat":"37.364747381","long":"126.80971372","imageIndex":17,"items":[{"name":"해법영어교실","tel":"031-317-5109","addr":"경기도 시흥시 능곡동 782번지 시흥능곡신안인스빌아파트 2층 203~4호","indutype":"교육서비스업 - 교습소","category":"other"}]},{"lat":"37.37044449","long":"126.81138122","imageIndex":17,"items":[{"name":"혜윰과수원","tel":"","addr":"경기도 시흥시 능곡동 554번지 시흥능곡자연앤아파트","indutype":"교육서비스업 - 과외교습소","category":"other"}]},{"lat":"37.368191054","long":"126.8108225","imageIndex":17,"items":[{"name":"황금시루","tel":"031-317-1118","addr":"경기도 시흥시 능곡동 753번지 신성프라자 103호","indutype":"소매업 - 떡류","category":"other"}]},{"lat":"37.368495282","long":"126.80952349","imageIndex":7,"items":[{"name":"㈜베스트마트","tel":"031-315-0000","addr":"경기도 시흥시 능곡동 724번지 1층","indutype":"소매업 - 슈퍼마켓","category":"mart"}]},{"lat":"37.36797622","long":"126.8116923","imageIndex":7,"items":[{"name":"경기두레생협 능곡점","tel":"031-316-0071","addr":"경기도 시흥시 능곡동 756번지 미래도프라자 105호","indutype":"소매업 - 슈퍼마켓","category":"mart"}]},{"lat":"37.364747381","long":"126.80971372","imageIndex":7,"items":[{"name":"신안플러스마트","tel":"031-312-4959","addr":"경기도 시흥시 능곡동 782번지 시흥능곡신안인스빌아파트 상가내 102호","indutype":"소매업 - 슈퍼마켓","category":"mart"}]},{"lat":"37.366500694","long":"126.81301682","imageIndex":7,"items":[{"name":"주공마트","tel":"","addr":"경기도 시흥시 능곡동 787번지 휴먼시아9단지 상가 103호","indutype":"소매업 - 슈퍼마켓","category":"mart"}]},{"lat":"37.37024829","long":"126.81263483","imageIndex":7,"items":[{"name":"주공마트","tel":"031-318-1005","addr":"경기도 시흥시 능곡동 557번지 휴먼시아5단지 상가 102호","indutype":"소매업 - 슈퍼마켓","category":"mart"}]},{"lat":"37.371919757","long":"126.80990984","imageIndex":7,"items":[{"name":"코사마트 능곡점","tel":"031-311-2221","addr":"경기도 시흥시 능곡동 502번지","indutype":"소매업 - 슈퍼마켓","category":"mart"}]},{"lat":"37.368251644","long":"126.81488638","imageIndex":0,"items":[{"name":"㈜영진상사","tel":"031-485-2546","addr":"경기도 시흥시 능곡동 622번지","indutype":"소매업 - 자동차용품&부품","category":"car"}]},{"lat":"37.362441871","long":"126.81599582","imageIndex":0,"items":[{"name":"그린모터스","tel":"031-501-8855","addr":"경기도 시흥시 능곡동 831번지","indutype":"개인서비스업 - 자동차부분정비","category":"car"}]},{"lat":"37.371277268","long":"126.81377247","imageIndex":0,"items":[{"name":"더원진","tel":"031-315-9350","addr":"경기도 시흥시 능곡동 561-1번지","indutype":"개인서비스업 - 자동차 정비","category":"car"}]},{"lat":"37.375526246","long":"126.81141347","imageIndex":0,"items":[{"name":"반석(프로미카월드시흥능곡점)","tel":"031-371-5533","addr":"경기도 시흥시 능곡동 474번지","indutype":"개인서비스업 - 자동차정비","category":"car"}]},{"lat":"37.36949599","long":"126.80988218","imageIndex":0,"items":[{"name":"스피드메이트","tel":"031-435-5738","addr":"경기도 시흥시 능곡동 719번지 능곡타운 102동 103호","indutype":"기타 - 자동차 부분 정비","category":"car"}]},{"lat":"37.370358149","long":"126.81371833","imageIndex":0,"items":[{"name":"현대자동차","tel":"031-316-1190","addr":"경기도 시흥시 능곡동 611번지","indutype":"개인서비스업 - 자동차정비","category":"car"}]},{"lat":"37.369137845","long":"126.81127165","imageIndex":7,"items":[{"name":"굿 아이스크림","tel":"","addr":"경기도 시흥시 능곡동 735번지 정우빌딩 1층 104호","indutype":"소매업 - 식품","category":"food"}]},{"lat":"37.368806531","long":"126.81254816","imageIndex":7,"items":[{"name":"대박점핑다이어트","tel":"","addr":"경기도 시흥시 능곡동 758번지 현대프라자 310호","indutype":"소매업 - 건강기능식품","category":"food"}]},{"lat":"37.368947552","long":"126.81060608","imageIndex":7,"items":[{"name":"땅스부대찌개","tel":"","addr":"경기도 시흥시 능곡동 741번지 태영프라자 107호","indutype":"소매업 - 즉석조리식품","category":"food"}]},{"lat":"37.36949599","long":"126.80988218","imageIndex":7,"items":[{"name":"우리반찬","tel":"031-313-5233","addr":"경기도 시흥시 능곡동 719번지 능곡타운 112호","indutype":"소매업 - 식품","category":"food"},{"name":"정관장 능곡점","tel":"031-317-2305","addr":"경기도 시흥시 능곡동 719번지 능곡타운 106호","indutype":"소매업 - 건강식품","category":"food"}]},{"lat":"37.363611914","long":"126.81519145","imageIndex":7,"items":[{"name":"지금은허브시대","tel":"","addr":"경기도 시흥시 능곡동 802번지 우남퍼스트빌 101호 일부","indutype":"소매업 - 건강식품","category":"food"}]},{"lat":"37.367913988","long":"126.81221175","imageIndex":8,"items":[{"name":"굿모닝온누리약국","tel":"031-317-7571","addr":"경기도 시흥시 능곡동 762번지 102~103호","indutype":"보건업 - 약국","category":"medical"}]},{"lat":"37.368056763","long":"126.81135343","imageIndex":8,"items":[{"name":"능곡경희한의원","tel":"031-486-7474","addr":"경기도 시흥시 능곡동 755번지 효평프라자 401,402호","indutype":"보건업 - 한의원","category":"medical"}]},{"lat":"37.368307377","long":"126.81032549","imageIndex":8,"items":[{"name":"능곡프라자약국","tel":"031-317-8101","addr":"경기도 시흥시 능곡동 752번지 효창프라자 109호","indutype":"보건업 - 약국","category":"medical"}]},{"lat":"37.36949599","long":"126.80988218","imageIndex":8,"items":[{"name":"성심한의원","tel":"031-316-1212","addr":"경기도 시흥시 능곡동 719번지 능곡타운 301~3호","indutype":"보건업 - 한의원","category":"medical"}]}]