[{"lat":"37.296959231","long":"127.00006239","items":[{"name":"(사)한국미술협회수원지부","tel":"031-243-3647","addr":"경기도 수원시 장안구 송죽동 409-2번지 수원미술전시관","category":"문화.취미 - 문화취미기타"},{"name":"문헌화방","tel":"031-255-3342","addr":"경기도 수원시 장안구 송죽동 409-2번지 (417-24번지외5필지)","category":"서적문구 - 문구용품"}]},{"lat":"37.298292733","long":"127.0062317","items":[{"name":"(신)창현유리","tel":"031-243-2705","addr":"경기도 수원시 장안구 송죽동 379-10","category":"건축자재 - 유리"},{"name":"선명전자","tel":"031-242-4317","addr":"경기도 수원시 장안구 송죽동 379-10번지","category":"전기제품 - 냉열기기"}]},{"lat":"37.304428749","long":"127.00367153","items":[{"name":"(주)가온마루","tel":"031-256-7033","addr":"경기도 수원시 장안구 송죽동 452번지","category":"레져용품 - 스포츠·레져용품"},{"name":"레드PC","tel":"070-3103-1722","addr":"경기도 수원시 장안구 송죽동 452번지 2층","category":"레저업소 - 기타레져업소"},{"name":"텐스크린골프","tel":"031-244-8844","addr":"경기도 수원시 장안구 송죽동 452번지 3층 303호,304호","category":"회원제형태 - 레져업소"},{"name":"하늘빛가정의학과의원","tel":"031-251-5333","addr":"경기도 수원시 장안구 송죽동 452번지 201호","category":"의원 - 의원"}]},{"lat":"37.296013114","long":"127.00708874","items":[{"name":"(주)다정플러스 경기지사","tel":"031-269-7426","addr":"경기도 수원시 장안구 송죽동 514번지 수원로얄팰리스 상가동 113호","category":"유통업 영리 - 기타유통업"},{"name":"3.8포차","tel":"070-4047-8870","addr":"경기도 수원시 장안구 송죽동 514번지 수원로얄팰리스 상가동 129호","category":"일반휴게음식 - 일반한식"},{"name":"PGA 골프아카데미","tel":"031-251-5170","addr":"경기도 수원시 장안구 송죽동 514번지 수원로얄팰리스 상가동 139호","category":"회원제형태 - 레져업소"},{"name":"가시족보","tel":"031-214-4320","addr":"경기도 수원시 장안구 송죽동 514번지 수원로얄팰리스 105,106호","category":"일반휴게음식 - 일반한식"},{"name":"네일비#","tel":"031-248-7757","addr":"경기도 수원시 장안구 송죽동 514번지 수원로얄팰리스 상가동 112호","category":"보건위생 - 피부미용실"},{"name":"놀부(장안점)","tel":"031-255-5700","addr":"경기도 수원시 장안구 송죽동 514번지 수원로얄팰리스 1층 103호","category":"일반휴게음식 - 일반한식"},{"name":"달보레(DALBORE)","tel":"070-8884-9070","addr":"경기도 수원시 장안구 송죽동 514번지 수원로얄팰리스 상가 118호","category":"보건위생 - 화장품"},{"name":"달보레(DALBORE)","tel":"070-8884-9070","addr":"경기도 수원시 장안구 송죽동 514번지 수원로얄팰리스 상가동 1층 118호","category":"보건위생 - 화장품"},{"name":"라인포인트","tel":"031-234-5404","addr":"경기도 수원시 장안구 송죽동 514번지 로얄팰리스1 6동 1203호","category":"기타 - 기타 전문점"},{"name":"로얄명품세탁소","tel":"031-888-7009","addr":"경기도 수원시 장안구 송죽동 514번지 로얄팰리스 상가 126호","category":"수리서비스 - 세탁소"},{"name":"로얄팰리스음악교습소","tel":"031-888-7117","addr":"경기도 수원시 장안구 송죽동 514번지 수원로얄팰리스 상가동 102호","category":"학원 - 예·체능계학원"},{"name":"루디아엠 (Ludia M)","tel":"","addr":"경기도 수원시 장안구 송죽동 514번지 수원로얄팰리스 상가동 108-1호","category":"보건위생 - 미용원"},{"name":"바디 점핑 다이어트","tel":"070-8780-2150","addr":"경기도 수원시 장안구 송죽동 514번지 수원로얄팰리스 상가동 1층 116호","category":"건강식품 - 기타건강식품"},{"name":"봉쥬르","tel":"031-213-9922","addr":"경기도 수원시 장안구 송죽동 514번지 수원로얄팰리스 상가동 131호","category":"의류 - 정장"},{"name":"브라스나라(BRASSNARA)","tel":"031-443-8685","addr":"경기도 수원시 장안구 송죽동 514번지 수원로얄팰리스1603호~1603호 104동 1603호","category":"회원제형태 - 기타4"},{"name":"순애네칼국수김밥","tel":"031-302-0525","addr":"경기도 수원시 장안구 송죽동 514번지 수원로얄팰리스 상가동 1층 131호","category":"일반휴게음식 - 일반한식"},{"name":"스마트덴탈","tel":"031-935-0618","addr":"경기도 수원시 장안구 송죽동 514번지 수원로얄팰리스 상가 124호","category":"보건위생 - 의료용품"},{"name":"알비스포츠","tel":"070-8817-5177","addr":"경기도 수원시 장안구 송죽동 514번지 수원로얄팰리스 132호","category":"레져용품 - 스포츠·레져용품"},{"name":"이해법수학로얄팰리스교습소","tel":"031-245-3847","addr":"경기도 수원시 장안구 송죽동 514번지 수원로얄팰리스 101호","category":"회원제형태 - 학원"},{"name":"카페제이콥(Cafe Jacob)","tel":"031-000-0000","addr":"경기도 수원시 장안구 송죽동 514번지 수원로얄팰리스 상가 117호","category":"일반휴게음식 - 서양음식"},{"name":"패션스타트NCC 수원송죽점","tel":"031-207-0966","addr":"경기도 수원시 장안구 송죽동 514번지 수원로얄팰리스 상가동 1층 107호","category":"의류 - 기타의류"},{"name":"한솔","tel":"070-4135-3389","addr":"경기도 수원시 장안구 송죽동 514번지 수원로얄팰리스 상가동 1층 129호","category":"사무통신 - 통신기기"},{"name":"핸즈커피 송죽점","tel":"031-213-3476","addr":"경기도 수원시 장안구 송죽동 514번지 수원로얄팰리스 133호","category":"일반휴게음식 - 서양음식"},{"name":"허브다이어트","tel":"070-8805-7040","addr":"경기도 수원시 장안구 송죽동 514번지 수원로얄팰리스 상가동 114호","category":"건강식품 - 기타건강식품"},{"name":"헤어갤러리","tel":"070-8868-4365","addr":"경기도 수원시 장안구 송죽동 514번지 수원로얄팰리스 130호","category":"보건위생 - 미용원"}]},{"lat":"37.29629241","long":"127.00767522","items":[{"name":"(주)대호씨스템","tel":"031-247-8080","addr":"경기도 수원시 장안구 송죽동 389-8번지 3층","category":"의류 - 단체복"},{"name":"이엘(E.L)","tel":"031-242-1222","addr":"경기도 수원시 장안구 송죽동 389-8번지 201호","category":"문화.취미 - 애완동물"},{"name":"일신케어","tel":"031-247-9337","addr":"경기도 수원시 장안구 송죽동 389-8번지 302 3층","category":"보건위생 - 의료용품"},{"name":"장안마음수련회","tel":"031-258-9952","addr":"경기도 수원시 장안구 송죽동 389-8번지","category":"레저업소 - 기타레져업소"},{"name":"카페머그","tel":"031-111-1111","addr":"경기도 수원시 장안구 송죽동 389-8번지","category":"일반휴게음식 - 서양음식"}]},{"lat":"37.306176715","long":"127.00064859","items":[{"name":"(주)더케이푸드컴퍼니","tel":"031-252-4700","addr":"경기도 수원시 장안구 송죽동 440-3번지","category":"일반휴게음식 - 일반한식"},{"name":"송풍가든","tel":"031-252-4700","addr":"경기도 수원시 장안구 송죽동 440-3번지","category":"일반휴게음식 - 일반한식"}]},{"lat":"37.295706711","long":"127.00841954","items":[{"name":"(주)송상유통","tel":"031-241-2384","addr":"경기도 수원시 장안구 송죽동 389-42번지 43,58,59","category":"유통업 영리 - 슈퍼마켓"},{"name":"빈대떡과찜","tel":"031-242-7271","addr":"경기도 수원시 장안구 송죽동 389-42번지","category":"일반휴게음식 - 일반한식"}]},{"lat":"37.303761979","long":"127.0009532","items":[{"name":"(주)씨에이치","tel":"031-248-6751","addr":"경기도 수원시 장안구 송죽동 447-13번지","category":"건축자재 - 인테리어전문"},{"name":"447스트리트 (st)","tel":"031-306-1901","addr":"경기도 수원시 장안구 송죽동 447-13번지 1층","category":"의류 - 정장"}]},{"lat":"37.298626111","long":"127.00627682","items":[{"name":"(주)에버리지클럽","tel":"","addr":"경기도 수원시 장안구 송죽동 379-1번지 송죽빌딩 4층","category":"음료식품 - 기타음료식품"},{"name":"GS25송죽중앙점","tel":"","addr":"경기도 수원시 장안구 송죽동 379-1번지","category":"유통업 영리 - 편 의 점"},{"name":"다선의원","tel":"031-485-0600","addr":"경기도 수원시 장안구 송죽동 379-1번지 송죽빌딩 2층","category":"의원 - 의원"},{"name":"메디팜청화약국","tel":"031-246-4161","addr":"경기도 수원시 장안구 송죽동 379-1번지","category":"약국 - 약국"},{"name":"명품화장품","tel":"","addr":"경기도 수원시 장안구 송죽동 379-1번지 송죽빌딩 지하1층","category":"보건위생 - 화장품"},{"name":"씨비엔주식회사","tel":"031-253-5380","addr":"경기도 수원시 장안구 송죽동 379-1번지 송죽빌딩 402호","category":"건강식품 - 기타건강식품"},{"name":"우진광고","tel":"031-246-7353","addr":"경기도 수원시 장안구 송죽동 379-1번지 1층","category":"용역 서비스 - 종합용역"},{"name":"주식회사행복나라","tel":"031-252-7729","addr":"경기도 수원시 장안구 송죽동 379-1번지 송죽빌딩 3층","category":"기타의료기관 - 기타의료기관 및 기타"}]},{"lat":"37.30895188","long":"127.00414534","items":[{"name":"(주)조은","tel":"031-255-6400","addr":"경기도 수원시 장안구 송죽동 59번지","category":"보건위생 - 의료용품"},{"name":"Cafe An 카페안","tel":"031-000-0000","addr":"경기도 수원시 장안구 송죽동 59번지 2층","category":"일반휴게음식 - 서양음식"},{"name":"온더레벨","tel":"031-234-1700","addr":"경기도 수원시 장안구 송죽동 59번지 소소당 1층","category":"음료식품 - 제과점"}]},{"lat":"37.301842714","long":"127.00777708","items":[{"name":"(주)조이짐","tel":"02-461-4847","addr":"경기도 수원시 장안구 송죽동 499-3번지 동양파라곤 2층 205,208,209,210호","category":"레져용품 - 스포츠·레져용품"},{"name":"VELOSHOP","tel":"031-244-3479","addr":"경기도 수원시 장안구 송죽동 499-3번지 동양파라곤 117,118,119,120호","category":"레져용품 - 스포츠·레져용품"},{"name":"겨기","tel":"031-1111-1111","addr":"경기도 수원시 장안구 송죽동 499-3번지 동양파라곤 103호","category":"일반휴게음식 - 주점"},{"name":"그리다네일","tel":"","addr":"경기도 수원시 장안구 송죽동 499-3번지 동양파라곤 206호","category":"보건위생 - 피부미용실"},{"name":"단발머리","tel":"031-243-3325","addr":"경기도 수원시 장안구 송죽동 499-3번지 동양파라곤 109호","category":"보건위생 - 미용원"},{"name":"만찬족발보쌈","tel":"031-242-7578","addr":"경기도 수원시 장안구 송죽동 499-3번지 동양파라곤 1층 121호","category":"일반휴게음식 - 일반한식"},{"name":"법무사손종민사무소","tel":"031-204-4566","addr":"경기도 수원시 장안구 송죽동 499-3번지 동양파라곤 122호","category":"용역 서비스 - 법률회계서비스(개인)"},{"name":"봉추찜닭","tel":"031-254-6981","addr":"경기도 수원시 장안구 송죽동 499-3번지 동양파라곤 104호","category":"일반휴게음식 - 일반한식"},{"name":"신신고","tel":"070-4667-4328","addr":"경기도 수원시 장안구 송죽동 499-3번지 동양파라곤 108호","category":"신변잡화 - 신발"},{"name":"씨즈더데이","tel":"","addr":"경기도 수원시 장안구 송죽동 499-3번지 동양파라곤 110호","category":"의류 - 정장"},{"name":"에뛰드하우스 장안구청점","tel":"031-258-8867","addr":"경기도 수원시 장안구 송죽동 499-3번지 동양파라곤 1층 111호","category":"보건위생 - 화장품"},{"name":"오렌즈 북수원점","tel":"031-241-1112","addr":"경기도 수원시 장안구 송죽동 499-3번지 동양파라곤 108호","category":"보건위생 - 안경"},{"name":"짬뽕타임24시","tel":"031-251-9697","addr":"경기도 수원시 장안구 송죽동 499-3번지 동양파라곤 1층 107호","category":"일반휴게음식 - 중국식"},{"name":"콩새포차","tel":"031-252-7378","addr":"경기도 수원시 장안구 송죽동 499-3번지 동양파라곤 105호","category":"일반휴게음식 - 중국식"},{"name":"파라곤약국","tel":"031-8001-1383","addr":"경기도 수원시 장안구 송죽동 499-3번지 102동 102호 101","category":"약국 - 약국"},{"name":"효령한의원","tel":"031-257-7576","addr":"경기도 수원시 장안구 송죽동 499-3번지 동양파라곤 207호","category":"의원 - 한의원"}]},{"lat":"37.302788867","long":"127.00517165","items":[{"name":"(주)천지리무진","tel":"031-252-9595","addr":"경기도 수원시 장안구 송죽동 496-24번지 삼풍프라자빌라트 604호","category":"용역 서비스 - 가례서비스업"},{"name":"SK안경콘택트","tel":"031-247-8371","addr":"경기도 수원시 장안구 송죽동 496-24번지 삼풍프라자빌라트 1층 9호","category":"보건위생 - 안경"},{"name":"꿈자람 교육","tel":"031-269-7012","addr":"경기도 수원시 장안구 송죽동 496-24번지 삼풍프라자빌라트 2층 3호","category":"서적문구 - 일반서적"},{"name":"더율헤어","tel":"031-253-3578","addr":"경기도 수원시 장안구 송죽동 496-24번지 삼풍프라자빌라트 1층 7호","category":"보건위생 - 미용원"},{"name":"미래세무회계사무소","tel":"031-241-9310","addr":"경기도 수원시 장안구 송죽동 496-24번지 삼풍프라자빌라트 203호","category":"용역 서비스 - 법률회계서비스(개인)"},{"name":"빨강콩","tel":"031-248-5188","addr":"경기도 수원시 장안구 송죽동 496-24번지 삼풍프라자빌라트 3층 302호","category":"음료식품 - 제과점"},{"name":"삼풍노래연습장","tel":"031-243-3741","addr":"경기도 수원시 장안구 송죽동 496-24번지 삼풍프라자빌라트 2층 4호","category":"레저업소 - 노 래 방"},{"name":"심야스테이크","tel":"031-2531-8883","addr":"경기도 수원시 장안구 송죽동 496-24번지 삼풍프라자빌라트 1층 8호","category":"일반휴게음식 - 일반한식"},{"name":"야 헤어","tel":"031-253-2164","addr":"경기도 수원시 장안구 송죽동 496-24삼풍프라자1층7","category":"보건위생 - 미용원"},{"name":"엠케이팜스 수원장안점","tel":"031-245-9830","addr":"경기도 수원시 장안구 송죽동 496-24번지 삼풍프라자빌라트 1층 17호","category":"음료식품 - 정육점"},{"name":"주식회사위플","tel":"031-898-5380","addr":"경기도 수원시 장안구 송죽동 496-24번지 삼풍프라자빌라트 3층 2호","category":"회원제형태 - 기타4"},{"name":"주식회사인테라에이브이씨","tel":"031-255-6061","addr":"경기도 수원시 장안구 송죽동 496-24번지 삼풍프라자빌라트 202-1호","category":"전기제품 - 가전제품"},{"name":"천지인 리무진","tel":"031-252-9595","addr":"경기도 수원시 장안구 송죽동 496-24번지 삼풍프라자 604호","category":"용역 서비스 - 가례서비스업"},{"name":"한국서적종합유통","tel":"031-257-8811","addr":"경기도 수원시 장안구 송죽동 496-24번지","category":"서적문구 - 일반서적"}]},{"lat":"37.296535756","long":"127.00541958","items":[{"name":"(주)테라정보시스템","tel":"031-252-7272","addr":"경기도 수원시 장안구 송죽동 395-1번지 송죽프라자 211호","category":"사무통신 - 컴퓨터"},{"name":"선생태동태현","tel":"031-274-8114","addr":"경기도 수원시 장안구 송죽동 395-1번지 송죽프라자 102~104, 113~117호","category":"일반휴게음식 - 일반한식"},{"name":"송죽힐링사우나","tel":"031-243-1617","addr":"경기도 수원시 장안구 송죽동 395-1번지 송죽프라자 지하1층","category":"보건위생 - 사우나"},{"name":"수중환경다이브센터","tel":"031-245-2620","addr":"경기도 수원시 장안구 송죽동 395-1번지 송죽프라자 219호","category":"레져용품 - 스포츠·레져용품"},{"name":"엠케이텍","tel":"031-248-7535","addr":"경기도 수원시 장안구 송죽동 395-1번지 송죽프라자 215호","category":"기타 - 기계공구"},{"name":"이룸북스","tel":"031-269-4412","addr":"경기도 수원시 장안구 송죽동 395-1번지 송죽프라자 1202호","category":"서적문구 - 일반서적"},{"name":"인컴스","tel":"031-258-1422","addr":"경기도 수원시 장안구 송죽동 395-1 송죽프라자 503","category":"사무통신 - 컴퓨터"},{"name":"제이원(J1)","tel":"031-232-0888","addr":"경기도 수원시 장안구 송죽동 395-1번지 송죽프라자 1층 129호","category":"일반휴게음식 - 일반한식"},{"name":"컬러인뷰티","tel":"031-254-9010","addr":"경기도 수원시 장안구 송죽동 395-1번지 송죽프라자 204호","category":"보건위생 - 화장품"},{"name":"케어존","tel":"070-8771-8638","addr":"경기도 수원시 장안구 송죽동 395-1번지 송죽프라자 129호","category":"용역 서비스 - 종합용역"},{"name":"해미농수산","tel":"031-245-9245","addr":"경기도 수원시 장안구 송죽동 395-1번지 송죽프라자,125호 127동 125호","category":"음료식품 - 농·축·수산품"}]},{"lat":"37.303951208","long":"127.00353617","items":[{"name":"(주식회사)코텍","tel":"031-246-4917","addr":"경기도 수원시 장안구 송죽동 453-10번지 3층","category":"사무통신 - 통신기기"},{"name":"삼성학원교구","tel":"031-247-7845","addr":"경기도 수원시 장안구 송죽동 453-10번지","category":"가구 - 기타가구"}]},{"lat":"37.303509699","long":"127.00431444","items":[{"name":"1박2일노래연습장","tel":"031-246-1207","addr":"경기도 수원시 장안구 송죽동 496번지 2층","category":"레저업소 - 노 래 방"},{"name":"동갑식탁","tel":"070-8947-4490","addr":"경기도 수원시 장안구 송죽동 496번지 나동 1,2층","category":"일반휴게음식 - 서양음식"},{"name":"수원백가면32","tel":"","addr":"경기도 수원시 장안구 송죽동 496번지","category":"일반휴게음식 - 일반한식"},{"name":"연포민물메기탕","tel":"031-244-0289","addr":"경기도 수원시 장안구 송죽동 496번지 1층","category":"일반휴게음식 - 일반한식"},{"name":"자영약국","tel":"031-246-5194","addr":"경기도 수원시 장안구 송죽동 496번지","category":"약국 - 약국"},{"name":"쿡SOON","tel":"031-243-5100","addr":"경기도 수원시 장안구 송죽동 496번지 1층","category":"음료식품 - 기타음료식품"}]},{"lat":"37.303707923","long":"127.0044498","items":[{"name":"2080당구장","tel":"031-241-5024","addr":"경기도 수원시 장안구 송죽동 495-3번지 2층","category":"레저업소 - 당 구 장"},{"name":"김영신의원","tel":"031-298-7582","addr":"경기도 수원시 장안구 송죽동 495-3번지 2층","category":"의원 - 의원"},{"name":"수원불고기","tel":"031-296-9288","addr":"경기도 수원시 장안구 송죽동 495-3번지","category":"일반휴게음식 - 일반한식"}]},{"lat":"37.301734574","long":"127.00817184","items":[{"name":"345헤어살롱","tel":"031-241-0900","addr":"경기도 수원시 장안구 송죽동 499-5번지 2층","category":"보건위생 - 미용원"},{"name":"따봉","tel":"","addr":"경기도 수원시 장안구 송죽동 499-5번지 1층","category":"음료식품 - 농·축·수산품"},{"name":"미소야수원장안구청점","tel":"031-253-2089","addr":"경기도 수원시 장안구 송죽동 499-5번지 1층","category":"일반휴게음식 - 일반한식"},{"name":"아모르 퍼스널 트레이닝","tel":"","addr":"경기도 수원시 장안구 송죽동 499-5번지 4층","category":"레저업소 - 헬스클럽"},{"name":"알파문구(장안구청점)","tel":"031-252-0123","addr":"경기도 수원시 장안구 송죽동 499-5번지 대성빌딩 G동 지하층","category":"서적문구 - 문구용품"},{"name":"포삼팔북수원점","tel":"","addr":"경기도 수원시 장안구 송죽동 499-5번지 로얄안마시술소 1층 2호","category":"일반휴게음식 - 서양음식"}]},{"lat":"37.305924449","long":"127.00245334","items":[{"name":"3H 지압침대","tel":"031-258-3033","addr":"경기도 수원시 장안구 송죽동 216-1번지 3층 302호","category":"보건위생 - 의료용품"},{"name":"교촌치킨 (파장점)","tel":"031-245-9252","addr":"경기도 수원시 장안구 송죽동 216-1번지 1층 101호","category":"일반휴게음식 - 스넥"},{"name":"김밥나라콜","tel":"031-243-3510","addr":"경기도 수원시 장안구 송죽동 216-1번지","category":"일반휴게음식 - 스넥"},{"name":"라성피부관리","tel":"031-258-8621","addr":"경기도 수원시 장안구 송죽동 216-1번지 송죽VIP빌딩 2층","category":"회원제형태 - 기타4"},{"name":"몰리나","tel":"031-244-3070","addr":"경기도 수원시 장안구 송죽동 216-1번지","category":"의류 - 정장"},{"name":"세광실용음악학원","tel":"031-295-1160","addr":"경기도 수원시 장안구 송죽동 216-1번지 5층","category":"학원 - 예·체능계학원"},{"name":"세광악기사","tel":"031-244-2315","addr":"경기도 수원시 장안구 송죽동 216-1번지 5층","category":"레져용품 - 악기점"},{"name":"스타캐슬PC방","tel":"070-4641-5122","addr":"경기도 수원시 장안구 송죽동 216-1번지","category":"레저업소 - 기타레져업소"},{"name":"엘르","tel":"031-258-2121","addr":"경기도 수원시 장안구 송죽동 216-1번지 외1필지","category":"직물 - 침구·수예점"},{"name":"제이에스네트웍스","tel":"02-1544-4221","addr":"경기도 수원시 장안구 송죽동 216-1번지 2층","category":"사무통신 - 통신기기"},{"name":"코사마트","tel":"031-252-9857","addr":"경기도 수원시 장안구 송죽동 216-1번지","category":"유통업 영리 - 슈퍼마켓"},{"name":"헤베니케","tel":"070-8868-5482","addr":"경기도 수원시 장안구 송죽동 216-1번지 송죽VIP빌딩 3층 3호","category":"건강식품 - 기타건강식품"}]},{"lat":"37.314123632","long":"127.00825168","items":[{"name":"ABC GOLF 파인스포츠","tel":"031-248-5008","addr":"경기도 수원시 장안구 송죽동 8-1번지 파인스골프연습장내","category":"레져용품 - 스포츠·레져용품"},{"name":"골프FM","tel":"031-244-1872","addr":"경기도 수원시 장안구 송죽동 8-1번지 파인스골프연습장","category":"레져용품 - 스포츠·레져용품"},{"name":"렘","tel":"031-252-0070","addr":"경기도 수원시 장안구 송죽동 8-1번지 2층","category":"의류 - 기타의류"},{"name":"별스크린","tel":"","addr":"경기도 수원시 장안구 송죽동 8-1번지 지하1층","category":"레저업소 - 스크린골프"},{"name":"별스크린","tel":"031-242-1865","addr":"경기도 수원시 장안구 송죽동 8-1번지","category":"회원제형태 - 레져업소"},{"name":"쉼표","tel":"031-252-0711","addr":"경기도 수원시 장안구 송죽동 8-1번지","category":"일반휴게음식 - 일반한식"},{"name":"와이케이(YK)스포츠","tel":"031-000-0000","addr":"경기도 수원시 장안구 송죽동 8-1번지 1층 파인스골프연습장","category":"레져용품 - 스포츠·레져용품"}]},{"lat":"37.301482311","long":"127.00761915","items":[{"name":"CAFE''지그시","tel":"031-111-1112","addr":"경기도 수원시 장안구 송죽동 500-15번지","category":"일반휴게음식 - 서양음식"}]},{"lat":"37.301202978","long":"127.00798006","items":[{"name":"DPIace(디플레이스)","tel":"","addr":"경기도 수원시 장안구 송죽동 500-34번지 101호","category":"일반휴게음식 - 주점"},{"name":"GROUND (그라운드)","tel":"070-7862-1697","addr":"경기도 수원시 장안구 송죽동 500-34번지 1층 101-2호","category":"일반휴게음식 - 주점"},{"name":"껍데기클라쓰","tel":"","addr":"경기도 수원시 장안구 송죽동 500-34번지 102-1호","category":"일반휴게음식 - 일반한식"},{"name":"다미 쇼룸","tel":"02-1577-0000","addr":"경기도 수원시 장안구 송죽동 500-34번지 1층 101-1호","category":"의류 - 정장"},{"name":"메가당구클럽","tel":"031-258-3949","addr":"경기도 수원시 장안구 송죽동 500-34번지 2층","category":"레저업소 - 당 구 장"},{"name":"모닝마트","tel":"031-247-0301","addr":"경기도 수원시 장안구 송죽동 500-34번지 102호","category":"유통업 영리 - 슈퍼마켓"}]},{"lat":"37.296265357","long":"127.00819402","items":[{"name":"GS25수원운동장점","tel":"","addr":"경기도 수원시 장안구 송죽동 389-1번지","category":"유통업 영리 - 편 의 점"},{"name":"운동장","tel":"031-256-3379","addr":"경기도 수원시 장안구 송죽동 389-1번지 1층","category":"일반휴게음식 - 일반한식"}]},{"lat":"37.302013932","long":"127.00716802","items":[{"name":"GS25장안송죽점","tel":"","addr":"경기도 수원시 장안구 송죽동 499-1번지","category":"유통업 영리 - 편 의 점"},{"name":"데이데이카페(daydaycafe)","tel":"031-247-8828","addr":"경기도 수원시 장안구 송죽동 499-1번지 103호","category":"일반휴게음식 - 일반한식"},{"name":"세븐일레븐수원송죽시준점","tel":"","addr":"경기도 수원시 장안구 송죽동 499-1번지","category":"유통업 영리 - 편 의 점"},{"name":"스타노래연습장","tel":"031-000-0000","addr":"경기도 수원시 장안구 송죽동 499-1번지 지층","category":"레저업소 - 노 래 방"},{"name":"우연히호프포차","tel":"031-255-6634","addr":"경기도 수원시 장안구 송죽동 499-1번지 1층","category":"일반휴게음식 - 일반한식"}]},{"lat":"37.297265587","long":"127.00536321","items":[{"name":"J노래연습장","tel":"","addr":"경기도 수원시 장안구 송죽동 385-14번지","category":"레저업소 - 노 래 방"},{"name":"호식이두마리치킨송죽점","tel":"031-254-3999","addr":"경기도 수원시 장안구 송죽동 385-14번지","category":"일반휴게음식 - 일반한식"}]},{"lat":"37.298013423","long":"127.00597228","items":[{"name":"KCC DS상사","tel":"031-292-9229","addr":"경기도 수원시 장안구 송죽동 379-15번지 킹당구장 102호","category":"건축자재 - 페인트"},{"name":"생황토 쑥좌훈방","tel":"031-244-1190","addr":"경기도 수원시 장안구 송죽동 379-15번지 킹당구장 3층 302호","category":"회원제형태 - 기타4"},{"name":"잔치집","tel":"031-242-2239","addr":"경기도 수원시 장안구 송죽동 379-15번지 킹당구장 102호","category":"일반휴게음식 - 일반한식"}]},{"lat":"37.303734947","long":"127.00488969","items":[{"name":"MO 박포차","tel":"031-241-1275","addr":"경기도 수원시 장안구 송죽동 495-13번지 명성 2층 4호","category":"일반휴게음식 - 주점"},{"name":"OKMART편의점","tel":"031-245-0151","addr":"경기도 수원시 장안구 송죽동 495-13번지","category":"유통업 영리 - 슈퍼마켓"},{"name":"다감","tel":"031-111-1111","addr":"경기도 수원시 장안구 송죽동 495-13번지 명성빌딩 1층 4호","category":"일반휴게음식 - 일식·회집"},{"name":"방가방가노래연습장","tel":"031-242-1636","addr":"경기도 수원시 장안구 송죽동 495-13번지 303, 304호","category":"레저업소 - 노 래 방"},{"name":"아이큰숲아동발달센터","tel":"070-7420-7102","addr":"경기도 수원시 장안구 송죽동 495-13번지 명성 5층 503호","category":"보건위생 - 기타대인서비스"},{"name":"연세밝은아이치과의원","tel":"031-245-2897","addr":"경기도 수원시 장안구 송죽동 495-13번지 명성빌딩 5층 2호","category":"의원 - 치과의원"},{"name":"영자텔레콤","tel":"031-241-7273","addr":"경기도 수원시 장안구 송죽동 495-13번지","category":"사무통신 - 통신기기"},{"name":"탑클래스학원","tel":"031-256-6757","addr":"경기도 수원시 장안구 송죽동 495-13번지 명성빌딩 4층 1호","category":"학원 - 보습학원"},{"name":"토리헤어","tel":"031-253-7178","addr":"경기도 수원시 장안구 송죽동 495-13번지 명성 2층","category":"보건위생 - 미용원"},{"name":"펀픽스(Fun FIX)","tel":"","addr":"경기도 수원시 장안구 송죽동 495-13번지 1층","category":"수리서비스 - 사무·통신기기수리"},{"name":"해적PC방","tel":"","addr":"경기도 수원시 장안구 송죽동 495-13번지","category":"레저업소 - 기타레져업소"}]},{"lat":"37.30681646","long":"127.00375051","items":[{"name":"OK25","tel":"031-243-4773","addr":"경기도 수원시 장안구 송죽동 195번지 광교프라자 102호","category":"유통업 영리 - 편 의 점"},{"name":"달봉이네막창","tel":"031-245-4736","addr":"경기도 수원시 장안구 송죽동 195번지 광교프라자 103호","category":"일반휴게음식 - 일반한식"},{"name":"돈차이나","tel":"","addr":"경기도 수원시 장안구 송죽동 195번지 광교프라자 1층 104-1호","category":"일반휴게음식 - 스넥"},{"name":"드림수학학원","tel":"031-255-9493","addr":"경기도 수원시 장안구 송죽동 195번지 광교프라자 302호","category":"학원 - 보습학원"},{"name":"미사랑","tel":"031-254-4860","addr":"경기도 수원시 장안구 송죽동 195번지 광교프라자 2층 201호","category":"회원제형태 - 기타4"},{"name":"미헤어","tel":"031-256-8873","addr":"경기도 수원시 장안구 송죽동 195번지 광교프라자 105호","category":"보건위생 - 미용원"},{"name":"봉구스밥버거","tel":"031-245-2380","addr":"경기도 수원시 장안구 송죽동 195번지 광교프라자 1층 104-1호","category":"일반휴게음식 - 스넥"},{"name":"사계음악학원","tel":"070-5022-4846","addr":"경기도 수원시 장안구 송죽동 195번지 광교프라자 205호 206호","category":"학원 - 예·체능계학원"},{"name":"세스영어전문학원","tel":"031-246-8805","addr":"경기도 수원시 장안구 송죽동 195번지 광교프라자 7층 701호","category":"회원제형태 - 학원"},{"name":"아이비티토킹돔한일학원","tel":"031-243-5673","addr":"경기도 수원시 장안구 송죽동 195 광교프라자3층 302호","category":"학원 - 보습학원"},{"name":"케이에스엠피경호무술학교","tel":"031-248-6222","addr":"경기도 수원시 장안구 송죽동 195번지 광교프라자 6층","category":"회원제형태 - 학원"},{"name":"홍어무침점","tel":"031-291-2351","addr":"경기도 수원시 장안구 송죽동 195번지 광교프라자 1층 101호","category":"일반휴게음식 - 일반한식"}]},{"lat":"37.306789426","long":"127.00173143","items":[{"name":"SDK빔프로젝터 서비스","tel":"031-8061-8507","addr":"경기도 수원시 장안구 송죽동 183-5번지","category":"전기제품 - 가전제품"},{"name":"김성운양념갈비","tel":"031-891-4899","addr":"경기도 수원시 장안구 송죽동 183-5번지 1층","category":"일반휴게음식 - 일반한식"}]},{"lat":"37.303014103","long":"127.00606272","items":[{"name":"SD미디어","tel":"031-244-3171","addr":"경기도 수원시 장안구 송죽동 498번지 유진빌딩 4층","category":"용역 서비스 - 종합용역"},{"name":"캘러웨이골프북수원점","tel":"031-244-3100","addr":"경기도 수원시 장안구 송죽동 498번지 1층 2호","category":"의류 - 스포츠의류"},{"name":"케이씨제이(KCJ)약품","tel":"031-296-1037","addr":"경기도 수원시 장안구 송죽동 498번지","category":"약국 - 제약회사"}]},{"lat":"37.304816186","long":"127.00173146","items":[{"name":"YH 바이오","tel":"","addr":"경기도 수원시 장안구 송죽동 446-13번지","category":"서적문구 - 과학기자재"}]},{"lat":"37.301347208","long":"127.0060852","items":[{"name":"ley하우스","tel":"031-247-9995","addr":"경기도 수원시 장안구 송죽동 460-29번지","category":"일반휴게음식 - 서양음식"},{"name":"송죽대성초등제넥스학원","tel":"031-241-4777","addr":"경기도 수원시 장안구 송죽동 460-29번지 2층","category":"학원 - 기타 교육기관"},{"name":"송죽동 유니팝미술교습소","tel":"","addr":"경기도 수원시 장안구 송죽동 460-29번지 1층 왼편일부","category":"학원 - 예·체능계학원"}]},{"lat":"37.304843222","long":"127.00253231","items":[{"name":"obsess","tel":"070-7778-8585","addr":"경기도 수원시 장안구 송죽동 451-19번지 금속구조물창호공사 1층","category":"신변잡화 - 액세서리"}]},{"lat":"37.302842948","long":"127.00363768","items":[{"name":"가나상사","tel":"031-247-8187","addr":"경기도 수원시 장안구 송죽동 459-2번지 지하층","category":"직물 - 카페트,커튼,천막,지물"},{"name":"장인족발608","tel":"031-258-0703","addr":"경기도 수원시 장안구 송죽동 459-2번지 1층","category":"일반휴게음식 - 일반한식"}]},{"lat":"37.305122527","long":"127.00116748","items":[{"name":"가나유리","tel":"031-256-1911","addr":"경기도 수원시 장안구 송죽동 445-9번지","category":"건축자재 - 유리"},{"name":"교동반점 교동짬뽕","tel":"","addr":"경기도 수원시 장안구 송죽동 445-9번지 1층","category":"일반휴게음식 - 중국식"},{"name":"세원네숯불닭발.혜화동돈까스극장","tel":"031-207-0110","addr":"경기도 수원시 장안구 송죽동 445-9번지","category":"일반휴게음식 - 일반한식"},{"name":"시온성","tel":"031-244-5777","addr":"경기도 수원시 장안구 송죽동 445-9번지 1층","category":"일반휴게음식 - 중국식"},{"name":"윤가네 부대찌게","tel":"031-252-9993","addr":"경기도 수원시 장안구 송죽동 445-9번지 1층","category":"일반휴게음식 - 일반한식"}]},{"lat":"37.29612131","long":"127.00347972","items":[{"name":"가람노래연습장","tel":"031-248-1254","addr":"경기도 수원시 장안구 송죽동 398-4번지 지층","category":"레저업소 - 노 래 방"},{"name":"감탄송죽점","tel":"031-258-1942","addr":"경기도 수원시 장안구 송죽동 398-4번지","category":"일반휴게음식 - 스넥"},{"name":"국민대경호태권도장","tel":"031-246-5222","addr":"경기도 수원시 장안구 송죽동 398-4번지 2층","category":"학원 - 예·체능계학원"},{"name":"국제안경","tel":"031-244-7346","addr":"경기도 수원시 장안구 송죽동 398-4번지","category":"보건위생 - 안경"},{"name":"솔잎식당","tel":"031-255-7722","addr":"경기도 수원시 장안구 송죽동 398-4번지 1층","category":"일반휴게음식 - 일반한식"}]},{"lat":"37.304014201","long":"126.99852813","items":[{"name":"가람헤어샵","tel":"","addr":"경기도 수원시 장안구 송죽동 272-42번지 1층","category":"보건위생 - 미용원"}]},{"lat":"37.308068874","long":"127.00131405","items":[{"name":"가위손헤어","tel":"03-241-2160","addr":"경기도 수원시 장안구 송죽동 476-5번지","category":"보건위생 - 미용원"},{"name":"디자인반석","tel":"070-4242-8812","addr":"경기도 수원시 장안구 송죽동 476-5번지","category":"용역 서비스 - 종합용역"},{"name":"재영세탁소","tel":"031-243-9964","addr":"경기도 수원시 장안구 송죽동 476-5번지","category":"수리서비스 - 세탁소"}]},{"lat":"37.301986872","long":"127.00790116","items":[{"name":"간지유통","tel":"031-243-8947","addr":"경기도 수원시 장안구 송죽동 499-3번지 동양파라곤 101동 602호","category":"회원제형태 - 기타4"}]},{"lat":"37.305789281","long":"127.00095315","items":[{"name":"강스피자(since 2000)","tel":"031-258-8455","addr":"경기도 수원시 장안구 송죽동 440-7번지 상가 1층 101호","category":"일반휴게음식 - 서양음식"}]},{"lat":"37.306068603","long":"127.00447241","items":[{"name":"강아지이발소","tel":"031-251-5933","addr":"경기도 수원시 장안구 송죽동 77-1번지 1층","category":"문화.취미 - 애완동물"},{"name":"불로만숯불바베큐","tel":"031-256-9992","addr":"경기도 수원시 장안구 송죽동 77-1번지","category":"일반휴게음식 - 일반한식"},{"name":"실크시티헤어","tel":"031-246-8329","addr":"경기도 수원시 장안구 송죽동 77-1번지 2층","category":"보건위생 - 미용원"},{"name":"우리청과마트","tel":"031-255-9141","addr":"경기도 수원시 장안구 송죽동 77-1번지","category":"음료식품 - 농·축·수산품"},{"name":"피자마루조원한일타운점","tel":"031-248-4588","addr":"경기도 수원시 장안구 송죽동 77-1번지 가동 101 101호~102호","category":"일반휴게음식 - 서양음식"},{"name":"한일플라워","tel":"031-255-2226","addr":"경기도 수원시 장안구 송죽동 77-1번지","category":"문화.취미 - 화원"},{"name":"해피안","tel":"031-244-7448","addr":"경기도 수원시 장안구 송죽동 77-1번지","category":"건축자재 - 인테리어전문"}]},{"lat":"37.301788744","long":"127.00437081","items":[{"name":"개구리 노래연습장","tel":"031-4823-6932","addr":"경기도 수원시 장안구 송죽동 458-10번지","category":"레저업소 - 노 래 방"},{"name":"파도수산","tel":"031-255-1700","addr":"경기도 수원시 장안구 송죽동 458-10번지 1층","category":"일반휴게음식 - 일반한식"}]},{"lat":"37.296103167","long":"127.00830679","items":[{"name":"거기다원(        )","tel":"031-888-7575","addr":"경기도 수원시 장안구 송죽동 514번지 수원로얄팰리스 107동 213호","category":"문화.취미 - 민예·공예품"},{"name":"씨아이원 주식회사","tel":"","addr":"경기도 수원시 장안구 송죽동 514번지 수원로얄팰리스 107동 304호","category":"사무통신 - 통신기기"},{"name":"아이모션 카(imotion car)","tel":"","addr":"경기도 수원시 장안구 송죽동 514번지 수원로얄팰리스 107동 1111호","category":"여행 - 렌터카"},{"name":"플로르마망","tel":"","addr":"경기도 수원시 장안구 송죽동 514번지 수원로얄팰리스 107동 1116호","category":"신변잡화 - 액세서리"}]},{"lat":"37.305320761","long":"127.0019796","items":[{"name":"거성자동차종합보험","tel":"031-242-5027","addr":"경기도 수원시 장안구 송죽동 446-23번지","category":"자동차정비 유지 - 자동차정비"},{"name":"루마&쉴드런북수원점","tel":"031-243-2012","addr":"경기도 수원시 장안구 송죽동 446-23번지","category":"자동차정비 유지 - 자동차부품"}]},{"lat":"37.302986982","long":"126.99728747","items":[{"name":"견생맛집 야미야미","tel":"031-8211-8664","addr":"경기도 수원시 장안구 송죽동 277-3번지","category":"문화.취미 - 애완동물"},{"name":"도어시스템(대문수리,번호키)","tel":"031-248-5855","addr":"경기도 수원시 장안구 송죽동 277-3번지","category":"수리서비스 - 기타수리서비스"},{"name":"불곰네빵가게","tel":"031-255-5592","addr":"경기도 수원시 장안구 송죽동 277-3번지","category":"음료식품 - 제과점"},{"name":"이마트24 수원송죽점","tel":"031-000-0000","addr":"경기도 수원시 장안구 송죽동 277-3번지 1층","category":"유통업 영리 - 편 의 점"}]},{"lat":"37.309068975","long":"127.00614193","items":[{"name":"경기과학고등학교","tel":"031-259-0499","addr":"경기도 수원시 장안구 송죽동 68-23번지","category":"학원 - 초중고교육기관"},{"name":"경기과학고등학교_수업료","tel":"031-259-0499","addr":"경기도 수원시 장안구 송죽동 68-23번지","category":"학원 - 초중고교육기관"}]},{"lat":"37.306924585","long":"127.00306245","items":[{"name":"경기광고기획","tel":"031-244-6644","addr":"경기도 수원시 장안구 송죽동 135-1,104,105,106","category":"용역 서비스 - 종합용역"},{"name":"하늘인테리어","tel":"031-258-3157","addr":"경기도 수원시 장안구 송죽동 135-1번지 아톰플라자 103호","category":"건축자재 - 인테리어전문"},{"name":"한일볼링장","tel":"031-252-7666","addr":"경기도 수원시 장안구 송죽동 135-1번지 아톰플라자","category":"레저업소 - 볼 링 장"}]},{"lat":"37.304122399","long":"127.00397607","items":[{"name":"경기일보연감사업부","tel":"031-224-3333","addr":"경기도 수원시 장안구 송죽동 452-1번지","category":"서적문구 - 출판 및 인쇄물"},{"name":"주식회사 맥토피아","tel":"031-241-9797","addr":"경기도 수원시 장안구 송죽동 452-1번지 경기일보사빌딩 2층","category":"용역 서비스 - 종합용역"}]},{"lat":"37.296986287","long":"127.00425793","items":[{"name":"경민지업사","tel":"031-254-8006","addr":"경기도 수원시 장안구 송죽동 391-11번지","category":"직물 - 카페트,커튼,천막,지물"},{"name":"태후사랑송죽점","tel":"","addr":"경기도 수원시 장안구 송죽동 391-11번지","category":"보건위생 - 미용원"},{"name":"하늘샘피아노교습소","tel":"070-7529-5302","addr":"경기도 수원시 장안구 송죽동 391-11번지 일부 1층","category":"학원 - 예·체능계학원"}]},{"lat":"37.297761174","long":"127.00359251","items":[{"name":"경인공판장","tel":"031-243-8929","addr":"경기도 수원시 장안구 송죽동 374-31번지","category":"유통업 영리 - 슈퍼마켓"}]},{"lat":"37.299148688","long":"127.00680694","items":[{"name":"경인세무GROUP","tel":"031-241-7272","addr":"경기도 수원시 장안구 송죽동 503-16번지 월드타워 4층 401호","category":"용역 서비스 - 법률회계서비스(개인)"},{"name":"대일교육","tel":"031-245-2900","addr":"경기도 수원시 장안구 송죽동 503-16 월드타워405호~406호","category":"학원 - 기타 교육기관"},{"name":"만석골프존","tel":"031-251-6111","addr":"경기도 수원시 장안구 송죽동 503-16번지 월드타워 404동 407호","category":"레저업소 - 스크린골프"},{"name":"만석황소곱창","tel":"031-256-7445","addr":"경기도 수원시 장안구 송죽동 503-16번지 월드타워 103호","category":"일반휴게음식 - 일반한식"},{"name":"명가삼계탕","tel":"031-255-5238","addr":"경기도 수원시 장안구 송죽동 503-16번지 월드타워 201호 207호","category":"일반휴게음식 - 일반한식"},{"name":"백퍼센트","tel":"031-255-1592","addr":"경기도 수원시 장안구 송죽동 503-16번지 월드타워 1층 110,111,112호","category":"일반휴게음식 - 일반한식"},{"name":"백퍼센트한우정육점","tel":"031-255-1592","addr":"경기도 수원시 장안구 송죽동 503-16번지 월드타워 109호","category":"음료식품 - 정육점"},{"name":"본맛송탄부대찌개","tel":"031-235-2769","addr":"경기도 수원시 장안구 송죽동 503-16번지 월드타워 1층 114호","category":"일반휴게음식 - 일반한식"},{"name":"세무사유천희사무소","tel":"031-225-3377","addr":"경기도 수원시 장안구 송죽동 503-16번지 월드타워 204호","category":"용역 서비스 - 법률회계서비스(개인)"},{"name":"수원치과의원","tel":"031-242-6569","addr":"경기도 수원시 장안구 송죽동 503-16번지 월드타워 403호","category":"의원 - 치과의원"},{"name":"수지본동태탕","tel":"031-247-5354","addr":"경기도 수원시 장안구 송죽동 503-16번지 월드타워 115동 116호","category":"일반휴게음식 - 일반한식"},{"name":"신통치킨","tel":"031-252-2114","addr":"경기도 수원시 장안구 송죽동 503-16번지 월드타워 104호","category":"일반휴게음식 - 스넥"},{"name":"썬마트송죽점","tel":"031-245-8980","addr":"경기도 수원시 장안구 송죽동 503-16번지 월드타워 105호","category":"유통업 영리 - 슈퍼마켓"},{"name":"엠피쓰리(MP3)노래연습장","tel":"031-245-3653","addr":"경기도 수원시 장안구 송죽동 503-16번지 월드타워 203호","category":"레저업소 - 노 래 방"},{"name":"운동장 (두번째이야기)","tel":"031-244-5232","addr":"경기도 수원시 장안구 송죽동 503-16번지 월드타워 102호 101","category":"일반휴게음식 - 주점"},{"name":"월드당구장","tel":"031-244-3846","addr":"경기도 수원시 장안구 송죽동 503-16번지 월드타워 3층 305호","category":"레저업소 - 당 구 장"},{"name":"주식회사퍼시스북수원전시장","tel":"031-246-1977","addr":"경기도 수원시 장안구 송죽동 503-16번지 월드타워 5층 504호","category":"가구 - 일반가구"},{"name":"중앙SYSCOM","tel":"031-255-1622","addr":"경기도 수원시 장안구 송죽동 503-16월드타워501","category":"전기제품 - 기타전기제품"},{"name":"커피진","tel":"031-244-9885","addr":"경기도 수원시 장안구 송죽동 503-16번지 월드타워 113호","category":"일반휴게음식 - 일반한식"},{"name":"회먹자","tel":"031-256-8511","addr":"경기도 수원시 장안구 송죽동 503-16번지 월드타워 202호","category":"일반휴게음식 - 일식·회집"},{"name":"후아닝","tel":"031-243-2288","addr":"경기도 수원시 장안구 송죽동 503-16번지 월드타워 108호","category":"일반휴게음식 - 중국식"}]},{"lat":"37.2975359","long":"127.00505871","items":[{"name":"계동원","tel":"031-242-3618","addr":"경기도 수원시 장안구 송죽동 385-25번지 1층","category":"일반휴게음식 - 일반한식"}]},{"lat":"37.302734827","long":"127.00241952","items":[{"name":"고궁누룽지백숙","tel":"031-252-3391","addr":"경기도 수원시 장안구 송죽동 455-15번지","category":"일반휴게음식 - 일반한식"},{"name":"대박고깃집","tel":"031-234-6126","addr":"경기도 수원시 장안구 송죽동 455-15번지 1층","category":"일반휴게음식 - 일반한식"}]},{"lat":"37.306014539","long":"127.00111106","items":[{"name":"고명지게차","tel":"031-353-3099","addr":"경기도 수원시 장안구 송죽동 440-5번지","category":"기타 - 기계공구"},{"name":"대한민국지게차","tel":"031-358-5855","addr":"경기도 수원시 장안구 송죽동 440-5번지 광일빌딩 3층","category":"기타 - 기계공구"},{"name":"문화전기조명","tel":"031-256-0192","addr":"경기도 수원시 장안구 송죽동 440-5번지","category":"건축자재 - 조명기구"},{"name":"부강지게차 (진신중기)","tel":"031-000-0000","addr":"경기도 수원시 장안구 송죽동 440-5번지 광일빌딩 3층","category":"기타 - 기계공구"},{"name":"부광지게차","tel":"031-352-8856","addr":"경기도 수원시 장안구 송죽동 440-5번지 광일빌딩 3층","category":"기타 - 기계공구"},{"name":"상인건설중기","tel":"031-251-9090","addr":"경기도 수원시 장안구 송죽동 440-5번지 3층","category":"기타 - 기계공구"},{"name":"석포지게차","tel":"031-358-2229","addr":"경기도 수원시 장안구 송죽동 440-5번지 광일빌딩 3층","category":"기타 - 기계공구"},{"name":"세마역지게차","tel":"031-376-4500","addr":"경기도 수원시 장안구 송죽동 440-5번지 광일빌딩 3층","category":"기타 - 기계공구"},{"name":"수원건설중기","tel":"031-271-0492","addr":"경기도 수원시 장안구 송죽동 440-5번지 3층","category":"기타 - 기계공구"},{"name":"수원바브캣중기","tel":"031-291-2904","addr":"경기도 수원시 장안구 송죽동 440-5번지 3층","category":"기타 - 기계공구"},{"name":"영광핫트","tel":"031-257-4766","addr":"경기도 수원시 장안구 송죽동 440-5번지","category":"보건위생 - 이용원"},{"name":"조암지게차","tel":"031-358-6688","addr":"경기도 수원시 장안구 송죽동 440-5번지 광일빌딩 3층","category":"기타 - 기계공구"},{"name":"조암지게차(사곡지게차)","tel":"031-358-6688","addr":"경기도 수원시 장안구 송죽동 440-5번지 3층","category":"기타 - 기계공구"},{"name":"중앙지게차","tel":"031-351-5051","addr":"경기도 수원시 장안구 송죽동 440-5번지","category":"기타 - 기계공구"},{"name":"진신중기","tel":"031-237-0590","addr":"경기도 수원시 장안구 송죽동 440-5번지 3층","category":"기타 - 기계공구"},{"name":"진신중기","tel":"031-245-1687","addr":"경기도 수원시 장안구 송죽동 440-5번지 광일빌딩 3층","category":"기타 - 기계공구"},{"name":"진신중기","tel":"031-245-1687","addr":"경기도 수원시 장안구 송죽동 440-5번지 3층","category":"기타 - 기계공구"},{"name":"진신중기","tel":"031-358-2442","addr":"경기도 수원시 장안구 송죽동 440-5번지 3층","category":"기타 - 기계공구"},{"name":"진신중기(대한지게차)","tel":"031-357-8871","addr":"경기도 수원시 장안구 송죽동 440-5번지 광일빌딩 3층","category":"기타 - 기계공구"},{"name":"진안건설중기","tel":"031-232-4887","addr":"경기도 수원시 장안구 송죽동 440-5번지 3층","category":"기타 - 기계공구"},{"name":"코끼리지게차(진신중기)","tel":"031-358-4568","addr":"경기도 수원시 장안구 송죽동 440-5번지 광일빌딩 3층","category":"기타 - 기계공구"},{"name":"한성중전기","tel":"031-9291-3341","addr":"경기도 수원시 장안구 송죽동 440-5번지 광일빌딩 3층","category":"기타 - 기계공구"},{"name":"한신중기","tel":"031-222-3362","addr":"경기도 수원시 장안구 송죽동 440-5번지 3층","category":"기타 - 기계공구"}]},{"lat":"37.296986232","long":"127.00675044","items":[{"name":"고커피","tel":"","addr":"경기도 수원시 장안구 송죽동 517번지 수원아너스빌위즈 상가 A동 106호","category":"일반휴게음식 - 서양음식"},{"name":"기분좋은 365의원","tel":"031-546-1654","addr":"경기도 수원시 장안구 송죽동 517번지 수원아너스빌위즈 별동상가동 3층 301호,302호","category":"의원 - 의원"},{"name":"더펜트하우스","tel":"070-7613-2001","addr":"경기도 수원시 장안구 송죽동 517번지 수원아너스빌위즈 A동 4202호","category":"숙박업 - 여관/기타숙박업"},{"name":"라드 수원송죽점","tel":"031-244-7932","addr":"경기도 수원시 장안구 송죽동 517번지 수원아너스빌위즈 상가 A동 141호","category":"일반휴게음식 - 서양음식"},{"name":"마리아주 플레르","tel":"031-246-2468","addr":"경기도 수원시 장안구 송죽동 517번지 수원 아너스빌 위즈 B동 3708호","category":"문화.취미 - 문화취미기타"},{"name":"마망","tel":"","addr":"경기도 수원시 장안구 송죽동 517번지 수원아너스빌 위즈 1층 145호,146호","category":"일반휴게음식 - 서양음식"},{"name":"뮤토스포츠","tel":"","addr":"경기도 수원시 장안구 송죽동 517번지 수원아너스빌위즈 상가 A동 1층 137호","category":"레져용품 - 스포츠·레져용품"},{"name":"보스턴에스치과의원","tel":"031-000-0000","addr":"경기도 수원시 장안구 송죽동 517번지 수원 아너스빌 위즈 상가동 3층 304호, 305호","category":"의원 - 치과의원"},{"name":"세븐일레븐아너스빌위즈점","tel":"031-1577-0711","addr":"경기도 수원시 장안구 송죽동 517번지 수원아너스빌 위즈 상가동 101호","category":"유통업 영리 - 편 의 점"},{"name":"송원","tel":"","addr":"경기도 수원시 장안구 송죽동 517번지 수원아너스빌위즈 B동 4202호","category":"음료식품 - 기타음료식품"},{"name":"시립위즈어린이집[아이행복]","tel":"031-243-0876","addr":"경기도 수원시 장안구 송죽동 517번지 수원아너스빌위즈 관리동","category":"학원 - 유아원"},{"name":"아너스약국","tel":"031-244-2007","addr":"경기도 수원시 장안구 송죽동 517번지 수원아너스빌위즈 상가 1층 104호","category":"약국 - 약국"},{"name":"여백의 미","tel":"031-268-4011","addr":"경기도 수원시 장안구 송죽동 517번지 수원아너스빌위즈 B동 503호","category":"문화.취미 - 민예·공예품"},{"name":"위드미 수원아너스빌점","tel":"031-000-0000","addr":"경기도 수원시 장안구 송죽동 517번지 수원 아너스빌 위즈 B동 139호","category":"유통업 영리 - 편 의 점"},{"name":"제일에어컨","tel":"","addr":"경기도 수원시 장안구 송죽동 517번지 수원아너스빌위즈 A동 809호","category":"용역 서비스 - 기타용역서비스"},{"name":"케이엠엘리 수원 송죽점","tel":"","addr":"경기도 수원시 장안구 송죽동 517번지 수원아너스빌위즈 1층 105호","category":"직물 - 침구·수예점"},{"name":"크린 앤 크(아너스점)","tel":"031-244-3737","addr":"경기도 수원시 장안구 송죽동 517번지 수원아너스빌위즈 상가A동 1층 121호","category":"수리서비스 - 세탁소"},{"name":"파리바게뜨 정자로얄점","tel":"031-251-2306","addr":"경기도 수원시 장안구 송죽동 517번지 수원 아너스빌 위즈 상가동 107 108호","category":"음료식품 - 제과점"},{"name":"피턴하우스2호","tel":"031-244-3858","addr":"경기도 수원시 장안구 송죽동 517번지 수원아너스빌위즈 B동 1909호","category":"유통업 영리 - 기타유통업"}]},{"lat":"37.30229325","long":"127.00714548","items":[{"name":"골목돼지집","tel":"031-244-1150","addr":"경기도 수원시 장안구 송죽동 498-11번지 1층","category":"일반휴게음식 - 일반한식"},{"name":"예쁜안경원(북수원점)","tel":"031-257-6162","addr":"경기도 수원시 장안구 송죽동 498-11번지","category":"보건위생 - 안경"}]},{"lat":"37.300707399","long":"127.00834096","items":[{"name":"공부의비밀프리미엄독서실","tel":"031-245-7335","addr":"경기도 수원시 장안구 송죽동 506-8번지 신성빌딩 5층","category":"학원 - 독서실"},{"name":"북경오리구이","tel":"031-242-5292","addr":"경기도 수원시 장안구 송죽동 506-8번지 신성빌딩 102호","category":"일반휴게음식 - 일반한식"}]},{"lat":"37.30245551","long":"127.00311883","items":[{"name":"공원당구클럽","tel":"031-258-3541","addr":"경기도 수원시 장안구 송죽동 456-12번지 2층","category":"레저업소 - 당 구 장"},{"name":"리틀차이나","tel":"031-281-1004","addr":"경기도 수원시 장안구 송죽동 456-12번지 1층","category":"일반휴게음식 - 중국식"},{"name":"은방울커피집","tel":"070-8802-5000","addr":"경기도 수원시 장안구 송죽동 456-12번지 1층","category":"일반휴게음식 - 서양음식"}]},{"lat":"37.302320357","long":"127.0029722","items":[{"name":"공원편의방","tel":"031-244-6866","addr":"경기도 수원시 장안구 송죽동 456-13번지","category":"유통업 영리 - 슈퍼마켓"},{"name":"더맛쪽갈비","tel":"031-258-8592","addr":"경기도 수원시 장안구 송죽동 456-13번지 1층","category":"일반휴게음식 - 일반한식"},{"name":"지지미","tel":"031-251-2263","addr":"경기도 수원시 장안구 송죽동 456-13번지 1층","category":"일반휴게음식 - 일반한식"},{"name":"카페다움","tel":"031-252-8298","addr":"경기도 수원시 장안구 송죽동 456-13번지","category":"일반휴게음식 - 일반한식"},{"name":"코메리칸","tel":"031-252-0092","addr":"경기도 수원시 장안구 송죽동 456-13번지","category":"일반휴게음식 - 일반한식"}]},{"lat":"37.304230456","long":"126.9988101","items":[{"name":"공주마마","tel":"031-247-2234","addr":"경기도 수원시 장안구 송죽동 443-22번지 101호","category":"의류 - 기타의류"}]},{"lat":"37.304897267","long":"127.00091933","items":[{"name":"국선도단전호흡수원장안지원","tel":"031-256-3461","addr":"경기도 수원시 장안구 송죽동 444-1번지 민석빌딩 상가 401호","category":"회원제형태 - 레져업소"},{"name":"로또 노래연습장","tel":"031-252-6450","addr":"경기도 수원시 장안구 송죽동 444-1번지 민석빌딩 지층","category":"레저업소 - 노 래 방"},{"name":"박혜자낙지마당","tel":"031-258-0440","addr":"경기도 수원시 장안구 송죽동 444-1번지","category":"일반휴게음식 - 일반한식"},{"name":"세광메디텍","tel":"031-243-5390","addr":"경기도 수원시 장안구 송죽동 444-1번지 민석빌딩 2층","category":"보건위생 - 의료용품"},{"name":"준FM당구클럽","tel":"031-248-3949","addr":"경기도 수원시 장안구 송죽동 444-1번지 민석빌딩 301호","category":"레저업소 - 당 구 장"},{"name":"태양촌","tel":"031-305-5480","addr":"경기도 수원시 장안구 송죽동 444-1번지 1층","category":"일반휴게음식 - 일반한식"}]},{"lat":"37.304176363","long":"126.99797543","items":[{"name":"궁노래연습장","tel":"031-255-1413","addr":"경기도 수원시 장안구 송죽동 277-26번지 지하1층","category":"레저업소 - 노 래 방"},{"name":"떴다 송탄부대찌개","tel":"031-246-2678","addr":"경기도 수원시 장안구 송죽동 277-26번지 1층","category":"일반휴게음식 - 일반한식"},{"name":"마루","tel":"031-268-9005","addr":"경기도 수원시 장안구 송죽동 277-26번지","category":"일반휴게음식 - 일반한식"},{"name":"미니스톱수원송죽점","tel":"031-1577-9621","addr":"경기도 수원시 장안구 송죽동 277-26번지 1층","category":"유통업 영리 - 편 의 점"},{"name":"주택복권방","tel":"031-258-5336","addr":"경기도 수원시 장안구 송죽동 277-26번지","category":"기타 - 기타 전문점"}]},{"lat":"37.296148342","long":"127.00272408","items":[{"name":"궁중떡집","tel":"031-241-0055","addr":"경기도 수원시 장안구 송죽동 398-17번지","category":"음료식품 - 제과점"}]},{"lat":"37.296121311","long":"127.00331054","items":[{"name":"그녀의속눈썹","tel":"031-255-8333","addr":"경기도 수원시 장안구 송죽동 398-5번지","category":"보건위생 - 피부미용실"},{"name":"임마누엘헤어","tel":"031-258-7902","addr":"경기도 수원시 장안구 송죽동 398-5번지","category":"보건위생 - 미용원"}]},{"lat":"37.303284445","long":"127.00164125","items":[{"name":"그로브","tel":"070-7558-0396","addr":"경기도 수원시 장안구 송죽동 448-23","category":"일반휴게음식 - 일반한식"},{"name":"퍼블릭(PUBLICK)","tel":"031-252-3737","addr":"경기도 수원시 장안구 송죽동 448-23번지 2층","category":"일반휴게음식 - 주점"}]},{"lat":"37.296148342","long":"127.0031752","items":[{"name":"그루밍","tel":"031-256-5591","addr":"경기도 수원시 장안구 송죽동 398-6번지 1층","category":"의류 - 정장"},{"name":"한성누수공사","tel":"031-254-0015","addr":"경기도 수원시 장안구 송죽동 398-6번지 1층","category":"용역 서비스 - 기타용역서비스"}]},{"lat":"37.298184658","long":"127.00291581","items":[{"name":"그리미 디자인","tel":"","addr":"경기도 수원시 장안구 송죽동 412-24번지 광명빌라 A동 102호","category":"건축자재 - 인테리어전문"}]},{"lat":"37.302257168","long":"126.99761462","items":[{"name":"그린도그","tel":"031-242-4523","addr":"경기도 수원시 장안구 송죽동 277-58번지 피카소힐 1층 102호","category":"문화.취미 - 애완동물"},{"name":"배터리114","tel":"031-243-2513","addr":"경기도 수원시 장안구 송죽동 277-58번지 101호","category":"자동차정비 유지 - 자동차부품"},{"name":"신흥사","tel":"031-252-0062","addr":"경기도 수원시 장안구 송죽동 277-58번지","category":"신변잡화 - 제화"}]},{"lat":"37.303761995","long":"127.00281429","items":[{"name":"그린마트","tel":"031-252-0400","addr":"경기도 수원시 장안구 송죽동 454번지 1층","category":"유통업 영리 - 슈퍼마켓"}]},{"lat":"37.296175372","long":"127.00241956","items":[{"name":"그린스토리협동조합","tel":"031-000-0000","addr":"경기도 수원시 장안구 송죽동 398-31번지 둘리분식 301호","category":"학원 - 기타 교육기관"},{"name":"낭만호프","tel":"","addr":"경기도 수원시 장안구 송죽동 398-31번지","category":"일반휴게음식 - 주점"},{"name":"떡볶이스쿨","tel":"031-252-6892","addr":"경기도 수원시 장안구 송죽동 398-31번지 1층","category":"일반휴게음식 - 일반한식"},{"name":"쓰리마마","tel":"031-248-0822","addr":"경기도 수원시 장안구 송죽동 398-31번지","category":"일반휴게음식 - 서양음식"},{"name":"이레지물포","tel":"031-245-5872","addr":"경기도 수원시 장안구 송죽동 398-31번지 1층","category":"직물 - 카페트,커튼,천막,지물"}]},{"lat":"37.303653838","long":"127.0000847","items":[{"name":"그린스포츠","tel":"031-257-3434","addr":"경기도 수원시 장안구 송죽동 444-12번지","category":"레져용품 - 스포츠·레져용품"},{"name":"비트로북수원점","tel":"031-256-3435","addr":"경기도 수원시 장안구 송죽동 444-12번지 그린스포츠1층","category":"레져용품 - 스포츠·레져용품"}]},{"lat":"37.298626147","long":"127.00461887","items":[{"name":"금발헤어샵","tel":"031-255-9520","addr":"경기도 수원시 장안구 송죽동 378-32번지","category":"보건위생 - 미용원"},{"name":"선물상자","tel":"","addr":"경기도 수원시 장안구 송죽동 378-32번지 103호","category":"가구 - 기타가구"}]},{"lat":"37.303014145","long":"127.00294965","items":[{"name":"금불 테라피","tel":"031-111-1111","addr":"경기도 수원시 장안구 송죽동 456-17번지 월곡빌라 102호","category":"보건위생 - 화장품"}]},{"lat":"37.307014682","long":"127.00405507","items":[{"name":"기운찬푸드cafe","tel":"031-256-7720","addr":"경기도 수원시 장안구 송죽동 85-2번지 1층","category":"일반휴게음식 - 일반한식"},{"name":"여우별 네일","tel":"031-257-3010","addr":"경기도 수원시 장안구 송죽동 85-2번지 1층","category":"보건위생 - 피부미용실"}]},{"lat":"37.311790106","long":"127.00314142","items":[{"name":"길농장","tel":"031-243-8668","addr":"경기도 수원시 장안구 송죽동 96번지","category":"레저업소 - 기타레져업소"}]},{"lat":"37.305897419","long":"127.00311884","items":[{"name":"길라이브","tel":"031-223-7169","addr":"경기도 수원시 장안구 송죽동 213-1번지 지하1층","category":"일반휴게음식 - 서양음식"},{"name":"월악산.할매보쌈","tel":"031-252-1235","addr":"경기도 수원시 장안구 송죽동 213-1번지","category":"일반휴게음식 - 일반한식"}]},{"lat":"37.298013391","long":"127.00703246","items":[{"name":"김가네생고기김치찌개","tel":"031-247-1432","addr":"경기도 수원시 장안구 송죽동 380-3번지 1층","category":"일반휴게음식 - 일반한식"},{"name":"로얄장여관","tel":"031-238-1212","addr":"경기도 수원시 장안구 송죽동 380-3번지 ,2-4층","category":"숙박업 - 여관/기타숙박업"}]},{"lat":"37.299896511","long":"127.00756266","items":[{"name":"김기백세무사사무소","tel":"031-248-5300","addr":"경기도 수원시 장안구 송죽동 504-1번지 송광빌딩 302호","category":"용역 서비스 - 법률회계서비스(개인)"},{"name":"점프바이크(JB네트웍스)","tel":"031-207-7770","addr":"경기도 수원시 장안구 송죽동 504-1번지","category":"레져용품 - 스포츠·레져용품"}]},{"lat":"37.306257821","long":"127.0042017","items":[{"name":"김밥천국","tel":"031-241-8800","addr":"경기도 수원시 장안구 송죽동 79번지 풍천장어와안주백화점 A동","category":"일반휴게음식 - 일반한식"},{"name":"또와 연탄불구이","tel":"031-241-9282","addr":"경기도 수원시 장안구 송죽동 79번지","category":"일반휴게음식 - 일반한식"},{"name":"또와떡볶이","tel":"031-258-5367","addr":"경기도 수원시 장안구 송죽동 79번지 1층","category":"일반휴게음식 - 스넥"},{"name":"통통족발","tel":"031-257-2577","addr":"경기도 수원시 장안구 송죽동 79번지 1층","category":"일반휴게음식 - 일반한식"}]},{"lat":"37.299707356","long":"127.00566782","items":[{"name":"김성범유도멀티짐","tel":"031-245-8265","addr":"경기도 수원시 장안구 송죽동 503-1번지 2층","category":"학원 - 예·체능계학원"},{"name":"만석봉평메밀막국수","tel":"031-243-3307","addr":"경기도 수원시 장안구 송죽동 503-1번지 하림 1층 2호","category":"일반휴게음식 - 일반한식"},{"name":"모티브뮤직","tel":"","addr":"경기도 수원시 장안구 송죽동 503-1번지 3층 상회","category":"문화.취미 - 티켓"},{"name":"요넥스존","tel":"031-246-9634","addr":"경기도 수원시 장안구 송죽동 503-1번지","category":"레져용품 - 스포츠·레져용품"}]},{"lat":"37.300563242","long":"127.00819432","items":[{"name":"김진철세무회계사무소","tel":"031-246-9911","addr":"경기도 수원시 장안구 송죽동 506-6번지","category":"용역 서비스 - 법률회계서비스(개인)"},{"name":"랜닥터","tel":"031-548-2040","addr":"경기도 수원시 장안구 송죽동 506-6번지 호원빌딩 502호","category":"용역 서비스 - 기타용역서비스"},{"name":"세무사목명균사무소","tel":"031-241-2412","addr":"경기도 수원시 장안구 송죽동 506-6번지 호원빌딩 4층 402호","category":"용역 서비스 - 법률회계서비스(개인)"},{"name":"세무사홍석성","tel":"031-271-3200","addr":"경기도 수원시 장안구 송죽동 506-6번지 호원빌딩 202호","category":"용역 서비스 - 법률회계서비스(개인)"},{"name":"주식회사 티오씨크리에이티브","tel":"070-7836-5913","addr":"경기도 수원시 장안구 송죽동 506-6번지 호원빌딩 502호","category":"음료식품 - 기타음료식품"},{"name":"주식회사블루앤에너지","tel":"031-251-1570","addr":"경기도 수원시 장안구 송죽동 506-6번지 호원빌딩 3층 302호","category":"전기제품 - 기타전기제품"}]},{"lat":"37.306897554","long":"127.00338956","items":[{"name":"꼬꼬마몬테소리어린이집[아이행복]","tel":"031-243-9238","addr":"경기도 수원시 장안구 송죽동 133번지 1층","category":"학원 - 유아원"},{"name":"꼬꼬마몬테소리어린이집[아이행복]","tel":"031-243-9238","addr":"경기도 수원시 장안구 송죽동 133번지","category":"학원 - 유아원"}]},{"lat":"37.305176576","long":"127.00044558","items":[{"name":"꼬끄부티끄","tel":"","addr":"경기도 수원시 장안구 송죽동 442-1번지 1층 101호","category":"음료식품 - 제과점"},{"name":"소녀싸롱","tel":"","addr":"경기도 수원시 장안구 송죽동 442-1번지 드림하우스 1층","category":"보건위생 - 피부미용실"},{"name":"엘리사","tel":"031-245-2928","addr":"경기도 수원시 장안구 송죽동 442-1번지","category":"의류 - 정장"}]},{"lat":"37.297653039","long":"127.00475419","items":[{"name":"꼬마광대","tel":"031-295-8341","addr":"경기도 수원시 장안구 송죽동 390-5번지 두호빌라","category":"문화.취미 - 티켓"}]},{"lat":"37.303320493","long":"127.00287069","items":[{"name":"꼬미커뮤니케이션","tel":"031-268-3123","addr":"경기도 수원시 장안구 송죽동 454-12번지","category":"용역 서비스 - 소프트웨어"}]},{"lat":"37.303536726","long":"127.00458515","items":[{"name":"꼬치구이 에도이치","tel":"031-253-2539","addr":"경기도 수원시 장안구 송죽동 495-5번지 1층","category":"일반휴게음식 - 일반한식"},{"name":"낮에는국수밤에는포차","tel":"","addr":"경기도 수원시 장안구 송죽동 495-5번지 1층","category":"일반휴게음식 - 일반한식"},{"name":"아이에스세라믹 주식회사","tel":"031-241-7303","addr":"경기도 수원시 장안구 송죽동 495-5번지","category":"건축자재 - 건축용 요업제품"}]},{"lat":"37.301374134","long":"127.00881472","items":[{"name":"꼴찌들아공부하자","tel":"031-253-6431","addr":"경기도 수원시 장안구 송죽동 506-1번지 2층","category":"회원제형태 - 기타4"},{"name":"바오헤어(VAOHAIR)","tel":"031-207-2101","addr":"경기도 수원시 장안구 송죽동 506-1번지 2층","category":"보건위생 - 미용원"}]},{"lat":"37.302014003","long":"127.00408883","items":[{"name":"꽃을든남자","tel":"031-251-8867","addr":"경기도 수원시 장안구 송죽동 458-3 삼우 APT 지하1층","category":"보건위생 - 화장품"}]},{"lat":"37.3024825","long":"127.0060063","items":[{"name":"꽃피움","tel":"","addr":"경기도 수원시 장안구 송죽동 497-5번지","category":"문화.취미 - 문화취미기타"},{"name":"도예공방 꽃아래","tel":"031-255-6085","addr":"경기도 수원시 장안구 송죽동 497-5번지","category":"문화.취미 - 민예·공예품"}]},{"lat":"37.303987143","long":"126.99784009","items":[{"name":"꿀단지","tel":"031-257-4051","addr":"경기도 수원시 장안구 송죽동 277-28번지 1층","category":"의류 - 기타의류"},{"name":"용인철물","tel":"031-245-6259","addr":"경기도 수원시 장안구 송죽동 277-28번지","category":"건축자재 - 목재·석재·철물"},{"name":"투다리(백조점)","tel":"031-243-1008","addr":"경기도 수원시 장안구 송죽동 277-28번지","category":"일반휴게음식 - 주점"}]},{"lat":"37.303203226","long":"126.99725362","items":[{"name":"꿀마니닭강정","tel":"031-257-5800","addr":"경기도 수원시 장안구 송죽동 490번지 1층","category":"일반휴게음식 - 일반한식"}]},{"lat":"37.302040977","long":"127.0067507","items":[{"name":"꿈꾸는수족관(dream aqua)","tel":"070-5260-2312","addr":"경기도 수원시 장안구 송죽동 497-15번지","category":"문화.취미 - 수족관"},{"name":"다시보다헤어살롱","tel":"070-7756-5788","addr":"경기도 수원시 장안구 송죽동 497-15번지 1층","category":"보건위생 - 미용원"}]},{"lat":"37.303149172","long":"126.99742281","items":[{"name":"나나어린이집[아이행복]","tel":"031-248-2999","addr":"경기도 수원시 장안구 송죽동 277-66번지 1층","category":"학원 - 유아원"}]},{"lat":"37.307618371","long":"127.00350237","items":[{"name":"나들e마트","tel":"031-256-5949","addr":"경기도 수원시 장안구 송죽동 130번지","category":"유통업 영리 - 슈퍼마켓"}]},{"lat":"37.30476213","long":"127.0026451","items":[{"name":"나봄뷰티스타일링샵","tel":"031-252-0107","addr":"경기도 수원시 장안구 송죽동 451-17번지 지층","category":"보건위생 - 미용원"}]},{"lat":"37.301347152","long":"127.00775449","items":[{"name":"남도사골순대국","tel":"031-242-9977","addr":"경기도 수원시 장안구 송죽동 500-17번지 102,103,104호","category":"일반휴게음식 - 일반한식"},{"name":"드림음악연습실","tel":"070-7543-2710","addr":"경기도 수원시 장안구 송죽동 500-17번지 202,203호","category":"용역 서비스 - 사무서비스"},{"name":"심슨 (Simpson)","tel":"070-5507-4647","addr":"경기도 수원시 장안구 송죽동 500-17번지 102,103,104일부호","category":"일반휴게음식 - 서양음식"},{"name":"엘플레이스나인","tel":"031-252-2189","addr":"경기도 수원시 장안구 송죽동 500-17번지 1층 101호","category":"의류 - 아동의류"},{"name":"오디네일","tel":"","addr":"경기도 수원시 장안구 송죽동 500-17번지 101호","category":"보건위생 - 피부미용실"}]},{"lat":"37.300175831","long":"127.00750628","items":[{"name":"내담에어컨","tel":"031-563-9875","addr":"경기도 수원시 장안구 송죽동 505-4번지 1층","category":"용역 서비스 - 기타용역서비스"},{"name":"미락식당","tel":"031-307-7368","addr":"경기도 수원시 장안구 송죽동 505-4번지 1층","category":"일반휴게음식 - 일반한식"},{"name":"피알애드","tel":"031-255-0012","addr":"경기도 수원시 장안구 송죽동 505-4번지 1층","category":"건축자재 - 인테리어전문"}]},{"lat":"37.304843216","long":"127.00161866","items":[{"name":"네테르주얼리","tel":"031-238-2912","addr":"경기도 수원시 장안구 송죽동 446-17번지","category":"신변잡화 - 액세서리"},{"name":"이지여행사","tel":"031-232-2923","addr":"경기도 수원시 장안구 송죽동 446-17번지 1층","category":"여행 - 관광여행"}]},{"lat":"37.302626673","long":"127.00564537","items":[{"name":"노기사진관","tel":"031-000-0000","addr":"경기도 수원시 장안구 송죽동 497-1번지 101호","category":"광학제품 - 사진관"}]},{"lat":"37.302563563","long":"126.99881019","items":[{"name":"노송노래연습장","tel":"031-244-8612","addr":"경기도 수원시 장안구 송죽동 272-74번지","category":"레저업소 - 노 래 방"},{"name":"효성치킨닭강정","tel":"031-256-2399","addr":"경기도 수원시 장안구 송죽동 272-74번지 1층","category":"일반휴게음식 - 스넥"}]},{"lat":"37.302041021","long":"127.00497988","items":[{"name":"뉴뷰티몽니스#","tel":"031-253-0991","addr":"경기도 수원시 장안구 송죽동 460-12번지 1층","category":"보건위생 - 화장품"},{"name":"루비헤어","tel":"031-245-0555","addr":"경기도 수원시 장안구 송죽동 460-12번지","category":"보건위생 - 미용원"},{"name":"유성지물포","tel":"031-244-8536","addr":"경기도 수원시 장안구 송죽동 460-12번지","category":"건축자재 - 인테리어전문"},{"name":"키즈매니저","tel":"070-6429-2417","addr":"경기도 수원시 장안구 송죽동 460-12번지 1층","category":"의류 - 정장"}]},{"lat":"37.305095504","long":"127.00177657","items":[{"name":"뉴월드조명","tel":"031-245-2012","addr":"경기도 수원시 장안구 송죽동 446-18번지 에이스빌딩 102호","category":"건축자재 - 조명기구"},{"name":"바이크랜드","tel":"031-255-0280","addr":"경기도 수원시 장안구 송죽동 446-18번지","category":"자동차판매 - 이륜차판매"}]},{"lat":"37.307510241","long":"127.00441604","items":[{"name":"뉴최강영수전문학원","tel":"031-241-7784","addr":"경기도 수원시 장안구 송죽동 73번지 현광프라자 401호","category":"학원 - 보습학원"},{"name":"러브레터","tel":"031-252-0883","addr":"경기도 수원시 장안구 송죽동 73외1필지현광프라자108","category":"일반휴게음식 - 서양음식"},{"name":"멕시카나한일타운점","tel":"031-253-9292","addr":"경기도 수원시 장안구 송죽동 73번지 현광프라자 103호","category":"일반휴게음식 - 스넥"},{"name":"명진마취통증의학과의원","tel":"","addr":"경기도 수원시 장안구 송죽동 73번지 현광프라자 301호","category":"의원 - 의원"},{"name":"오뚜기가정식백반","tel":"031-253-8089","addr":"경기도 수원시 장안구 송죽동 73번지 현광프라자 109호","category":"일반휴게음식 - 일반한식"},{"name":"주주비","tel":"","addr":"경기도 수원시 장안구 송죽동 73번지 현광프라자 1층 106호","category":"신변잡화 - 액세서리"},{"name":"푸른식품","tel":"031-246-1330","addr":"경기도 수원시 장안구 송죽동 73외1필지현광프라자106,107호","category":"음료식품 - 기타음료식품"},{"name":"피아노블음악교습소","tel":"","addr":"경기도 수원시 장안구 송죽동 73번지 현광프라자 1층 107호","category":"학원 - 보습학원"}]},{"lat":"37.301428225","long":"127.00819438","items":[{"name":"뉴타운노래연습장","tel":"070-7437-9586","addr":"경기도 수원시 장안구 송죽동 499-7번지","category":"레저업소 - 노 래 방"},{"name":"라라스윗랩(RARA Sweet Lab)","tel":"","addr":"경기도 수원시 장안구 송죽동 499-7번지 1층 106호","category":"일반휴게음식 - 서양음식"},{"name":"머리가예쁘다","tel":"070-4227-8002","addr":"경기도 수원시 장안구 송죽동 499-7번지 1층","category":"보건위생 - 미용원"},{"name":"봉봉","tel":"031-309-4331","addr":"경기도 수원시 장안구 송죽동 499-7번지 101호","category":"일반휴게음식 - 일반한식"},{"name":"유로 (EURO)","tel":"031-256-7888","addr":"경기도 수원시 장안구 송죽동 499-7번지 1층","category":"일반휴게음식 - 서양음식"},{"name":"저스트버거","tel":"031-253-1686","addr":"경기도 수원시 장안구 송죽동 499-7번지 103호","category":"일반휴게음식 - 일반한식"},{"name":"타르트봉봉","tel":"031-663-0447","addr":"경기도 수원시 장안구 송죽동 499-7번지 1층 101호","category":"일반휴게음식 - 서양음식"},{"name":"포쉐프 2012","tel":"031-1234-1234","addr":"경기도 수원시 장안구 송죽동 499-7번지 1층 105호","category":"일반휴게음식 - 일반한식"}]},{"lat":"37.29804047","long":"127.00525046","items":[{"name":"늘푸른 공인중개사사무소","tel":"031-244-8249","addr":"경기도 수원시 장안구 송죽동 386-14번지 1층","category":"의류 - 내의판매"},{"name":"한양클리너","tel":"031-269-4486","addr":"경기도 수원시 장안구 송죽동 386-14번지 1층","category":"전기제품 - 가전제품"}]},{"lat":"37.303320363","long":"126.99733256","items":[{"name":"닛시헤어필","tel":"031-257-1411","addr":"경기도 수원시 장안구 송죽동 489번지","category":"보건위생 - 미용원"},{"name":"오프온(OFFON)","tel":"","addr":"경기도 수원시 장안구 송죽동 489번지","category":"의류 - 정장"},{"name":"이종옥사골만두국","tel":"031-247-1422","addr":"경기도 수원시 장안구 송죽동 489번지","category":"일반휴게음식 - 일반한식"}]},{"lat":"37.297508834","long":"127.00650234","items":[{"name":"다닥","tel":"033-638-7878","addr":"경기도 수원시 장안구 송죽동 380-15번지","category":"일반휴게음식 - 일반한식"}]},{"lat":"37.299932608","long":"127.00581445","items":[{"name":"다래","tel":"031-268-4008","addr":"경기도 수원시 장안구 송죽동 503-20번지 1층","category":"일반휴게음식 - 일반한식"},{"name":"세무사전종환사무소","tel":"031-246-1177","addr":"경기도 수원시 장안구 송죽동 503-20번지","category":"용역 서비스 - 법률회계서비스(개인)"},{"name":"수원이레태권도","tel":"031-245-6123","addr":"경기도 수원시 장안구 송죽동 503-20번지 2층","category":"학원 - 예·체능계학원"}]},{"lat":"37.301923856","long":"127.0063672","items":[{"name":"다산공사","tel":"031-242-0310","addr":"경기도 수원시 장안구 송죽동 497-29번지","category":"건축자재 - 인테리어전문"},{"name":"사단법인 경기도옥외광고협회","tel":"","addr":"경기도 수원시 장안구 송죽동 497-29번지 2층","category":"건축자재 - 인테리어전문"}]},{"lat":"37.300959777","long":"127.00572426","items":[{"name":"다인테크","tel":"031-248-6924","addr":"경기도 수원시 장안구 송죽동 461-21번지 101호","category":"기타 - 기계공구"},{"name":"메락","tel":"","addr":"경기도 수원시 장안구 송죽동 461-21번지 1층 102호","category":"음료식품 - 기타음료식품"}]},{"lat":"37.301040867","long":"127.0058145","items":[{"name":"단음피아노학원","tel":"031-253-6780","addr":"경기도 수원시 장안구 송죽동 461-20번지","category":"학원 - 예·체능계학원"}]},{"lat":"37.29901356","long":"127.00594976","items":[{"name":"달곰차차","tel":"031-254-2015","addr":"경기도 수원시 장안구 송죽동 377-11번지 2층","category":"음료식품 - 제과점"}]},{"lat":"37.301257018","long":"127.00845378","items":[{"name":"닭다릿들&노라바","tel":"031-257-9596","addr":"경기도 수원시 장안구 송죽동 506-14번지 1층","category":"일반휴게음식 - 일반한식"},{"name":"천기권의료기 수원지점","tel":"031-248-7597","addr":"경기도 수원시 장안구 송죽동 506-14번지 2층","category":"보건위생 - 의료용품"}]},{"lat":"37.303617825","long":"127.00403246","items":[{"name":"닭쌤","tel":"031-244-3335","addr":"경기도 수원시 장안구 송죽동 453-29번지 1층","category":"일반휴게음식 - 스넥"},{"name":"씨유수원경기일보점","tel":"031-243-9827","addr":"경기도 수원시 장안구 송죽동 453-29번지","category":"유통업 영리 - 편 의 점"},{"name":"죽도해삼","tel":"031-245-8607","addr":"경기도 수원시 장안구 송죽동 453-29번지","category":"일반휴게음식 - 일반한식"},{"name":"중앙당구장","tel":"031-309-5871","addr":"경기도 수원시 장안구 송죽동 453-29번지","category":"레저업소 - 당 구 장"},{"name":"차차차노래방","tel":"031-256-6488","addr":"경기도 수원시 장안구 송죽동 453-29번지","category":"레저업소 - 노 래 방"}]},{"lat":"37.302401326","long":"126.99750182","items":[{"name":"담덕컴퍼니","tel":"","addr":"경기도 수원시 장안구 송죽동 277-57번지","category":"신변잡화 - 기타잡화"},{"name":"마스카라","tel":"031-246-1127","addr":"경기도 수원시 장안구 송죽동 277-57번지 옥토성결교회 102호","category":"보건위생 - 화장품"},{"name":"머리빨","tel":"031-252-2004","addr":"경기도 수원시 장안구 송죽동 277-57번지 옥토성결교회 1층 102호","category":"보건위생 - 미용원"},{"name":"이지드라이브","tel":"031-243-2015","addr":"경기도 수원시 장안구 송죽동 277-57번지 1층","category":"레져용품 - 스포츠·레져용품"},{"name":"지우디자인","tel":"031-269-1770","addr":"경기도 수원시 장안구 송죽동 277-57번지","category":"건축자재 - 인테리어전문"},{"name":"카페라이크앤라이크(CAFE LIKE AND LIKE)","tel":"031-111-1111","addr":"경기도 수원시 장안구 송죽동 277-57번지","category":"일반휴게음식 - 서양음식"}]},{"lat":"37.305455916","long":"127.00222775","items":[{"name":"대가24시간순대국","tel":"031-248-3330","addr":"경기도 수원시 장안구 송죽동 446-1번지","category":"일반휴게음식 - 일반한식"}]},{"lat":"37.296508738","long":"127.00473161","items":[{"name":"대림건재상사","tel":"031-241-8400","addr":"경기도 수원시 장안구 송죽동 393-15번지","category":"건축자재 - 기타건축자재"}]},{"lat":"37.306924581","long":"127.00181039","items":[{"name":"대림냉동","tel":"031-252-1011","addr":"경기도 수원시 장안구 송죽동 180번지 1층","category":"전기제품 - 냉열기기"}]},{"lat":"37.298094524","long":"127.00558881","items":[{"name":"대박할인마트","tel":"031-257-7911","addr":"경기도 수원시 장안구 송죽동 379-5번지","category":"유통업 영리 - 슈퍼마켓"},{"name":"박선영헤어클럽","tel":"031-256-7591","addr":"경기도 수원시 장안구 송죽동 379-5번지","category":"보건위생 - 미용원"}]},{"lat":"37.304095366","long":"127.00161868","items":[{"name":"대성슈퍼","tel":"031-242-6250","addr":"경기도 수원시 장안구 송죽동 449-17번지 월드빌 104호","category":"유통업 영리 - 슈퍼마켓"},{"name":"두드림교육 (DO DREAM EDU.)","tel":"031-269-7012","addr":"경기도 수원시 장안구 송죽동 449-17번지 월드빌 301호","category":"서적문구 - 기타서적문구"}]},{"lat":"37.301788642","long":"126.99775","items":[{"name":"대성지업사종합인테리어","tel":"031-241-8682","addr":"경기도 수원시 장안구 송죽동 277-21번지","category":"건축자재 - 인테리어전문"}]},{"lat":"37.298229699","long":"127.00437074","items":[{"name":"대왕만두","tel":"031-233-3993","addr":"경기도 수원시 장안구 송죽동 386-4번지 1층","category":"음료식품 - 기타음료식품"}]},{"lat":"37.299373954","long":"127.00650243","items":[{"name":"더골프용품","tel":"031-246-1880","addr":"경기도 수원시 장안구 송죽동 503-15번지 지하1층","category":"레져용품 - 골프용품 전문점"},{"name":"월남쌈다온샤브샤브무한리필","tel":"031-241-8433","addr":"경기도 수원시 장안구 송죽동 503-15번지 1층","category":"일반휴게음식 - 일반한식"},{"name":"한새정 필라테스 운동재활센터","tel":"031-546-2993","addr":"경기도 수원시 장안구 송죽동 503-15번지 2층","category":"레저업소 - 헬스클럽"}]},{"lat":"37.307176863","long":"127.00147199","items":[{"name":"더공감","tel":"031-306-5020","addr":"경기도 수원시 장안구 송죽동 156번지 1층","category":"건축자재 - 인테리어전문"}]},{"lat":"37.303428608","long":"127.00422421","items":[{"name":"더그미(The그미)","tel":"031-254-2323","addr":"경기도 수원시 장안구 송죽동 496-1번지 1층","category":"일반휴게음식 - 주점"},{"name":"아씨곱창","tel":"031-246-0056","addr":"경기도 수원시 장안구 송죽동 496-1번지 1층","category":"일반휴게음식 - 일반한식"},{"name":"환희영상","tel":"031-241-2706","addr":"경기도 수원시 장안구 송죽동 496-1번지","category":"광학제품 - 사진관"}]},{"lat":"37.303284438","long":"127.00469793","items":[{"name":"덕산바베큐","tel":"031-241-8595","addr":"경기도 수원시 장안구 송죽동 496-16번지 1층","category":"일반휴게음식 - 일반한식"},{"name":"별만두","tel":"031-8004-8901","addr":"경기도 수원시 장안구 송죽동 496-16번지","category":"일반휴게음식 - 일반한식"}]},{"lat":"37.312564932","long":"127.00644666","items":[{"name":"덕수궁","tel":"031-241-3040","addr":"경기도 수원시 장안구 송죽동 34-5번지","category":"일반휴게음식 - 일반한식"}]},{"lat":"37.302536476","long":"126.99742285","items":[{"name":"덮밥n우동","tel":"","addr":"경기도 수원시 장안구 송죽동 277-53번지 1층","category":"일반휴게음식 - 일식·회집"}]},{"lat":"37.306483083","long":"127.0034798","items":[{"name":"데일리골프아카데미","tel":"031-245-7504","addr":"경기도 수원시 장안구 송죽동 196-3번지","category":"레저업소 - 스크린골프"},{"name":"맑은맘한의원","tel":"031-241-7975","addr":"경기도 수원시 장안구 송죽동 196-3번지","category":"의원 - 한의원"},{"name":"서울미래의원","tel":"031-241-0125","addr":"경기도 수원시 장안구 송죽동 196-3번지 2층 202호","category":"의원 - 의원"},{"name":"앉으나서나책사랑서점","tel":"031-241-4345","addr":"경기도 수원시 장안구 송죽동 196-3번지 석천빌딩 1층","category":"서적문구 - 일반서적"},{"name":"알파스크린골프","tel":"031-245-7504","addr":"경기도 수원시 장안구 송죽동 196-3번지","category":"레저업소 - 스크린골프"},{"name":"킴스인테리어","tel":"031-256-2200","addr":"경기도 수원시 장안구 송죽동 196-3번지 1층","category":"건축자재 - 인테리어전문"},{"name":"타운인테리어","tel":"031-244-5679","addr":"경기도 수원시 장안구 송죽동 196-3번지 104호","category":"건축자재 - 인테리어전문"},{"name":"한숟가락","tel":"031-207-1335","addr":"경기도 수원시 장안구 송죽동 196-3번지 1층","category":"일반휴게음식 - 일반한식"},{"name":"훌랄라참숯바베큐치킨","tel":"031-241-5046","addr":"경기도 수원시 장안구 송죽동 196-3번지 서천빌딩 1층","category":"일반휴게음식 - 주점"}]},{"lat":"37.299536144","long":"127.0063107","items":[{"name":"도래샘","tel":"031-256-8788","addr":"경기도 수원시 장안구 송죽동 503-11번지","category":"일반휴게음식 - 일반한식"}]},{"lat":"37.30295107","long":"127.00378431","items":[{"name":"도촌흑염소전문점","tel":"031-269-6322","addr":"경기도 수원시 장안구 송죽동 459-1번지","category":"일반휴게음식 - 일반한식"},{"name":"마리엔스프로그램","tel":"031-244-7589","addr":"경기도 수원시 장안구 송죽동 459-1번지 2층","category":"회원제형태 - 기타4"},{"name":"신도네트북수원점/특별할부","tel":"031-222-2222","addr":"경기도 수원시 장안구 송죽동 459-1번지","category":"사무통신 - 사무용 OA기기"},{"name":"왕가마통닭","tel":"031-257-7725","addr":"경기도 수원시 장안구 송죽동 459-1번지","category":"일반휴게음식 - 일반한식"},{"name":"코코스킨케어","tel":"031-258-7737","addr":"경기도 수원시 장안구 송죽동 459-1번지 202호","category":"보건위생 - 화장품"},{"name":"포지션당구장","tel":"031-256-8885","addr":"경기도 수원시 장안구 송죽동 459-1번지 동원빌딩 2층 201호","category":"레저업소 - 당 구 장"},{"name":"하이오비(송죽점)","tel":"031-241-4797","addr":"경기도 수원시 장안구 송죽동 459-1번지","category":"일반휴게음식 - 일반한식"}]},{"lat":"37.299869494","long":"127.00720174","items":[{"name":"독도얼큰이","tel":"031-204-3633","addr":"경기도 수원시 장안구 송죽동 504-8번지","category":"일반휴게음식 - 일반한식"}]},{"lat":"37.301770635","long":"127.00768685","items":[{"name":"독도참치","tel":"031-256-0666","addr":"경기도 수원시 장안구 송죽동 499-3번지 동양파라곤 102동 106호","category":"일반휴게음식 - 일식·회집"},{"name":"메이드커피","tel":"031-246-5953","addr":"경기도 수원시 장안구 송죽동 499-3번지 동양파라곤 102동 112호","category":"일반휴게음식 - 서양음식"}]},{"lat":"37.306176734","long":"127.00367155","items":[{"name":"돌체음악학원","tel":"","addr":"경기도 수원시 장안구 송죽동 197번지 이현빌딩 3층","category":"학원 - 예·체능계학원"},{"name":"미도참치","tel":"031-243-0668","addr":"경기도 수원시 장안구 송죽동 197번지","category":"일반휴게음식 - 일반한식"},{"name":"미스터헤어","tel":"031-254-2514","addr":"경기도 수원시 장안구 송죽동 197번지 이현빌딩 103호","category":"보건위생 - 미용원"},{"name":"바른손","tel":"031-256-6292","addr":"경기도 수원시 장안구 송죽동 197번지","category":"서적문구 - 문구용품"},{"name":"신명선국수부자","tel":"031-269-2369","addr":"경기도 수원시 장안구 송죽동 197번지 이현빌딩 2층","category":"일반휴게음식 - 일반한식"},{"name":"콩커피","tel":"02-1111-1111","addr":"경기도 수원시 장안구 송죽동 197번지 이현빌딩 1층 101호","category":"일반휴게음식 - 서양음식"},{"name":"한일열정태권도","tel":"031-241-2228","addr":"경기도 수원시 장안구 송죽동 197번지 4층","category":"학원 - 예·체능계학원"},{"name":"한일학원","tel":"031-258-8344","addr":"경기도 수원시 장안구 송죽동 197번지 5층","category":"학원 - 보습학원"}]},{"lat":"37.302428401","long":"126.99856206","items":[{"name":"동방박사장안점","tel":"031-246-6626","addr":"경기도 수원시 장안구 송죽동 272-38번지","category":"용역 서비스 - 종합용역"}]},{"lat":"37.302653607","long":"126.99736645","items":[{"name":"동신한의원","tel":"031-268-5175","addr":"경기도 수원시 장안구 송죽동 277-52번지","category":"의원 - 한의원"},{"name":"피부천사","tel":"031-247-1479","addr":"경기도 수원시 장안구 송죽동 277-52번지","category":"회원제형태 - 기타4"}]},{"lat":"37.299707302","long":"127.00741603","items":[{"name":"동아세무회계사무소","tel":"031-258-5111","addr":"경기도 수원시 장안구 송죽동 504-3번지 태종빌딩 302호","category":"용역 서비스 - 법률회계서비스(개인)"},{"name":"약산골흑염소탕","tel":"031-242-2030","addr":"경기도 수원시 장안구 송죽동 504-3번지 1층","category":"일반휴게음식 - 일반한식"},{"name":"윤인중세무회계사무소","tel":"031-255-3200","addr":"경기도 수원시 장안구 송죽동 504-3번지 태종빌딩 2층 1호","category":"용역 서비스 - 법률회계서비스(개인)"},{"name":"이희대세무회계사","tel":"031-254-6833","addr":"경기도 수원시 장안구 송죽동 504-3번지","category":"용역 서비스 - 법률회계서비스(개인)"},{"name":"한언기획","tel":"031-548-2435","addr":"경기도 수원시 장안구 송죽동 504-3번지 태종빌딩 4층 1호","category":"용역 서비스 - 종합용역"}]},{"lat":"37.30915912","long":"127.0021826","items":[{"name":"동양인쇄","tel":"031-245-4232","addr":"경기도 수원시 장안구 송죽동 108-13번지 입지주택 나동 401호","category":"서적문구 - 출판 및 인쇄물"}]},{"lat":"37.305203603","long":"127.00028767","items":[{"name":"동주","tel":"031-244-7065","addr":"경기도 수원시 장안구 송죽동 442-29번지 동방빌라","category":"의류 - 아동의류"}]},{"lat":"37.295535509","long":"127.0085887","items":[{"name":"동진약국","tel":"031-255-1261","addr":"경기도 수원시 장안구 송죽동 389-40번지","category":"약국 - 약국"}]},{"lat":"37.307618372","long":"127.00234053","items":[{"name":"동해무역","tel":"","addr":"경기도 수원시 장안구 송죽동 144번지","category":"신변잡화 - 기타잡화"}]},{"lat":"37.310096184","long":"127.00333318","items":[{"name":"동화메디칼","tel":"031-253-6646","addr":"경기도 수원시 장안구 송죽동 92-7번지 성화빌라트","category":"음료식품 - 기타음료식품"}]},{"lat":"37.296652911","long":"127.00397596","items":[{"name":"동화인테리어","tel":"031-254-1514","addr":"경기도 수원시 장안구 송죽동 392-6번지","category":"직물 - 카페트,커튼,천막,지물"},{"name":"배달돼지 (정자점)","tel":"031-246-5535","addr":"경기도 수원시 장안구 송죽동 392-6번지","category":"일반휴게음식 - 일반한식"},{"name":"태선정육점","tel":"031-246-6801","addr":"경기도 수원시 장안구 송죽동 392-6번지","category":"음료식품 - 정육점"}]},{"lat":"37.301923802","long":"126.99791918","items":[{"name":"돼지새마을운동","tel":"031-226-4025","addr":"경기도 수원시 장안구 송죽동 277-19번지 1층","category":"일반휴게음식 - 일반한식"}]},{"lat":"37.300707434","long":"127.00752888","items":[{"name":"된장녀","tel":"031-247-8887","addr":"경기도 수원시 장안구 송죽동 501-13번지 옥경빌딩 1층","category":"음료식품 - 기타음료식품"},{"name":"쏘네일","tel":"","addr":"경기도 수원시 장안구 송죽동 501-13번지 옥경빌딩 1층 2호","category":"보건위생 - 피부미용실"},{"name":"와이 (WAI)","tel":"","addr":"경기도 수원시 장안구 송죽동 501-13번지 옥경빌딩 1층 105호","category":"문화.취미 - 문화취미기타"},{"name":"한울어린이집[아이행복]","tel":"031-254-9080","addr":"경기도 수원시 장안구 송죽동 501-13번지 옥경빌딩 2층","category":"학원 - 유아원"},{"name":"한일슈퍼","tel":"031-245-8946","addr":"경기도 수원시 장안구 송죽동 501-13번지 옥경빌딩 1층 4호","category":"유통업 영리 - 슈퍼마켓"}]},{"lat":"37.305681165","long":"127.00431448","items":[{"name":"두근두근정육점","tel":"070-4248-8696","addr":"경기도 수원시 장안구 송죽동 201번지 103호","category":"음료식품 - 정육점"}]},{"lat":"37.303897148","long":"127.00297221","items":[{"name":"두꺼비청소","tel":"031-253-4820","addr":"경기도 수원시 장안구 송죽동 453-3번지","category":"용역 서비스 - 종합용역"},{"name":"참만나족발","tel":"031-258-7477","addr":"경기도 수원시 장안구 송죽동 453-3번지 1층","category":"일반휴게음식 - 일반한식"},{"name":"호연가맥","tel":"031-257-2181","addr":"경기도 수원시 장안구 송죽동 453-3번지 1층","category":"일반휴게음식 - 주점"}]},{"lat":"37.303095233","long":"127.0038971","items":[{"name":"듀폰모바일","tel":"031-253-9200","addr":"경기도 수원시 장안구 송죽동 459번지 1층","category":"사무통신 - 통신기기"},{"name":"미니민살롱","tel":"031-308-0148","addr":"경기도 수원시 장안구 송죽동 459번지 1층","category":"보건위생 - 피부미용실"},{"name":"붕붕상사","tel":"031-255-2237","addr":"경기도 수원시 장안구 송죽동 459번지","category":"자동차정비 유지 - 자동차부품"},{"name":"사요싸요","tel":"","addr":"경기도 수원시 장안구 송죽동 459번지 1층","category":"신변잡화 - 기타잡화"},{"name":"이가가머리하는집","tel":"031-258-1158","addr":"경기도 수원시 장안구 송죽동 459번지","category":"보건위생 - 미용원"},{"name":"커씨","tel":"031-247-0297","addr":"경기도 수원시 장안구 송죽동 459번지 1층","category":"일반휴게음식 - 서양음식"}]},{"lat":"37.310708876","long":"127.00386336","items":[{"name":"드림요양원","tel":"031-246-1366","addr":"경기도 수원시 장안구 송죽동 52-16번지","category":"기타의료기관 - 기타의료기관 및 기타"}]},{"lat":"37.30361783","long":"127.00239696","items":[{"name":"디믈리에","tel":"","addr":"경기도 수원시 장안구 송죽동 449-24번지 1층","category":"일반휴게음식 - 서양음식"}]},{"lat":"37.299319928","long":"127.0050362","items":[{"name":"디어아띠 (dear atti)","tel":"031-701-6338","addr":"경기도 수원시 장안구 송죽동 351번지","category":"신변잡화 - 액세서리"}]},{"lat":"37.301175931","long":"127.00836355","items":[{"name":"디클로젯","tel":"031-256-1713","addr":"경기도 수원시 장안구 송죽동 506-13번지 1층 3호","category":"의류 - 정장"},{"name":"아이스월드 (송죽점)","tel":"070-8591-1398","addr":"경기도 수원시 장안구 송죽동 506-13번지 1층 101호","category":"음료식품 - 제과점"},{"name":"청아공방","tel":"02-226-4025","addr":"경기도 수원시 장안구 송죽동 506-13번지 1층","category":"문화.취미 - 문화취미기타"},{"name":"피부이야기","tel":"031-241-7444","addr":"경기도 수원시 장안구 송죽동 506-13번지","category":"보건위생 - 화장품"}]},{"lat":"37.306401986","long":"127.00405506","items":[{"name":"땅땅치킨한일타운점","tel":"031-245-9295","addr":"경기도 수원시 장안구 송죽동 80번지","category":"일반휴게음식 - 스넥"}]},{"lat":"37.302536576","long":"127.00539722","items":[{"name":"땅콩","tel":"070-1869-0645","addr":"경기도 수원시 장안구 송죽동 497-26번지","category":"의류 - 기타의류"},{"name":"신월축산","tel":"031-257-6888","addr":"경기도 수원시 장안구 송죽동 497-26번지","category":"음료식품 - 정육점"},{"name":"흥부와놀부","tel":"031-254-1292","addr":"경기도 수원시 장안구 송죽동 497-26","category":"일반휴게음식 - 일반한식"}]},{"lat":"37.300536241","long":"127.00747247","items":[{"name":"떡볶이DAY","tel":"031-247-8259","addr":"경기도 수원시 장안구 송죽동 501-4번지 1층","category":"일반휴게음식 - 스넥"},{"name":"유클리드보습학원","tel":"031-892-1777","addr":"경기도 수원시 장안구 송죽동 501-4번지 2층","category":"학원 - 기타 교육기관"},{"name":"전주콩나물국밥","tel":"031-247-8787","addr":"경기도 수원시 장안구 송죽동 501-4번지 1층","category":"일반휴게음식 - 일반한식"},{"name":"티앤비(T&B)스포츠","tel":"031-267-6787","addr":"경기도 수원시 장안구 송죽동 501-4번지","category":"의류 - 정장"}]},{"lat":"37.303347401","long":"126.99750175","items":[{"name":"또래","tel":"031-227-3141","addr":"경기도 수원시 장안구 송죽동 277-39번지","category":"회원제형태 - 서적"},{"name":"우정메디칼","tel":"031-241-9755","addr":"경기도 수원시 장안구 송죽동 277-39번지 1층","category":"보건위생 - 의료용품"}]},{"lat":"37.307456171","long":"127.00084031","items":[{"name":"또봉이통닭","tel":"031-252-0606","addr":"경기도 수원시 장안구 송죽동 479번지 1층","category":"일반휴게음식 - 일반한식"}]},{"lat":"37.302563597","long":"127.00583711","items":[{"name":"라리움(RARIUM)","tel":"","addr":"경기도 수원시 장안구 송죽동 497-3번지 Home&Y 1층 101호","category":"문화.취미 - 문화취미기타"}]},{"lat":"37.307789554","long":"127.00469804","items":[{"name":"라온제나","tel":"031-257-0361","addr":"경기도 수원시 장안구 송죽동 67-4번지","category":"일반휴게음식 - 스넥"},{"name":"손드림","tel":"031-256-2650","addr":"경기도 수원시 장안구 송죽동 67-4 외1필지제가동나동호","category":"보건위생 - 화장품"},{"name":"우리지오텍","tel":"031-257-0361","addr":"경기도 수원시 장안구 송죽동 67-4번지","category":"일반휴게음식 - 스넥"}]},{"lat":"37.308618507","long":"127.00341213","items":[{"name":"랑사","tel":"031-426-4779","addr":"경기도 수원시 장안구 송죽동 88-10번지 삼보빌라 가동","category":"용역 서비스 - 기타용역서비스"}]},{"lat":"37.303320458","long":"127.00578075","items":[{"name":"로렌미즈","tel":"031-245-5479","addr":"경기도 수원시 장안구 송죽동 495-17번지 1층","category":"의류 - 정장"},{"name":"밥이보약","tel":"031-241-0458","addr":"경기도 수원시 장안구 송죽동 495-17번지 2층","category":"일반휴게음식 - 일반한식"},{"name":"한일노래연습장","tel":"031-256-9735","addr":"경기도 수원시 장안구 송죽동 495-17번지","category":"레저업소 - 노 래 방"}]},{"lat":"37.307348048","long":"127.00078391","items":[{"name":"로망헤어","tel":"031-252-1123","addr":"경기도 수원시 장안구 송죽동 479-4번지","category":"보건위생 - 미용원"}]},{"lat":"37.309654684","long":"127.00309629","items":[{"name":"로샤헤라","tel":"031-223-5214","addr":"경기도 수원시 장안구 송죽동 98-3번지 성화빌라 4동 401호","category":"의류 - 내의판매"}]},{"lat":"37.298067455","long":"127.00695351","items":[{"name":"로타리여관","tel":"031-255-3927","addr":"경기도 수원시 장안구 송죽동 380-2번지","category":"숙박업 - 여관/기타숙박업"},{"name":"운동장로타리식당","tel":"031-255-3927","addr":"경기도 수원시 장안구 송죽동 380-2번지","category":"일반휴게음식 - 일반한식"}]},{"lat":"37.296400628","long":"127.00236317","items":[{"name":"루이마켓","tel":"031-245-4886","addr":"경기도 수원시 장안구 송죽동 402-1번지 1층","category":"의류 - 정장"}]},{"lat":"37.302509572","long":"127.0027015","items":[{"name":"루팡","tel":"","addr":"경기도 수원시 장안구 송죽동 456-15번지 2층","category":"일반휴게음식 - 일반한식"},{"name":"서래갈매기(만석공원점)","tel":"031-245-9567","addr":"경기도 수원시 장안구 송죽동 456-15번지 1층","category":"일반휴게음식 - 일반한식"}]},{"lat":"37.301626519","long":"127.00633335","items":[{"name":"리조이스음악학원","tel":"031-243-2346","addr":"경기도 수원시 장안구 송죽동 460-23번지 인아빌딩 2층","category":"학원 - 예·체능계학원"},{"name":"우리세탁소","tel":"031-245-3989","addr":"경기도 수원시 장안구 송죽동 460-23번지","category":"수리서비스 - 세탁소"},{"name":"청호디지털OA","tel":"031-241-8244","addr":"경기도 수원시 장안구 송죽동 460-23번지","category":"사무통신 - 컴퓨터"}]},{"lat":"37.304428743","long":"127.00144948","items":[{"name":"마마트 편의점","tel":"","addr":"경기도 수원시 장안구 송죽동 447번지 1층","category":"유통업 영리 - 편 의 점"},{"name":"마블라운지","tel":"031-256-1999","addr":"경기도 수원시 장안구 송죽동 447번지 갤럭시프라자 1층","category":"일반휴게음식 - 일반한식"},{"name":"수성약국","tel":"031-252-0888","addr":"경기도 수원시 장안구 송죽동 447번지 갤럭시웨딩홀 1층 103호","category":"약국 - 약국"},{"name":"연세수요양병원","tel":"031-906-2600","addr":"경기도 수원시 장안구 송죽동 447번지","category":"병원 - 병원"}]},{"lat":"37.296121306","long":"127.00403235","items":[{"name":"마이컴","tel":"031-258-3339","addr":"경기도 수원시 장안구 송죽동 397","category":"사무통신 - 컴퓨터"},{"name":"컴시티(COMCITY)","tel":"031-269-3555","addr":"경기도 수원시 장안구 송죽동 397번지","category":"사무통신 - 컴퓨터"}]},{"lat":"37.306843493","long":"127.00245334","items":[{"name":"마임 영화지사","tel":"031-241-2248","addr":"경기도 수원시 장안구 송죽동 147번지 옥산빌딩 4층","category":"보건위생 - 화장품"},{"name":"한일철물","tel":"031-203-7138","addr":"경기도 수원시 장안구 송죽동 147번지 옥산빌딩","category":"건축자재 - 목재·석재·철물"}]},{"lat":"37.306068613","long":"127.00323164","items":[{"name":"마포구이촌","tel":"031-269-2092","addr":"경기도 수원시 장안구 송죽동 198번지 1층","category":"일반휴게음식 - 일반한식"}]},{"lat":"37.306284858","long":"127.00333316","items":[{"name":"만석","tel":"031-241-2297","addr":"경기도 수원시 장안구 송죽동 196-2번지","category":"일반휴게음식 - 일반한식"},{"name":"주주총회","tel":"031-245-0733","addr":"경기도 수원시 장안구 송죽동 196-2번지","category":"일반휴게음식 - 주점"}]},{"lat":"37.302455511","long":"127.0028143","items":[{"name":"만석닭갈비&닭발","tel":"","addr":"경기도 수원시 장안구 송죽동 456-14번지","category":"일반휴게음식 - 일반한식"},{"name":"소리바다(노래연습장)","tel":"031-243-2635","addr":"경기도 수원시 장안구 송죽동 456-14번지 지층","category":"레저업소 - 노 래 방"},{"name":"하이","tel":"031-269-1532","addr":"경기도 수원시 장안구 송죽동 456-14번지 2층","category":"일반휴게음식 - 일반한식"}]},{"lat":"37.302653668","long":"126.99888914","items":[{"name":"만석이모네조개구이","tel":"031-247-4066","addr":"경기도 수원시 장안구 송죽동 272-37번지","category":"일반휴게음식 - 일반한식"},{"name":"셰프의포차","tel":"031-242-1209","addr":"경기도 수원시 장안구 송죽동 272-37번지 2층","category":"일반휴게음식 - 일반한식"},{"name":"주식회사 대흥티비엠","tel":"031-613-2123","addr":"경기도 수원시 장안구 송죽동 272-37번지","category":"용역 서비스 - 종합용역"}]},{"lat":"37.299346935","long":"127.00608512","items":[{"name":"만석자동차공업사","tel":"031-254-8257","addr":"경기도 수원시 장안구 송죽동 503-9번지","category":"자동차정비 유지 - 자동차정비"}]},{"lat":"37.302734828","long":"127.00266767","items":[{"name":"만석쭈꾸미","tel":"031-244-5952","addr":"경기도 수원시 장안구 송죽동 456-8번지 1층","category":"일반휴게음식 - 일반한식"},{"name":"부산밀면","tel":"031-248-3999","addr":"경기도 수원시 장안구 송죽동 456-8번지 1층","category":"일반휴게음식 - 일반한식"}]},{"lat":"37.303041146","long":"127.00555515","items":[{"name":"맛골식당","tel":"031-254-5501","addr":"경기도 수원시 장안구 송죽동 495-26번지 문화빌 1층 102호","category":"일반휴게음식 - 일반한식"},{"name":"아구일번지","tel":"031-254-5934","addr":"경기도 수원시 장안구 송죽동 495-26번지 문화빌","category":"일반휴게음식 - 일반한식"},{"name":"안스게장","tel":"031-0000-0000","addr":"경기도 수원시 장안구 송죽동 495-26번지 문화빌 1층","category":"일반휴게음식 - 일반한식"}]},{"lat":"37.301959887","long":"127.00667174","items":[{"name":"매드퀸","tel":"031-258-0952","addr":"경기도 수원시 장안구 송죽동 497-16번지 1층","category":"일반휴게음식 - 일반한식"},{"name":"현화미용실","tel":"031-247-1132","addr":"경기도 수원시 장안구 송죽동 497-16번지","category":"보건위생 - 미용원"}]},{"lat":"37.299986622","long":"127.00733709","items":[{"name":"맥스카","tel":"031-257-3045","addr":"경기도 수원시 장안구 송죽동 504번지 삼성아트빌 101,102호","category":"자동차정비 유지 - 가타자동차서비스"}]},{"lat":"37.303095232","long":"127.001833","items":[{"name":"먹뱅이","tel":"031-245-9293","addr":"경기도 수원시 장안구 송죽동 448-21번지","category":"일반휴게음식 - 일반한식"},{"name":"스포츠매니아","tel":"031-243-1199","addr":"경기도 수원시 장안구 송죽동 448-21번지 타임호프","category":"레져용품 - 스포츠·레져용품"}]},{"lat":"37.306978646","long":"127.00250974","items":[{"name":"메인로드(북수원점)","tel":"031-252-7714","addr":"경기도 수원시 장안구 송죽동 146-3번지","category":"자동차정비 유지 - 자동차부품"}]},{"lat":"37.297067379","long":"127.00433688","items":[{"name":"멕시칸","tel":"031-254-8556","addr":"경기도 수원시 장안구 송죽동 391-9번지 1층","category":"일반휴게음식 - 일반한식"}]},{"lat":"37.301121855","long":"127.00866808","items":[{"name":"명품더노래연습장","tel":"031-242-2423","addr":"경기도 수원시 장안구 송죽동 506-3번지 목화빌딩 3층","category":"레저업소 - 노 래 방"},{"name":"목화방","tel":"031-247-2634","addr":"경기도 수원시 장안구 송죽동 506-3번지","category":"가구 - 철제가구"},{"name":"아이러브 동물병원","tel":"031-241-7551","addr":"경기도 수원시 장안구 송죽동 506-3번지 4층","category":"기타의료기관 - 동물병원"},{"name":"이디야커피 수원장안구청점","tel":"031-246-2634","addr":"경기도 수원시 장안구 송죽동 506-3번지 2층","category":"일반휴게음식 - 서양음식"}]},{"lat":"37.305789297","long":"127.00275789","items":[{"name":"명품효소원","tel":"031-111-1111","addr":"경기도 수원시 장안구 송죽동 214-1번지 5,6층","category":"보건위생 - 피부미용실"},{"name":"팡팡노래연습장","tel":"031-241-0983","addr":"경기도 수원시 장안구 송죽동 214-1번지 지층","category":"레저업소 - 노 래 방"}]},{"lat":"37.305762259","long":"127.00420169","items":[{"name":"뮤엠영어한일학원","tel":"031-243-1980","addr":"경기도 수원시 장안구 송죽동 200-8번지 가동 2층 200-8외2필지","category":"학원 - 보습학원"},{"name":"비타민약국","tel":"031-253-5288","addr":"경기도 수원시 장안구 송죽동 200-8번지 가동 1층","category":"약국 - 약국"},{"name":"선내과의원","tel":"031-242-8275","addr":"경기도 수원시 장안구 송죽동 200-8번지 1층","category":"의원 - 의원"}]},{"lat":"37.299842508","long":"127.00572422","items":[{"name":"미니어쳐마녀공방","tel":"031-247-8001","addr":"경기도 수원시 장안구 송죽동 503번지 B01호","category":"문화.취미 - 문화취미기타"},{"name":"윈스컨설팅","tel":"031-267-1044","addr":"경기도 수원시 장안구 송죽동 503번지","category":"회원제형태 - 기타4"}]},{"lat":"37.302951017","long":"126.9992275","items":[{"name":"미랑","tel":"031-255-7200","addr":"경기도 수원시 장안구 송죽동 272-22번지 1층","category":"일반휴게음식 - 일반한식"}]},{"lat":"37.298932466","long":"127.00602871","items":[{"name":"미스터브르즈커피","tel":"031-257-7933","addr":"경기도 수원시 장안구 송죽동 377-20","category":"일반휴게음식 - 서양음식"}]},{"lat":"37.297427767","long":"127.00555495","items":[{"name":"미스터피자북수원점","tel":"031-248-2484","addr":"경기도 수원시 장안구 송죽동 385-10번지 1층","category":"일반휴게음식 - 서양음식"}]},{"lat":"37.304509751","long":"126.99820099","items":[{"name":"민속떡집","tel":"031-251-6037","addr":"경기도 수원시 장안구 송죽동 443-30번지","category":"음료식품 - 제과점"},{"name":"은샘컴퓨터","tel":"070-8723-1214","addr":"경기도 수원시 장안구 송죽동 443-30번지 증축건물 1,2층","category":"수리서비스 - 사무·통신기기수리"}]},{"lat":"37.296121294","long":"127.00492333","items":[{"name":"바로공사","tel":"031-111-1111","addr":"경기도 수원시 장안구 송죽동 395-11번지 정우빌딩 3층 312호","category":"용역 서비스 - 기타용역서비스"},{"name":"스카이플러스학원","tel":"031-252-4129","addr":"경기도 수원시 장안구 송죽동 395-11번지 1층","category":"학원 - 보습학원"},{"name":"정우빌종합기업","tel":"031-8007-3388","addr":"경기도 수원시 장안구 송죽동 395-11번지","category":"용역 서비스 - 부동산 중개·임대"},{"name":"티에스 메디칼","tel":"031-448-7880","addr":"경기도 수원시 장안구 송죽동 395-11번지 4층 406호","category":"보건위생 - 화장품"}]},{"lat":"37.303374515","long":"126.99983656","items":[{"name":"바른치킨만석점","tel":"031-242-3713","addr":"경기도 수원시 장안구 송죽동 258-3번지 1층","category":"일반휴게음식 - 일반한식"},{"name":"씨유만석공원점","tel":"031-258-2655","addr":"경기도 수원시 장안구 송죽동 258-3번지","category":"유통업 영리 - 편 의 점"},{"name":"이지독","tel":"070-6854-9963","addr":"경기도 수원시 장안구 송죽동 258-3번지 윤중빌딩 3층","category":"일반휴게음식 - 서양음식"},{"name":"포포","tel":"031-254-2332","addr":"경기도 수원시 장안구 송죽동 258-3번지 윤중빌딩 2층","category":"일반휴게음식 - 서양음식"}]},{"lat":"37.303347516","long":"127.00152846","items":[{"name":"바오치킨","tel":"031-251-9192","addr":"경기도 수원시 장안구 송죽동 448-24번지 그린빌딩 1층","category":"일반휴게음식 - 스넥"},{"name":"엔펍(N Pub)","tel":"031-248-0033","addr":"경기도 수원시 장안구 송죽동 448-24번지 그린빌딩 2층","category":"일반휴게음식 - 주점"}]},{"lat":"37.301554346","long":"127.00866811","items":[{"name":"바이 에스(by S)","tel":"031-111-1111","addr":"경기도 수원시 장안구 송죽동 506번지 A동 1층","category":"의류 - 정장"},{"name":"비이이피(BEEP)","tel":"031-246-1464","addr":"경기도 수원시 장안구 송죽동 506번지 A동 지층","category":"일반휴게음식 - 주점"},{"name":"요기타코(Yogitako Beer)","tel":"031-111-1111","addr":"경기도 수원시 장안구 송죽동 506번지 A동 1층","category":"일반휴게음식 - 일반한식"},{"name":"피크바이짐 북수원점","tel":"031-246-1230","addr":"경기도 수원시 장안구 송죽동 506번지 A동 2층","category":"레저업소 - 헬스클럽"},{"name":"한스델리","tel":"031-244-7555","addr":"경기도 수원시 장안구 송죽동 506번지 A동 2층","category":"일반휴게음식 - 일반한식"}]},{"lat":"37.304041301","long":"127.00447236","items":[{"name":"배남은재즈댄스학원","tel":"031-268-9396","addr":"경기도 수원시 장안구 송죽동 495번지 4층","category":"회원제형태 - 레져업소"},{"name":"비달라의댄스&핫요가","tel":"031-252-5970","addr":"경기도 수원시 장안구 송죽동 495번지 거봉빌딩 4층","category":"회원제형태 - 레져업소"},{"name":"와이케이덴탈(YK Dental)","tel":"031-248-2820","addr":"경기도 수원시 장안구 송죽동 495번지 3층","category":"보건위생 - 의료용품"},{"name":"타마시헤어 북수원2호점","tel":"031-251-3684","addr":"경기도 수원시 장안구 송죽동 495번지 봉주빌딩 2층","category":"보건위생 - 미용원"},{"name":"파리바게뜨 한일점","tel":"031-246-8281","addr":"경기도 수원시 장안구 송죽동 495번지 102호 , 201호","category":"음료식품 - 제과점"}]},{"lat":"37.303428488","long":"126.99738895","items":[{"name":"백두산아놀드","tel":"031-245-4478","addr":"경기도 수원시 장안구 송죽동 488번지","category":"일반휴게음식 - 일반한식"},{"name":"언니키친","tel":"","addr":"경기도 수원시 장안구 송죽동 488번지 구두수선 1층 491호","category":"일반휴게음식 - 일반한식"}]},{"lat":"37.29659884","long":"127.00477672","items":[{"name":"백반돼선생","tel":"031-257-0043","addr":"경기도 수원시 장안구 송죽동 393-7번지","category":"일반휴게음식 - 일반한식"}]},{"lat":"37.303041157","long":"127.00497991","items":[{"name":"백호종합관리(주)","tel":"031-251-5051","addr":"경기도 수원시 장안구 송죽동 496-23번지 306호","category":"용역 서비스 - 종합용역"},{"name":"성일사우나","tel":"031-246-6489","addr":"경기도 수원시 장안구 송죽동 496-23번지","category":"보건위생 - 사우나"},{"name":"신천기획","tel":"031-258-9125","addr":"경기도 수원시 장안구 송죽동 496-23번지 성일빌딩 701호","category":"용역 서비스 - 종합용역"},{"name":"연합뉴스경기업무지사","tel":"031-238-2222","addr":"경기도 수원시 장안구 송죽동 496-23번지","category":"회원제형태 - 서적"},{"name":"일팔당구클럽","tel":"031-258-0180","addr":"경기도 수원시 장안구 송죽동 496-23번지 2층","category":"레저업소 - 당 구 장"},{"name":"하마커뮤니케이션","tel":"070-4400-7727","addr":"경기도 수원시 장안구 송죽동 496-23번지 407호","category":"용역 서비스 - 종합용역"}]},{"lat":"37.296202404","long":"127.00261129","items":[{"name":"버디버디영어교습소","tel":"070-4898-0551","addr":"경기도 수원시 장안구 송죽동 398-32번지 1층 1호","category":"학원 - 외국어학원"},{"name":"홍사나","tel":"031-890-4001","addr":"경기도 수원시 장안구 송죽동 398-32번지 1층","category":"건강식품 - 기타건강식품"}]},{"lat":"37.302122073","long":"127.00661535","items":[{"name":"베리스코스메틱체인2호점","tel":"031-227-9765","addr":"경기도 수원시 장안구 송죽동 497-14번지 1층","category":"보건위생 - 화장품"}]},{"lat":"37.303176295","long":"127.00572434","items":[{"name":"베이커리 일상","tel":"031-241-5988","addr":"경기도 수원시 장안구 송죽동 495-18번지 올림픽빌라 104호","category":"음료식품 - 제과점"}]},{"lat":"37.302482467","long":"126.9986974","items":[{"name":"별미","tel":"031-243-2223","addr":"경기도 수원시 장안구 송죽동 272-43번지 1층","category":"일반휴게음식 - 일반한식"}]},{"lat":"37.296121312","long":"127.00300603","items":[{"name":"별아라","tel":"","addr":"경기도 수원시 장안구 송죽동 398-19번지","category":"일반휴게음식 - 서양음식"},{"name":"진곱창식당","tel":"031-44-1515","addr":"경기도 수원시 장안구 송죽동 398-19번지","category":"일반휴게음식 - 일반한식"},{"name":"현대가구","tel":"031-251-9567","addr":"경기도 수원시 장안구 송죽동 398-19","category":"가구 - 일반가구"}]},{"lat":"37.304347655","long":"127.00181042","items":[{"name":"보인","tel":"031-251-4493","addr":"경기도 수원시 장안구 송죽동 449번지","category":"주방용구 - 정수기"}]},{"lat":"37.303789021","long":"127.00384072","items":[{"name":"복성루","tel":"031-246-7003","addr":"경기도 수원시 장안구 송죽동 453-20번지","category":"일반휴게음식 - 중국식"}]},{"lat":"37.302815857","long":"126.99903576","items":[{"name":"본스치킨(만석공원점)","tel":"031-248-9282","addr":"경기도 수원시 장안구 송죽동 272-23번지","category":"일반휴게음식 - 스넥"},{"name":"차씨네선술집","tel":"031-245-9719","addr":"경기도 수원시 장안구 송죽동 272-23번지","category":"일반휴게음식 - 일반한식"},{"name":"호돌이전파사","tel":"031-241-9199","addr":"경기도 수원시 장안구 송죽동 272-23번지 1층","category":"일반휴게음식 - 일반한식"}]},{"lat":"37.306311889","long":"127.00250974","items":[{"name":"부강인터내셔널 주식회사","tel":"031-242-5784","addr":"경기도 수원시 장안구 송죽동 185번지 2층 201호","category":"기타 - 기계공구"},{"name":"우리노래연습장","tel":"031-253-1882","addr":"경기도 수원시 장안구 송죽동 185번지 지하","category":"레저업소 - 노 래 방"},{"name":"카메이크업","tel":"031-256-7174","addr":"경기도 수원시 장안구 송죽동 185번지 101호","category":"자동차정비 유지 - 카인테리어"},{"name":"칼디(kaldi)","tel":"031-252-3958","addr":"경기도 수원시 장안구 송죽동 185번지 1층 103호","category":"일반휴게음식 - 서양음식"}]},{"lat":"37.300680384","long":"127.00798003","items":[{"name":"북경","tel":"031-242-5521","addr":"경기도 수원시 장안구 송죽동 506-7번지","category":"일반휴게음식 - 중국식"},{"name":"예당","tel":"031-252-0723","addr":"경기도 수원시 장안구 송죽동 506-7번지","category":"음료식품 - 제과점"},{"name":"팥동네","tel":"031-246-0555","addr":"경기도 수원시 장안구 송죽동 506-7번지 송죽빌딩","category":"음료식품 - 기타음료식품"}]},{"lat":"37.305816321","long":"127.00161865","items":[{"name":"북수원마트","tel":"031-248-1008","addr":"경기도 수원시 장안구 송죽동 445-1번지","category":"의류 - 내의판매"},{"name":"샹떼PC방 수원송죽동점","tel":"","addr":"경기도 수원시 장안구 송죽동 445-1번지 대명빌딩 2층","category":"레저업소 - 기타레져업소"},{"name":"타이마이더스","tel":"031-255-9949","addr":"경기도 수원시 장안구 송죽동 445-1번지 대명빌딩 3층","category":"신변잡화 - 기타잡화"}]},{"lat":"37.305428877","long":"127.00133666","items":[{"name":"블럭연기학원","tel":"031-256-2545","addr":"경기도 수원시 장안구 송죽동 445-4번지 운학빌딩 4층 전체","category":"회원제형태 - 학원"}]},{"lat":"37.301707615","long":"127.00619801","items":[{"name":"비봉철물","tel":"031-247-7576","addr":"경기도 수원시 장안구 송죽동 460-4번지","category":"건축자재 - 목재·석재·철물"},{"name":"수원유리총판","tel":"031-242-5485","addr":"경기도 수원시 장안구 송죽동 460-4번지","category":"건축자재 - 유리"}]},{"lat":"37.301455234","long":"127.00864554","items":[{"name":"비비드탠 브라운태닝 화이트태닝","tel":"031-244-1804","addr":"경기도 수원시 장안구 송죽동 506번지 B동 3층","category":"보건위생 - 피부미용실"},{"name":"새솔언어,심리치료센터","tel":"031-241-7073","addr":"경기도 수원시 장안구 송죽동 506번지 3층","category":"보건위생 - 기타대인서비스"},{"name":"아리가또맘마","tel":"031-248-9887","addr":"경기도 수원시 장안구 송죽동 506번지 B동 2층","category":"일반휴게음식 - 일반한식"},{"name":"유노정보통신 북수원","tel":"031-251-8884","addr":"경기도 수원시 장안구 송죽동 506번지 1층","category":"사무통신 - 통신기기"},{"name":"정우사진실","tel":"031-253-4789","addr":"경기도 수원시 장안구 송죽동 506번지","category":"광학제품 - 사진관"},{"name":"정우스튜디오","tel":"031-253-4789","addr":"경기도 수원시 장안구 송죽동 506번지","category":"광학제품 - 사진관"}]},{"lat":"37.303563735","long":"127.0000283","items":[{"name":"비어투나이트","tel":"070-8622-9222","addr":"경기도 수원시 장안구 송죽동 444-13번지 1층","category":"일반휴게음식 - 일반한식"},{"name":"슈퍼마켓","tel":"031-241-8289","addr":"경기도 수원시 장안구 송죽동 444-13번지 1층","category":"음료식품 - 기타음료식품"},{"name":"피앤케이테크","tel":"","addr":"경기도 수원시 장안구 송죽동 444-13번지","category":"자동차정비 유지 - 자동차부품"}]},{"lat":"37.304176465","long":"127.00319779","items":[{"name":"비어하우스","tel":"031-244-4291","addr":"경기도 수원시 장안구 송죽동 453번지","category":"일반휴게음식 - 주점"},{"name":"주몽왕대포","tel":"031-248-0007","addr":"경기도 수원시 장안구 송죽동 453번지","category":"일반휴게음식 - 일반한식"},{"name":"진도수산","tel":"031-255-8838","addr":"경기도 수원시 장안구 송죽동 453번지","category":"일반휴게음식 - 일식·회집"}]},{"lat":"37.297932344","long":"127.00541963","items":[{"name":"비젼인테리어","tel":"031-247-0193","addr":"경기도 수원시 장안구 송죽동 385-1번지","category":"건축자재 - 인테리어전문"},{"name":"윤이나헤어아트","tel":"031-258-4111","addr":"경기도 수원시 장안구 송죽동 385-1번지","category":"보건위생 - 미용원"},{"name":"프라임엠스쿨학원","tel":"031-252-0984","addr":"경기도 수원시 장안구 송죽동 385-1번지 2층","category":"학원 - 보습학원"}]},{"lat":"37.301986955","long":"127.00522802","items":[{"name":"비플랜시스템즈","tel":"031-898-8586","addr":"경기도 수원시 장안구 송죽동 460-11번지 소망빌라 A동 101호","category":"사무통신 - 컴퓨터"}]},{"lat":"37.296319535","long":"127.00225039","items":[{"name":"빛의헤어","tel":"031-243-7734","addr":"경기도 수원시 장안구 송죽동 402-10번지","category":"보건위생 - 미용원"}]},{"lat":"37.303014135","long":"127.00444978","items":[{"name":"쁘띠래쉬","tel":"070-8770-3162","addr":"경기도 수원시 장안구 송죽동 496-13번지","category":"보건위생 - 화장품"}]},{"lat":"37.307681425","long":"127.00503644","items":[{"name":"쁠라또","tel":"02-111-1111","addr":"경기도 수원시 장안구 송죽동 67-2번지 2층","category":"일반휴게음식 - 일반한식"},{"name":"주식회사 유에이치에이","tel":"02-1111-1111","addr":"경기도 수원시 장안구 송죽동 67-2번지","category":"서적문구 - 과학기자재"}]},{"lat":"37.310285388","long":"127.0045853","items":[{"name":"사단법인 청소년미디어네트워크","tel":"070-4196-5780","addr":"경기도 수원시 장안구 송죽동 48-1번지 201호","category":"학원 - 기타 교육기관"}]},{"lat":"37.307203896","long":"127.00408892","items":[{"name":"사단법인역사체험인성교육협회","tel":"031-252-2017","addr":"경기도 수원시 장안구 송죽동 85-1번지 4층","category":"학원 - 기타 교육기관"},{"name":"양푼네김치찌개","tel":"031-227-9282","addr":"경기도 수원시 장안구 송죽동 85-1번지 수천빌딩 1층","category":"일반휴게음식 - 일반한식"},{"name":"여기서보자","tel":"031-207-3315","addr":"경기도 수원시 장안구 송죽동 85-1번지 수천빌딩 1층 102호","category":"일반휴게음식 - 일반한식"},{"name":"오투솔로몬독서실","tel":"031-247-3575","addr":"경기도 수원시 장안구 송죽동 85-1번지","category":"학원 - 독서실"},{"name":"위너학원","tel":"031-242-1577","addr":"경기도 수원시 장안구 송죽동 85-1번지 수천빌딩 301호","category":"학원 - 보습학원"},{"name":"크라우드헤어크리닉","tel":"031-258-0942","addr":"경기도 수원시 장안구 송죽동 85-1번지 수천빌딩","category":"보건위생 - 미용원"},{"name":"탑음악교습소","tel":"031-242-1577","addr":"경기도 수원시 장안구 송죽동 85-1번지 수천빌딩 303호","category":"학원 - 예·체능계학원"},{"name":"힘찬태권도장","tel":"031-242-1577","addr":"경기도 수원시 장안구 송죽동 85-1번지 수천빌딩 302호","category":"학원 - 예·체능계학원"}]},{"lat":"37.307456189","long":"127.00289325","items":[{"name":"사단법인한정기신수련협회(분사무소)","tel":"031-246-1154","addr":"경기도 수원시 장안구 송죽동 136-5번지 3층","category":"용역 서비스 - 기타용역서비스"},{"name":"석문한의원","tel":"031-251-1075","addr":"경기도 수원시 장안구 송죽동 136-5번지 1층","category":"의원 - 한의원"}]},{"lat":"37.302401422","long":"127.00541978","items":[{"name":"사랑방쉼터","tel":"031-247-1418","addr":"경기도 수원시 장안구 송죽동 497-25번지","category":"건강식품 - 기타건강식품"}]},{"lat":"37.295986137","long":"127.00511505","items":[{"name":"사이보모텔","tel":"031-247-2751","addr":"경기도 수원시 장안구 송죽동 395-12번지","category":"숙박업 - 여관/기타숙박업"},{"name":"춘하추동","tel":"031-247-2971","addr":"경기도 수원시 장안구 송죽동 395-12번지 1층","category":"일반휴게음식 - 일반한식"}]},{"lat":"37.304509823","long":"127.00069375","items":[{"name":"산하복집","tel":"031-242-9748","addr":"경기도 수원시 장안구 송죽동 444-3번지","category":"일반휴게음식 - 일반한식"},{"name":"스타노래연습장","tel":"031-243-8865","addr":"경기도 수원시 장안구 송죽동 444-3번지 지층","category":"레저업소 - 노 래 방"}]},{"lat":"37.301374259","long":"127.00525056","items":[{"name":"살롱 드 발레","tel":"02-2292-0503","addr":"경기도 수원시 장안구 송죽동 461-3번지 지하 101호","category":"수리서비스 - 세탁소"}]},{"lat":"37.299094655","long":"127.00583698","items":[{"name":"삼성가나씨앤씨","tel":"031-245-5316","addr":"경기도 수원시 장안구 송죽동 377-10번지 1층","category":"사무통신 - 컴퓨터"},{"name":"와이케이(YK)상사","tel":"031-326-3175","addr":"경기도 수원시 장안구 송죽동 377-10번지","category":"의류 - 아동의류"}]},{"lat":"37.297175486","long":"127.00528426","items":[{"name":"삼성키랜드","tel":"031-238-3636","addr":"경기도 수원시 장안구 송죽동 385-15번지","category":"건축자재 - 목재·석재·철물"}]},{"lat":"37.304789159","long":"127.00217136","items":[{"name":"상상케이크","tel":"031-252-3685","addr":"경기도 수원시 장안구 송죽동 450번지 101호","category":"일반휴게음식 - 스넥"}]},{"lat":"37.30825809","long":"127.00141557","items":[{"name":"새피카소미술교습소","tel":"031-254-0150","addr":"경기도 수원시 장안구 송죽동 476-3","category":"학원 - 예·체능계학원"}]},{"lat":"37.298815372","long":"127.00369403","items":[{"name":"샌드앤푸드만석공원점","tel":"031-253-9088","addr":"경기도 수원시 장안구 송죽동 365-5번지","category":"일반휴게음식 - 스넥"},{"name":"핀다","tel":"031-245-9800","addr":"경기도 수원시 장안구 송죽동 365-5번지 1층","category":"일반휴게음식 - 서양음식"}]},{"lat":"37.299094672","long":"127.00505875","items":[{"name":"샤인덴탈","tel":"070-8841-2875","addr":"경기도 수원시 장안구 송죽동 377-18번지 1층","category":"보건위생 - 의료용품"}]},{"lat":"37.298599127","long":"127.00350229","items":[{"name":"서란횟집","tel":"031-111-1111","addr":"경기도 수원시 장안구 송죽동 370-6번지","category":"일반휴게음식 - 일식·회집"}]},{"lat":"37.299707346","long":"127.00606258","items":[{"name":"서울과학사","tel":"031-257-5444","addr":"경기도 수원시 장안구 송죽동 503-3번지","category":"회원제형태 - 기타4"},{"name":"소나무(SONAMOO)","tel":"031-256-1470","addr":"경기도 수원시 장안구 송죽동 503-3번지 1층","category":"음료식품 - 기타음료식품"},{"name":"송죽멘토해법영어전문학원","tel":"031-255-3140","addr":"경기도 수원시 장안구 송죽동 503-3번지 1층","category":"학원 - 외국어학원"}]},{"lat":"37.303536716","long":"127.00522807","items":[{"name":"서울치과","tel":"031-252-2834","addr":"경기도 수원시 장안구 송죽동 495-6번지 전국화물자동차 3동 3호","category":"의원 - 치과의원"},{"name":"아모레카운셀러","tel":"031-269-2177","addr":"경기도 수원시 장안구 송죽동 495-6번지 화물공제조합빌딩 3층","category":"보건위생 - 화장품"},{"name":"아모레카운셀러","tel":"031-269-2177","addr":"경기도 수원시 장안구 송죽동 495-6번지 화물공제조합빌딩 3층","category":"보건위생 - 화장품"}]},{"lat":"37.300788544","long":"127.00703261","items":[{"name":"서진불닭발","tel":"031-253-9282","addr":"경기도 수원시 장안구 송죽동 501-7번지 그린맨션 1층 101호","category":"일반휴게음식 - 일반한식"}]},{"lat":"37.301725662","long":"127.00502499","items":[{"name":"선경어린이집[아이행복]","tel":"031-242-3451","addr":"경기도 수원시 장안구 송죽동 461번지 선경아트빌 101동 103호","category":"학원 - 유아원"}]},{"lat":"37.306401965","long":"127.00036659","items":[{"name":"선리","tel":"031-248-7575","addr":"경기도 수원시 장안구 송죽동 440-1번지 한빛현요양병원 1층","category":"신변잡화 - 기타잡화"}]},{"lat":"37.298481995","long":"127.00319777","items":[{"name":"성모카세차장","tel":"031-248-5279","addr":"경기도 수원시 장안구 송죽동 370-5번지","category":"자동차정비 유지 - 세차장"}]},{"lat":"37.305230645","long":"127.00089677","items":[{"name":"세림헤어뷰","tel":"031-000-0000","addr":"경기도 수원시 장안구 송죽동 445-7번지 102호","category":"보건위생 - 미용원"}]},{"lat":"37.308348194","long":"127.00152837","items":[{"name":"세이프모션","tel":"031-246-1622","addr":"경기도 수원시 장안구 송죽동 476-2번지","category":"용역 서비스 - 종합용역"},{"name":"예마지","tel":"070-7533-1674","addr":"경기도 수원시 장안구 송죽동 476-2번지 1층 101호","category":"음료식품 - 제과점"}]},{"lat":"37.303176304","long":"127.00534085","items":[{"name":"소문난유통","tel":"031-242-3122","addr":"경기도 수원시 장안구 송죽동 495-9번지 1층","category":"음료식품 - 기타음료식품"}]},{"lat":"37.309564577","long":"127.00399871","items":[{"name":"솔대어린이집[아이행복]","tel":"031-258-1199","addr":"경기도 수원시 장안구 송죽동 54-4번지","category":"학원 - 유아원"}]},{"lat":"37.307230914","long":"127.00072751","items":[{"name":"솔솔돈가스","tel":"031-207-2288","addr":"경기도 수원시 장안구 송죽동 479-3번지 현대만물 1층 102호","category":"일반휴게음식 - 일반한식"},{"name":"커피드삼","tel":"070-7720-0416","addr":"경기도 수원시 장안구 송죽동 479-3번지 현대만물 1층 103호","category":"일반휴게음식 - 서양음식"}]},{"lat":"37.297481858","long":"127.00258873","items":[{"name":"송원중학교","tel":"031-252-3545","addr":"경기도 수원시 장안구 송죽동 376번지 송원중학교","category":"학원 - 초중고교육기관"}]},{"lat":"37.29667994","long":"127.00164136","items":[{"name":"송정초등학교","tel":"031-256-0085","addr":"경기도 수원시 장안구 송죽동 404번지 송정초등학교","category":"학원 - 초중고교육기관"},{"name":"송정초등학교_수업료","tel":"031-256-0085","addr":"경기도 수원시 장안구 송죽동 404번지 송정초등학교","category":"학원 - 초중고교육기관"}]},{"lat":"37.300148828","long":"127.00672805","items":[{"name":"송죽동주민자치회","tel":"031-228-5449","addr":"경기도 수원시 장안구 송죽동 502-1번지","category":"문화.취미 - 문화취미기타"}]},{"lat":"37.297229554","long":"127.00494591","items":[{"name":"송죽아름드리어린이집[아이행복]","tel":"031-257-2956","addr":"경기도 수원시 장안구 송죽동 385-19번지","category":"학원 - 유아원"}]},{"lat":"37.302626586","long":"126.99759203","items":[{"name":"송죽어린이집[아이행복]","tel":"031-258-3432","addr":"경기도 수원시 장안구 송죽동 277-48번지","category":"학원 - 유아원"}]},{"lat":"37.305176599","long":"127.00217136","items":[{"name":"송죽우편취급소","tel":"031-242-8338","addr":"경기도 수원시 장안구 송죽동 446-3번지","category":"용역 서비스 - 공공요금대행서비스/소"}]},{"lat":"37.300482222","long":"127.00623179","items":[{"name":"송죽초등학교","tel":"","addr":"경기도 수원시 장안구 송죽동 502번지 송죽초등학교","category":"학원 - 초중고교육기관"}]},{"lat":"37.30373495","long":"127.00108855","items":[{"name":"송춘석음악학원","tel":"031-258-2555","addr":"경기도 수원시 장안구 송죽동 447-12번지 2층","category":"학원 - 예·체능계학원"},{"name":"태능숯불갈비","tel":"031-257-8205","addr":"경기도 수원시 장안구 송죽동 447-12번지","category":"일반휴게음식 - 일반한식"}]},{"lat":"37.306816441","long":"127.00064857","items":[{"name":"수덕목욕탕","tel":"031-246-4229","addr":"경기도 수원시 장안구 송죽동 481-8번지","category":"보건위생 - 사우나"},{"name":"장안녹십자약국","tel":"031-242-5466","addr":"경기도 수원시 장안구 송죽동 481-8번지","category":"약국 - 약국"},{"name":"한국순대국소머리곰탕","tel":"031-241-8866","addr":"경기도 수원시 장안구 송죽동 481-8번지 1층","category":"일반휴게음식 - 일반한식"}]},{"lat":"37.300509197","long":"127.00781083","items":[{"name":"수원시치과의사회","tel":"031-253-2981","addr":"경기도 수원시 장안구 송죽동 505번지","category":"기타 - 비영리/비대상"}]},{"lat":"37.30651011","long":"127.00399867","items":[{"name":"수원식당","tel":"031-241-0306","addr":"경기도 수원시 장안구 송죽동 82번지","category":"일반휴게음식 - 일식·회집"},{"name":"수원식당","tel":"031-241-0306","addr":"경기도 수원시 장안구 송죽동 82번지","category":"일반휴게음식 - 일반한식"}]},{"lat":"37.299626238","long":"127.00659267","items":[{"name":"수원왕가리황제맛차","tel":"031-252-3474","addr":"경기도 수원시 장안구 송죽동 502-10번지 송죽파크빌 1층","category":"일반휴게음식 - 일반한식"},{"name":"푸른봄날순대국","tel":"031-252-2378","addr":"경기도 수원시 장안구 송죽동 502-10번지 송죽파크빌","category":"일반휴게음식 - 일반한식"}]},{"lat":"37.297707079","long":"127.00581437","items":[{"name":"수정스포츠","tel":"031-257-5597","addr":"경기도 수원시 장안구 송죽동 385-4번지 송화부동산 102호","category":"레져용품 - 스포츠·레져용품"},{"name":"오쌤이해법셀파수학학원","tel":"031-245-3847","addr":"경기도 수원시 장안구 송죽동 385-4번지 송화부동산 301호","category":"학원 - 보습학원"}]},{"lat":"37.304735014","long":"126.99839273","items":[{"name":"수지산업","tel":"031-242-3664","addr":"경기도 수원시 장안구 송죽동 443번지 1층","category":"유통업 영리 - 기타유통업"},{"name":"한헤어갤러리","tel":"031-246-2999","addr":"경기도 수원시 장안구 송죽동 443번지","category":"보건위생 - 미용원"}]},{"lat":"37.301040783","long":"127.00822819","items":[{"name":"슈아라크렘","tel":"031-256-1011","addr":"경기도 수원시 장안구 송죽동 506-11번지 1층","category":"일반휴게음식 - 일반한식"},{"name":"신신의료기","tel":"031-252-5778","addr":"경기도 수원시 장안구 송죽동 506-11번지 3층 신신의료기","category":"보건위생 - 의료용품"},{"name":"플레이맘","tel":"031-207-7327","addr":"경기도 수원시 장안구 송죽동 506-11번지 2층","category":"용역 서비스 - 사무서비스"}]},{"lat":"37.299455061","long":"127.00597234","items":[{"name":"슈퍼텐트칼라","tel":"031-258-7282","addr":"경기도 수원시 장안구 송죽동 503-8번지 1층","category":"자동차정비 유지 - 카인테리어"}]},{"lat":"37.300428112","long":"127.00764165","items":[{"name":"스타일헤어","tel":"031-242-7725","addr":"경기도 수원시 장안구 송죽동 505-6번지 101호","category":"보건위생 - 미용원"}]},{"lat":"37.303347517","long":"127.00414525","items":[{"name":"스타트","tel":"031-256-1356","addr":"경기도 수원시 장안구 송죽동 496-2번지","category":"일반휴게음식 - 일반한식"},{"name":"친구포차","tel":"031-248-0519","addr":"경기도 수원시 장안구 송죽동 496-2번지","category":"일반휴게음식 - 일반한식"}]},{"lat":"37.301626443","long":"127.00834102","items":[{"name":"스트리트츄러스 수원KT위즈파크점","tel":"","addr":"경기도 수원시 장안구 송죽동 499-6번지","category":"일반휴게음식 - 스넥"},{"name":"정강한의원","tel":"031-242-7330","addr":"경기도 수원시 장안구 송죽동 499-6번지 성원빌딩 2층","category":"의원 - 한의원"},{"name":"주식회사 에스티제이","tel":"070-4755-3334","addr":"경기도 수원시 장안구 송죽동 499-6번지 1층","category":"사무통신 - 통신기기"},{"name":"주식회사 에스티제이","tel":"070-4755-3334","addr":"경기도 수원시 장안구 송죽동 499-6번지 1층","category":"사무통신 - 통신기기"},{"name":"최홍석치과","tel":"031-241-2252","addr":"경기도 수원시 장안구 송죽동 499-6번지 2층","category":"의원 - 치과의원"},{"name":"피크오브필라테스","tel":"031-246-1230","addr":"경기도 수원시 장안구 송죽동 499-6번지 3층","category":"레저업소 - 헬스클럽"},{"name":"화이트앤화이트","tel":"031-245-5142","addr":"경기도 수원시 장안구 송죽동 499-6번지 성원빌딩 3층","category":"회원제형태 - 기타4"}]},{"lat":"37.303761963","long":"127.00017493","items":[{"name":"스포츠 스토리","tel":"031-966-5507","addr":"경기도 수원시 장안구 송죽동 444-8번지 1층","category":"레져용품 - 스포츠·레져용품"},{"name":"에이치비 (HB)인터내셔날","tel":"031-890-9294","addr":"경기도 수원시 장안구 송죽동 444-8번지 1층 오른쪽","category":"레져용품 - 스포츠·레져용품"}]},{"lat":"37.305320742","long":"127.00059221","items":[{"name":"시골집","tel":"031-242-1050","addr":"경기도 수원시 장안구 송죽동 441-15번지","category":"일반휴게음식 - 일반한식"},{"name":"현칼국수","tel":"031-252-8898","addr":"경기도 수원시 장안구 송죽동 441-15번지 시골집 303호","category":"일반휴게음식 - 일반한식"}]},{"lat":"37.30359079","long":"127.00131414","items":[{"name":"시골집영양탕","tel":"031-251-2231","addr":"경기도 수원시 장안구 송죽동 448-14번지","category":"일반휴게음식 - 일반한식"},{"name":"카리너스","tel":"031-268-6792","addr":"경기도 수원시 장안구 송죽동 448-14번지","category":"자동차정비 유지 - 자동차정비"}]},{"lat":"37.29789626","long":"127.0069535","items":[{"name":"시골포차","tel":"031-255-3323","addr":"경기도 수원시 장안구 송죽동 380-4번지","category":"일반휴게음식 - 일반한식"}]},{"lat":"37.303897131","long":"127.0008968","items":[{"name":"시루향기","tel":"031-257-0035","addr":"경기도 수원시 장안구 송죽동 447-15번지 만석빌딩 1층","category":"일반휴게음식 - 일반한식"},{"name":"유형민의높은음자리","tel":"031-243-4050","addr":"경기도 수원시 장안구 송죽동 447-15번지","category":"일반휴게음식 - 주점"},{"name":"착한코다리 수원점","tel":"031-256-8259","addr":"경기도 수원시 장안구 송죽동 447-15번지 2층","category":"일반휴게음식 - 일반한식"}]},{"lat":"37.306645267","long":"127.0023631","items":[{"name":"신가옥","tel":"031-258-2545","addr":"경기도 수원시 장안구 송죽동 184번지","category":"일반휴게음식 - 일반한식"}]},{"lat":"37.304735098","long":"127.00230672","items":[{"name":"신도네트북수원점","tel":"031-247-1372","addr":"경기도 수원시 장안구 송죽동 450-1번지 장원빌","category":"사무통신 - 사무용 OA기기"},{"name":"원스공방 (One''s atelier)","tel":"","addr":"경기도 수원시 장안구 송죽동 450-1번지 장원빌 101호","category":"문화.취미 - 문화취미기타"}]},{"lat":"37.303897072","long":"126.99864093","items":[{"name":"신의주전통순대국 송죽직영점","tel":"031-251-8853","addr":"경기도 수원시 장안구 송죽동 272-41번지 관인몬테소리 A동 1층","category":"일반휴게음식 - 일반한식"}]},{"lat":"37.296238443","long":"127.00214889","items":[{"name":"신이룸학원","tel":"031-255-1774","addr":"경기도 수원시 장안구 송죽동 402-7번지 2층","category":"회원제형태 - 학원"},{"name":"옐로우피자 (정자점)","tel":"031-256-8111","addr":"경기도 수원시 장안구 송죽동 402-7번지","category":"일반휴게음식 - 서양음식"},{"name":"짱헤어","tel":"031-254-7588","addr":"경기도 수원시 장안구 송죽동 402-7번지 1층","category":"보건위생 - 미용원"},{"name":"찜생찜사","tel":"031-252-7374","addr":"경기도 수원시 장안구 송죽동 402-7번지 1층","category":"일반휴게음식 - 일반한식"},{"name":"픽미픽미 아이스 송정점","tel":"031-111-1111","addr":"경기도 수원시 장안구 송죽동 402-7번지 1층","category":"음료식품 - 기타음료식품"}]},{"lat":"37.296788052","long":"127.00497974","items":[{"name":"신화종합상사","tel":"031-247-1892","addr":"경기도 수원시 장안구 송죽동 393-16번지 전부 3층","category":"기타 - 기타 전문점"}]},{"lat":"37.308149967","long":"127.00137045","items":[{"name":"실이네일","tel":"070-2282-8179","addr":"경기도 수원시 장안구 송죽동 476-4번지 1층","category":"보건위생 - 피부미용실"}]},{"lat":"37.3068705","long":"127.00047937","items":[{"name":"심종걸내과의원","tel":"031-257-1670","addr":"경기도 수원시 장안구 송죽동 481-9번지","category":"의원 - 의원"},{"name":"파리바게뜨수원송죽동점","tel":"031-251-4895","addr":"경기도 수원시 장안구 송죽동 481-9번지","category":"음료식품 - 제과점"},{"name":"홍치과의원","tel":"031-241-2875","addr":"경기도 수원시 장안구 송죽동 481-9번지 2층","category":"의원 - 치과의원"}]},{"lat":"37.307537278","long":"127.00200214","items":[{"name":"심호영헤어클릭","tel":"031-241-0637","addr":"경기도 수원시 장안구 송죽동 151-2번지","category":"보건위생 - 미용원"}]},{"lat":"37.299788392","long":"127.00747242","items":[{"name":"씨유 수원운동장점","tel":"031-255-8003","addr":"경기도 수원시 장안구 송죽동 504-2번지 1층","category":"문화.취미 - 화원"},{"name":"씨유수원운동장점","tel":"031-898-6567","addr":"경기도 수원시 장안구 송죽동 504-2번지 1층","category":"유통업 영리 - 편 의 점"},{"name":"플라워가이드","tel":"031-255-8003","addr":"경기도 수원시 장안구 송죽동 504-2번지 1층","category":"문화.취미 - 화원"}]},{"lat":"37.301788699","long":"127.00647999","items":[{"name":"씨유수원송전로점","tel":"031-246-0889","addr":"경기도 수원시 장안구 송죽동 497-31번지 1층","category":"유통업 영리 - 편 의 점"},{"name":"유원유통","tel":"031-256-9808","addr":"경기도 수원시 장안구 송죽동 497-31지하1층","category":"신변잡화 - 기타잡화"},{"name":"청록태권도장","tel":"031-256-2263","addr":"경기도 수원시 장안구 송죽동 497-31번지","category":"학원 - 예·체능계학원"}]},{"lat":"37.298481985","long":"127.00447225","items":[{"name":"씨유수원송죽타운점","tel":"031-246-9870","addr":"경기도 수원시 장안구 송죽동 386-1번지 1층","category":"유통업 영리 - 편 의 점"},{"name":"컴퓨터수리","tel":"","addr":"경기도 수원시 장안구 송죽동 386-1번지","category":"수리서비스 - 사무·통신기기수리"}]},{"lat":"37.308708606","long":"127.00395358","items":[{"name":"씨유수원수일로점","tel":"031-258-0592","addr":"경기도 수원시 장안구 송죽동 64번지 부강주택에이동1층 101호","category":"유통업 영리 - 편 의 점"}]},{"lat":"37.305978471","long":"126.9998139","items":[{"name":"씨유수원한빛점","tel":"031-898-6566","addr":"경기도 수원시 장안구 송죽동 441번지 1층","category":"유통업 영리 - 편 의 점"}]},{"lat":"37.307041696","long":"127.00059216","items":[{"name":"씨유수원현대점","tel":"031-212-5749","addr":"경기도 수원시 장안구 송죽동 481번지 1층","category":"유통업 영리 - 편 의 점"},{"name":"영재학원","tel":"031-245-0824","addr":"경기도 수원시 장안구 송죽동 481번지 신일빌딩 3층","category":"학원 - 보습학원"},{"name":"영재학원","tel":"031-245-0824","addr":"경기도 수원시 장안구 송죽동 481번지 신일빌딩 3층","category":"학원 - 보습학원"},{"name":"올맨클럽","tel":"","addr":"경기도 수원시 장안구 송죽동 481번지 신일빌딩","category":"보건위생 - 미용원"}]},{"lat":"37.306708334","long":"127.00408891","items":[{"name":"아낙네닭발 수원직영점","tel":"031-221-8660","addr":"경기도 수원시 장안구 송죽동 83번지 삼성팰리스 101호","category":"일반휴게음식 - 일반한식"}]},{"lat":"37.296427657","long":"127.0037504","items":[{"name":"아름드리밥상","tel":"031-244-1031","addr":"경기도 수원시 장안구 송죽동 398-54번지 1층","category":"일반휴게음식 - 일반한식"}]},{"lat":"37.303284447","long":"127.00403246","items":[{"name":"아리랑노래연습장","tel":"031-256-9462","addr":"경기도 수원시 장안구 송죽동 496-3번지","category":"레저업소 - 노 래 방"},{"name":"저팔계돼지부속점","tel":"031-257-5132","addr":"경기도 수원시 장안구 송죽동 496-3번지","category":"일반휴게음식 - 일반한식"}]},{"lat":"37.303122268","long":"127.00278046","items":[{"name":"아리엘협동조합","tel":"031-243-2647","addr":"경기도 수원시 장안구 송죽동 455-3번지 201호","category":"용역 서비스 - 종합용역"}]},{"lat":"37.302230168","long":"126.99837032","items":[{"name":"아벡데프리츠","tel":"","addr":"경기도 수원시 장안구 송죽동 272-75번지 1층","category":"일반휴게음식 - 일반한식"}]},{"lat":"37.30556402","long":"127.00064861","items":[{"name":"아이삼익","tel":"031-243-7704","addr":"경기도 수원시 장안구 송죽동 441-27번지 1층","category":"유통업 영리 - 기타유통업"}]},{"lat":"37.2966529","long":"127.00486695","items":[{"name":"아이앤지","tel":"031-268-9038","addr":"경기도 수원시 장안구 송죽동 393-6번지","category":"용역 서비스 - 종합용역"},{"name":"주식회사 금복","tel":"031-248-4881","addr":"경기도 수원시 장안구 송죽동 393-6번지 삼화페인트 101호","category":"건축자재 - 목재·석재·철물"}]},{"lat":"37.305708205","long":"127.00289325","items":[{"name":"아주요양전문센터","tel":"031-222-7258","addr":"경기도 수원시 장안구 송죽동 214-3번지","category":"기타의료기관 - 기타의료기관 및 기타"}]},{"lat":"37.302041028","long":"127.00458511","items":[{"name":"아지트호프","tel":"","addr":"경기도 수원시 장안구 송죽동 458-7번지 1층","category":"일반휴게음식 - 주점"},{"name":"피자핫","tel":"031-246-8482","addr":"경기도 수원시 장안구 송죽동 458-7번지","category":"일반휴게음식 - 서양음식"}]},{"lat":"37.304987385","long":"127.00230671","items":[{"name":"아트반점","tel":"031-251-9021","addr":"경기도 수원시 장안구 송죽동 451-22번지 아트반점","category":"일반휴게음식 - 중국식"}]},{"lat":"37.30220313","long":"126.9981673","items":[{"name":"알뜰24시세차장","tel":"031-268-4822","addr":"경기도 수원시 장안구 송죽동 277-12번지","category":"자동차정비 유지 - 세차장"}]},{"lat":"37.296571824","long":"127.0028143","items":[{"name":"애드파워","tel":"031-271-3381","addr":"경기도 수원시 장안구 송죽동 398-8번지 1층","category":"용역 서비스 - 사무서비스"}]},{"lat":"37.303176324","long":"127.00181044","items":[{"name":"양고집양꼬치","tel":"031-258-9253","addr":"경기도 수원시 장안구 송죽동 448-22번지","category":"일반휴게음식 - 중국식"},{"name":"우리들의작은공간AGIT","tel":"","addr":"경기도 수원시 장안구 송죽동 448-22번지 2층","category":"일반휴게음식 - 주점"},{"name":"휘트니스엠에스(MS)","tel":"031-256-9262","addr":"경기도 수원시 장안구 송죽동 448-22번지 3층","category":"레저업소 - 헬스클럽"}]},{"lat":"37.302869944","long":"127.00585968","items":[{"name":"양지식당","tel":"031-255-4092","addr":"경기도 수원시 장안구 송죽동 498-5번지 1층","category":"일반휴게음식 - 일반한식"},{"name":"유진빌딩","tel":"031-252-8635","addr":"경기도 수원시 장안구 송죽동 498-5번지","category":"자동차정비 유지 - 주차장"}]},{"lat":"37.303401582","long":"127.00380687","items":[{"name":"어가","tel":"031-245-8885","addr":"경기도 수원시 장안구 송죽동 453-31번지 1층","category":"일반휴게음식 - 일반한식"}]},{"lat":"37.305320753","long":"127.00125771","items":[{"name":"어죽이네철렵국","tel":"031-241-5556","addr":"경기도 수원시 장안구 송죽동 445-5번지","category":"일반휴게음식 - 일반한식"},{"name":"자연산머구리해물우동","tel":"031-245-0901","addr":"경기도 수원시 장안구 송죽동 445-5번지 1층","category":"일반휴게음식 - 일반한식"},{"name":"초원아구탕","tel":"031-256-8355","addr":"경기도 수원시 장안구 송죽동 445-5번지","category":"일반휴게음식 - 일반한식"},{"name":"크로스핏수원","tel":"031-244-2119","addr":"경기도 수원시 장안구 송죽동 445-5번지 지층","category":"회원제형태 - 레져업소"}]},{"lat":"37.29657182","long":"127.00389702","items":[{"name":"에듀포커스학원","tel":"031-251-2578","addr":"경기도 수원시 장안구 송죽동 392-17번지 2층","category":"학원 - 보습학원"},{"name":"예스영수전문학원","tel":"031-251-2578","addr":"경기도 수원시 장안구 송죽동 392-17번지 2층","category":"학원 - 보습학원"}]},{"lat":"37.307059737","long":"127.00228414","items":[{"name":"에어시스","tel":"","addr":"경기도 수원시 장안구 송죽동 148-8번지 한일빌라 A동 201호","category":"용역 서비스 - 기타용역서비스"}]},{"lat":"37.297346677","long":"127.00545344","items":[{"name":"에이스 모터스","tel":"031-246-6622","addr":"경기도 수원시 장안구 송죽동 385-28번지 1층","category":"자동차정비 유지 - 자동차정비"},{"name":"희망자동차정비공업사","tel":"031-264-1400","addr":"경기도 수원시 장안구 송죽동 385-28번지","category":"자동차정비 유지 - 자동차정비"}]},{"lat":"37.303815985","long":"126.99878756","items":[{"name":"에이스상사","tel":"070-4065-3564","addr":"경기도 수원시 장안구 송죽동 272-11번지 1층","category":"기타 - 기계공구"}]},{"lat":"37.304654007","long":"127.00283685","items":[{"name":"에코버튼주식회사","tel":"","addr":"경기도 수원시 장안구 송죽동 451-12번지 1층","category":"일반휴게음식 - 일반한식"}]},{"lat":"37.298680211","long":"127.00441586","items":[{"name":"엔 엠씨","tel":"031-223-5214","addr":"경기도 수원시 장안구 송죽동 369번지","category":"보건위생 - 화장품"}]},{"lat":"37.305816317","long":"127.0013141","items":[{"name":"엘리트카센타","tel":"031-245-7898","addr":"경기도 수원시 장안구 송죽동 445번지","category":"자동차정비 유지 - 자동차부품"}]},{"lat":"37.297869259","long":"127.00594971","items":[{"name":"엠제이스포츠(Mj sports)","tel":"031-254-6055","addr":"경기도 수원시 장안구 송죽동 379-16번지 4층","category":"레져용품 - 스포츠·레져용품"},{"name":"조은노래연습장","tel":"031-000-0000","addr":"경기도 수원시 장안구 송죽동 379-16번지","category":"레저업소 - 노 래 방"},{"name":"투썸플레이스 송죽점","tel":"031-224-3371","addr":"경기도 수원시 장안구 송죽동 379-16번지","category":"일반휴게음식 - 서양음식"},{"name":"하이원스포츠","tel":"","addr":"경기도 수원시 장안구 송죽동 379-16번지 3층","category":"레져용품 - 스포츠·레져용품"}]},{"lat":"37.297292628","long":"127.00483313","items":[{"name":"여우머리","tel":"031-256-7006","addr":"경기도 수원시 장안구 송죽동 385-20번지","category":"보건위생 - 미용원"}]},{"lat":"37.297932368","long":"127.00369402","items":[{"name":"연테크","tel":"031-246-4522","addr":"경기도 수원시 장안구 송죽동 374-4번지 1층","category":"용역 서비스 - 종합용역"},{"name":"예쁘제미용실","tel":"031-298-9757","addr":"경기도 수원시 장안구 송죽동 374-4번지","category":"보건위생 - 미용원"}]},{"lat":"37.303455632","long":"127.00475433","items":[{"name":"연포네","tel":"031-111-1111","addr":"경기도 수원시 장안구 송죽동 495-15번지 태우빌라 101호","category":"일반휴게음식 - 일반한식"},{"name":"현주헤어아트","tel":"031-241-8303","addr":"경기도 수원시 장안구 송죽동 495-15번지 태우빌라 1층 102호","category":"보건위생 - 미용원"}]},{"lat":"37.30761837","long":"127.00372796","items":[{"name":"영광세탁소","tel":"031-248-2247","addr":"경기도 수원시 장안구 송죽동 130-1번지","category":"수리서비스 - 세탁소"}]},{"lat":"37.304122403","long":"127.00333315","items":[{"name":"영미용실","tel":"031-254-3557","addr":"경기도 수원시 장안구 송죽동 453-7번지","category":"보건위생 - 미용원"},{"name":"태광유리","tel":"031-252-2076","addr":"경기도 수원시 장안구 송죽동 453-7번지","category":"건축자재 - 유리"}]},{"lat":"37.299482066","long":"127.00686336","items":[{"name":"영진퍼니처","tel":"031-253-8877","addr":"경기도 수원시 장안구 송죽동 504-6번지 정빌딩 402호","category":"가구 - 기타가구"},{"name":"태영생막창","tel":"031-1111-1111","addr":"경기도 수원시 장안구 송죽동 504-6번지 이조빌딩 101호","category":"일반휴게음식 - 일반한식"},{"name":"한가네부대찌개","tel":"031-241-6776","addr":"경기도 수원시 장안구 송죽동 504-6번지 이조빌딩 102호","category":"일반휴게음식 - 일반한식"},{"name":"한국지엠상사","tel":"031-258-5151","addr":"경기도 수원시 장안구 송죽동 504-6번지 정빌딩 501호","category":"용역 서비스 - 종합용역"}]},{"lat":"37.303509593","long":"126.99767093","items":[{"name":"예쁜누나네","tel":"031-257-5593","addr":"경기도 수원시 장안구 송죽동 277-100번지 1층","category":"일반휴게음식 - 일반한식"},{"name":"정우실업","tel":"031-258-4172","addr":"경기도 수원시 장안구 송죽동 277-100번지","category":"신변잡화 - 가방"}]},{"lat":"37.301896805","long":"127.00697627","items":[{"name":"예인헤어","tel":"031-245-2678","addr":"경기도 수원시 장안구 송죽동 500번지","category":"보건위생 - 미용원"},{"name":"우리네김밥","tel":"031-207-0171","addr":"경기도 수원시 장안구 송죽동 500번지 1층","category":"일반휴게음식 - 일반한식"},{"name":"정성식탁","tel":"070-489-6321","addr":"경기도 수원시 장안구 송죽동 500번지","category":"일반휴게음식 - 일반한식"},{"name":"처갓집통닭","tel":"031-245-6966","addr":"경기도 수원시 장안구 송죽동 500번지","category":"일반휴게음식 - 서양음식"},{"name":"하베스","tel":"031-252-3242","addr":"경기도 수원시 장안구 송죽동 500번지","category":"보건위생 - 미용원"}]},{"lat":"37.303509665","long":"126.9997012","items":[{"name":"오렌지미용실","tel":"031-252-4460","addr":"경기도 수원시 장안구 송죽동 256-12번지","category":"보건위생 - 미용원"}]},{"lat":"37.305068476","long":"127.0020924","items":[{"name":"오시오","tel":"031-892-7499","addr":"경기도 수원시 장안구 송죽동 446-5번지","category":"회원제형태 - 기타4"}]},{"lat":"37.302869847","long":"126.99725364","items":[{"name":"오즈안경","tel":"031-248-5777","addr":"경기도 수원시 장안구 송죽동 277-50번지","category":"보건위생 - 안경"}]},{"lat":"37.303455644","long":"127.00369408","items":[{"name":"오토세일","tel":"070-4645-1077","addr":"경기도 수원시 장안구 송죽동 453-25번지","category":"용역 서비스 - 소프트웨어"}]},{"lat":"37.308789697","long":"127.0040551","items":[{"name":"오후가비","tel":"031-247-5549","addr":"경기도 수원시 장안구 송죽동 59-2번지 1층","category":"일반휴게음식 - 서양음식"}]},{"lat":"37.298959532","long":"127.00408878","items":[{"name":"옥반정","tel":"","addr":"경기도 수원시 장안구 송죽동 365-2번지 1층","category":"일반휴게음식 - 일반한식"},{"name":"힐링","tel":"031-237-4266","addr":"경기도 수원시 장안구 송죽동 365-2번지 2층","category":"일반휴게음식 - 일반한식"}]},{"lat":"37.301094866","long":"127.00772064","items":[{"name":"온베이커리&카페","tel":"031-245-1888","addr":"경기도 수원시 장안구 송죽동 500-33번지 1층 101호","category":"일반휴게음식 - 서양음식"},{"name":"와다고카페포장마차","tel":"031-252-7897","addr":"경기도 수원시 장안구 송죽동 500-33번지 A동 1층","category":"일반휴게음식 - 일반한식"}]},{"lat":"37.300401095","long":"127.00728072","items":[{"name":"왑십리곱창오가네","tel":"031-252-2025","addr":"경기도 수원시 장안구 송죽동 502-3번지 1층","category":"일반휴게음식 - 일반한식"}]},{"lat":"37.2962024","long":"127.00186693","items":[{"name":"왕자사","tel":"031-255-8689","addr":"경기도 수원시 장안구 송죽동 402-6번지","category":"서적문구 - 일반서적"}]},{"lat":"37.301365219","long":"127.00643485","items":[{"name":"우리문구","tel":"031-244-5428","addr":"경기도 수원시 장안구 송죽동 501-20번지 모닝빌 508동 105호","category":"서적문구 - 문구용품"}]},{"lat":"37.302734798","long":"127.00555514","items":[{"name":"우만동족발집(송죽동)","tel":"031-0000-0000","addr":"경기도 수원시 장안구 송죽동 497번지 1층","category":"일반휴게음식 - 일반한식"},{"name":"일출","tel":"031-252-5635","addr":"경기도 수원시 장안구 송죽동 497번지","category":"일반휴게음식 - 칵테일바"}]},{"lat":"37.308149975","long":"127.00347981","items":[{"name":"우진상사","tel":"031-253-0330","addr":"경기도 수원시 장안구 송죽동 87번지","category":"건축자재 - 보일러·펌프·샷시"}]},{"lat":"37.2993199","long":"127.0062543","items":[{"name":"운동장손세차","tel":"031-251-8882","addr":"경기도 수원시 장안구 송죽동 503-14번지","category":"자동차정비 유지 - 가타자동차서비스"}]},{"lat":"37.301293153","long":"127.00583706","items":[{"name":"원조떡방앗간","tel":"031-257-8207","addr":"경기도 수원시 장안구 송죽동 461-18번지","category":"음료식품 - 제과점"}]},{"lat":"37.296292486","long":"127.00511506","items":[{"name":"원조멸치국수","tel":"031-243-8850","addr":"경기도 수원시 장안구 송죽동 395-14번지 일부 101호","category":"일반휴게음식 - 일반한식"}]},{"lat":"37.301455344","long":"127.00555509","items":[{"name":"원플러스렛츠고천재영어교습소","tel":"031-243-1714","addr":"경기도 수원시 장안구 송죽동 461-9번지","category":"회원제형태 - 학원"}]},{"lat":"37.298085545","long":"127.00302859","items":[{"name":"유디스","tel":"031-448-0801","addr":"경기도 수원시 장안구 송죽동 372-5번지 동서빌라 B동 102호","category":"회원제형태 - 기타1"}]},{"lat":"37.304536874","long":"127.0025887","items":[{"name":"은성세라믹스","tel":"031-247-2192","addr":"경기도 수원시 장안구 송죽동 450-4번지 1층","category":"건축자재 - 기타건축자재"}]},{"lat":"37.296815094","long":"127.00414514","items":[{"name":"이노탑","tel":"031-247-9494","addr":"경기도 수원시 장안구 송죽동 392-10번지 102호","category":"신변잡화 - 기념품점"}]},{"lat":"37.298265716","long":"127.0057016","items":[{"name":"이레유통","tel":"031-243-1472","addr":"경기도 수원시 장안구 송죽동 379-4번지 102호","category":"주방용구 - 정수기"}]},{"lat":"37.303455644","long":"127.00219393","items":[{"name":"이마트24 수원만석점","tel":"031-000-0000","addr":"경기도 수원시 장안구 송죽동 448-6번지 1층","category":"유통업 영리 - 편 의 점"}]},{"lat":"37.306014529","long":"127.00053579","items":[{"name":"이지아이엔티","tel":"031-268-9444","addr":"경기도 수원시 장안구 송죽동 440-19번지","category":"용역 서비스 - 소프트웨어"}]},{"lat":"37.298202676","long":"127.00361507","items":[{"name":"이화꽃방","tel":"031-252-3511","addr":"경기도 수원시 장안구 송죽동 374-1번지","category":"문화.취미 - 화원"}]},{"lat":"37.301563407","long":"127.00750637","items":[{"name":"이화원","tel":"031-243-2335","addr":"경기도 수원시 장안구 송죽동 500-14번지","category":"문화.취미 - 화원"}]},{"lat":"37.303707892","long":"126.99978015","items":[{"name":"인정국물떡볶이장안구","tel":"031-252-2072","addr":"경기도 수원시 장안구 송죽동 444-15번지 1층","category":"일반휴게음식 - 일반한식"},{"name":"푸드딜라이트(감동까스)","tel":"031-243-1005","addr":"경기도 수원시 장안구 송죽동 444-15번지 1층","category":"일반휴게음식 - 일반한식"}]},{"lat":"37.302951071","long":"127.00205859","items":[{"name":"잇바","tel":"031-254-5575","addr":"경기도 수원시 장안구 송죽동 455-18번지 전체 1층","category":"일반휴게음식 - 주점"}]},{"lat":"37.310871044","long":"127.00508165","items":[{"name":"자연","tel":"031-254-2358","addr":"경기도 수원시 장안구 송죽동 47번지","category":"일반휴게음식 - 일반한식"}]},{"lat":"37.299536157","long":"127.005837","items":[{"name":"잔치집","tel":"031-893-3226","addr":"경기도 수원시 장안구 송죽동 503-7번지","category":"일반휴게음식 - 일반한식"}]},{"lat":"37.307402122","long":"127.00175398","items":[{"name":"전력공사신성","tel":"031-254-5529","addr":"경기도 수원시 장안구 송죽동 153","category":"전기제품 - 기타전기제품"}]},{"lat":"37.303509703","long":"127.00391967","items":[{"name":"전앤술","tel":"031-892-9494","addr":"경기도 수원시 장안구 송죽동 453-30번지","category":"일반휴게음식 - 일반한식"},{"name":"포모나(Pomona)","tel":"031-255-8855","addr":"경기도 수원시 장안구 송죽동 453-30번지 1층","category":"일반휴게음식 - 서양음식"}]},{"lat":"37.303428606","long":"127.00444979","items":[{"name":"정연미용제품","tel":"070-4503-8075","addr":"경기도 수원시 장안구 송죽동 496-7번지 1층","category":"보건위생 - 미용재료"},{"name":"정연헤어","tel":"070-4503-8075","addr":"경기도 수원시 장안구 송죽동 496-7번지","category":"보건위생 - 미용원"}]},{"lat":"37.303455617","long":"127.00555517","items":[{"name":"제이뮤직학원","tel":"031-247-0770","addr":"경기도 수원시 장안구 송죽동 495-10번지 4층","category":"학원 - 예·체능계학원"}]},{"lat":"37.299455076","long":"127.00536329","items":[{"name":"조가네갑오징어(만석공원점)","tel":"031-244-4520","addr":"경기도 수원시 장안구 송죽동 377-1번지 1층 2층","category":"일반휴게음식 - 일반한식"}]},{"lat":"37.301959936","long":"127.00452872","items":[{"name":"조은새피아노교습소","tel":"031-251-7940","addr":"경기도 수원시 장안구 송죽동 458-8번지","category":"학원 - 예·체능계학원"},{"name":"플로르","tel":"031-242-7483","addr":"경기도 수원시 장안구 송죽동 458-8번지","category":"문화.취미 - 민예·공예품"}]},{"lat":"37.302788882","long":"127.0041678","items":[{"name":"주식회사 케이지환경","tel":"031-251-8552","addr":"경기도 수원시 장안구 송죽동 459-9번지 3층","category":"용역 서비스 - 사무서비스"}]},{"lat":"37.299148721","long":"127.00564524","items":[{"name":"주식회사미로커뮤니케이션","tel":"031-247-0050","addr":"경기도 수원시 장안구 송죽동 377-4번지 가동 1층","category":"건축자재 - 인테리어전문"}]},{"lat":"37.296508752","long":"127.00270152","items":[{"name":"주식회사에쎈","tel":"031-291-6899","addr":"경기도 수원시 장안구 송죽동 398-9번지 101호","category":"주방용구 - 주방용구"}]},{"lat":"37.303653813","long":"126.99914851","items":[{"name":"주식회사지식과상상","tel":"070-4610-1204","addr":"경기도 수원시 장안구 송죽동 272-10번지 태영빌딩 302호","category":"회원제형태 - 서적"}]},{"lat":"37.307789565","long":"127.00361517","items":[{"name":"주주골프 수원점(SH골프)","tel":"031-242-5870","addr":"경기도 수원시 장안구 송죽동 129-5번지","category":"레져용품 - 스포츠·레져용품"}]},{"lat":"37.308870794","long":"127.00272405","items":[{"name":"지디케이","tel":"031-247-2804","addr":"경기도 수원시 장안구 송죽동 101-5번지 1층","category":"기타의료기관 - 기타의료기관 및 기타"}]},{"lat":"37.303870117","long":"127.00261127","items":[{"name":"지성패션","tel":"031-256-1439","addr":"경기도 수원시 장안구 송죽동 449-7번지 1층","category":"의류 - 정장"}]},{"lat":"37.304401673","long":"126.99953197","items":[{"name":"지영마트","tel":"031-252-8651","addr":"경기도 수원시 장안구 송죽동 442-24번지","category":"유통업 영리 - 슈퍼마켓"}]},{"lat":"37.296238442","long":"127.00197971","items":[{"name":"진양문구","tel":"031-245-7527","addr":"경기도 수원시 장안구 송죽동 402-5번지","category":"서적문구 - 문구용품"}]},{"lat":"37.303761881","long":"126.99770475","items":[{"name":"쩐술","tel":"031-241-8880","addr":"경기도 수원시 장안구 송죽동 277-22번지","category":"일반휴게음식 - 일반한식"}]},{"lat":"37.301869788","long":"127.00655895","items":[{"name":"찌개삼국지","tel":"031-252-3939","addr":"경기도 수원시 장안구 송죽동 497-30번지 1층","category":"일반휴게음식 - 일반한식"}]},{"lat":"37.307897685","long":"127.00403253","items":[{"name":"챤스(송죽점)","tel":"031-241-9240","addr":"경기도 수원시 장안구 송죽동 65번지 영광상사 1층 105호","category":"일반휴게음식 - 주점"}]},{"lat":"37.296706975","long":"127.00363762","items":[{"name":"청담골드의원","tel":"031-243-7005","addr":"경기도 수원시 장안구 송죽동 392-20번지 2층 201~207호","category":"의원 - 의원"}]},{"lat":"37.307348059","long":"127.00156222","items":[{"name":"청수정보통신","tel":"02-1600-5021","addr":"경기도 수원시 장안구 송죽동 157번지 301호","category":"사무통신 - 통신기기"}]},{"lat":"37.304455782","long":"127.00272406","items":[{"name":"청우워터","tel":"031-296-4680","addr":"경기도 수원시 장안구 송죽동 450-5번지","category":"주방용구 - 정수기"}]},{"lat":"37.303248376","long":"127.00578074","items":[{"name":"청춘해장국","tel":"031-000-0000","addr":"경기도 수원시 장안구 송죽동 495-18번지 올림픽빌라 C동 1층 101호","category":"일반휴게음식 - 일반한식"},{"name":"카페모모 (cafe momo)","tel":"031-536-9537","addr":"경기도 수원시 장안구 송죽동 495-18번지 올림픽빌라 C동 1층 102호","category":"일반휴게음식 - 서양음식"}]},{"lat":"37.298292775","long":"127.00405494","items":[{"name":"청호공조","tel":"031-242-9108","addr":"경기도 수원시 장안구 송죽동 374-33번지 1층","category":"전기제품 - 냉열기기"}]},{"lat":"37.301040886","long":"127.00492346","items":[{"name":"최선영 열정미장원","tel":"031-255-0703","addr":"경기도 수원시 장안구 송죽동 462","category":"보건위생 - 미용원"}]},{"lat":"37.302869858","long":"126.99747923","items":[{"name":"추억과자","tel":"070-8202-0503","addr":"경기도 수원시 장안구 송죽동 277-45번지 1층","category":"음료식품 - 기타음료식품"}]},{"lat":"37.30437469","long":"127.00287069","items":[{"name":"충남라이닝","tel":"031-243-5534","addr":"경기도 수원시 장안구 송죽동 450-7번지","category":"자동차정비 유지 - 자동차부품"}]},{"lat":"37.302860919","long":"127.00638981","items":[{"name":"침선공방고운빔","tel":"031-246-6358","addr":"경기도 수원시 장안구 송죽동 498-2번지 근영빌라 B동 201호","category":"회원제형태 - 기타4"}]},{"lat":"37.300292961","long":"127.00758524","items":[{"name":"카페 눈","tel":"031-482-5365","addr":"경기도 수원시 장안구 송죽동 505-7번지 1층","category":"일반휴게음식 - 서양음식"}]},{"lat":"37.303428607","long":"127.00141566","items":[{"name":"카페테라스","tel":"031-245-5667","addr":"경기도 수원시 장안구 송죽동 448-25번지","category":"일반휴게음식 - 일반한식"}]},{"lat":"37.302815918","long":"127.00228417","items":[{"name":"캐슬노래연습장","tel":"031-244-6621","addr":"경기도 수원시 장안구 송죽동 455-16번지 2층","category":"레저업소 - 노 래 방"}]},{"lat":"37.297815233","long":"127.00389703","items":[{"name":"커피알렉스/로스터알렉스","tel":"031-0000-0000","addr":"경기도 수원시 장안구 송죽동 390-12번지 1층","category":"일반휴게음식 - 서양음식"}]},{"lat":"37.303347523","long":"127.00241952","items":[{"name":"코코","tel":"031-225-0770","addr":"경기도 수원시 장안구 송죽동 455번지 드림하우스 1층","category":"일반휴게음식 - 주점"}]},{"lat":"37.297067364","long":"127.00522787","items":[{"name":"쿠아플랜주식회사","tel":"070-8692-8492","addr":"경기도 수원시 장안구 송죽동 385-16번지 쿠아플랜주식회사","category":"주방용구 - 정수기"},{"name":"하나시스템","tel":"031-244-3361","addr":"경기도 수원시 장안구 송죽동 385-16번지","category":"전기제품 - 기타전기제품"}]},{"lat":"37.310402524","long":"127.00431457","items":[{"name":"탑웰딩","tel":"","addr":"경기도 수원시 장안구 송죽동 52-5번지","category":"용역 서비스 - 기타용역서비스"}]},{"lat":"37.308041854","long":"127.00266765","items":[{"name":"태양공업사","tel":"031-254-6079","addr":"경기도 수원시 장안구 송죽동 125-2번지","category":"기타 - 기계공구"}]},{"lat":"37.296346565","long":"127.003694","items":[{"name":"태영생막창","tel":"031-251-3290","addr":"경기도 수원시 장안구 송죽동 398-55번지 1층","category":"일반휴게음식 - 일반한식"}]},{"lat":"37.304654002","long":"127.00175402","items":[{"name":"토마토노래연습장","tel":"031-245-1129","addr":"경기도 수원시 장안구 송죽동 446-15번지 지하1층","category":"레저업소 - 노 래 방"}]},{"lat":"37.303257421","long":"127.00253231","items":[{"name":"토스템","tel":"031-252-6118","addr":"경기도 수원시 장안구 송죽동 455-1번지","category":"용역 서비스 - 기타용역서비스"}]},{"lat":"37.302869979","long":"127.00217138","items":[{"name":"통달배족발보쌈삼겹수원송죽점&땡초불닭발","tel":"031-245-3110","addr":"경기도 수원시 장안구 송죽동 455-17번지 2층","category":"일반휴게음식 - 일반한식"},{"name":"호천당","tel":"031-241-3337","addr":"경기도 수원시 장안구 송죽동 455-17번지 1층","category":"일반휴게음식 - 일반한식"}]},{"lat":"37.303563722","long":"126.99955457","items":[{"name":"파나시아","tel":"031-245-7306","addr":"경기도 수원시 장안구 송죽동 256-11번지","category":"일반휴게음식 - 일반한식"}]},{"lat":"37.313619058","long":"127.00828548","items":[{"name":"파인스골프연습장","tel":"031-252-0070","addr":"경기도 수원시 장안구 송죽동 8-2","category":"레저업소 - 골프연습장"}]},{"lat":"37.302590664","long":"127.00258871","items":[{"name":"파크노래연습장","tel":"031-245-2287","addr":"경기도 수원시 장안구 송죽동 456-16번지","category":"레저업소 - 노 래 방"}]},{"lat":"37.297842258","long":"127.00441584","items":[{"name":"퍼팩트폼스팀출장세차","tel":"070-7539-7937","addr":"경기도 수원시 장안구 송죽동 390-2번지 2층 202호","category":"자동차정비 유지 - 세차장"}]},{"lat":"37.304041312","long":"127.0027579","items":[{"name":"포앤쌈","tel":"","addr":"경기도 수원시 장안구 송죽동 450-24번지 1층","category":"일반휴게음식 - 일반한식"}]},{"lat":"37.299292859","long":"127.00661521","items":[{"name":"프로듀스 블루","tel":"","addr":"경기도 수원시 장안구 송죽동 503-21번지 2층 202호","category":"용역 서비스 - 종합용역"},{"name":"화홍추어탕","tel":"031-245-3660","addr":"경기도 수원시 장안구 송죽동 503-21번지","category":"일반휴게음식 - 일반한식"}]},{"lat":"37.301229973","long":"127.00875832","items":[{"name":"피자헛북수원2호점","tel":"031-242-1870","addr":"경기도 수원시 장안구 송죽동 506-2번지 2층","category":"일반휴게음식 - 서양음식"}]},{"lat":"37.296733999","long":"127.00437071","items":[{"name":"하나상사","tel":"031-245-4452","addr":"경기도 수원시 장안구 송죽동 393-13번지 허브스토리 102호","category":"신변잡화 - 기타잡화"}]},{"lat":"37.30465392","long":"126.99833634","items":[{"name":"하늘꼬마숲어린이집[아이행복]","tel":"031-255-6787","addr":"경기도 수원시 장안구 송죽동 443-31번지","category":"학원 - 유아원"}]},{"lat":"37.305041427","long":"127.00069374","items":[{"name":"하이플러스마트","tel":"031-241-0535","addr":"경기도 수원시 장안구 송죽동 444번지","category":"유통업 영리 - 슈퍼마켓"}]},{"lat":"37.308483348","long":"127.00158476","items":[{"name":"한마음서적","tel":"031-241-4845","addr":"경기도 수원시 장안구 송죽동 476번지 상가1층2호","category":"서적문구 - 일반서적"}]},{"lat":"37.304203493","long":"127.00205857","items":[{"name":"한일칡냉면","tel":"031-254-8348","addr":"경기도 수원시 장안구 송죽동 449-2번지","category":"일반휴게음식 - 일반한식"}]},{"lat":"37.301230034","long":"127.00735972","items":[{"name":"해남식당","tel":"","addr":"경기도 수원시 장안구 송죽동 500-20번지 1층","category":"일반휴게음식 - 일반한식"}]},{"lat":"37.296085179","long":"127.00756243","items":[{"name":"해송화원","tel":"031-577-3418","addr":"경기도 수원시 장안구 송죽동 514번지 수원로얄팰리스 105동 701호","category":"회원제형태 - 기타4"}]},{"lat":"37.297121448","long":"127.00342333","items":[{"name":"행복창호공사","tel":"031-892-0559","addr":"경기도 수원시 장안구 송죽동 392-28 진주맨션1층 가-102 21/2","category":"용역 서비스 - 기타용역서비스"}]},{"lat":"37.296869141","long":"127.00511508","items":[{"name":"행복한밥상","tel":"031-252-0997","addr":"경기도 수원시 장안구 송죽동 393-18번지 1층","category":"일반휴게음식 - 일반한식"}]},{"lat":"37.297229561","long":"127.00450606","items":[{"name":"헬로우포차","tel":"031-251-3304","addr":"경기도 수원시 장안구 송죽동 391-3번지 1층","category":"일반휴게음식 - 일반한식"}]},{"lat":"37.30217618","long":"127.00469791","items":[{"name":"현대마트","tel":"031-258-5845","addr":"경기도 수원시 장안구 송죽동 459-32번지","category":"유통업 영리 - 슈퍼마켓"}]},{"lat":"37.307429157","long":"127.00338957","items":[{"name":"현대만도플라자 한일점","tel":"031-232-5480","addr":"경기도 수원시 장안구 송죽동 138-2번지","category":"자동차정비 유지 - 자동차정비"}]},{"lat":"37.306176733","long":"127.00197959","items":[{"name":"현대플라워","tel":"031-246-2688","addr":"경기도 수원시 장안구 송죽동 188번지 1층","category":"문화.취미 - 화원"}]},{"lat":"37.296734003","long":"127.00403236","items":[{"name":"홍보유통","tel":"031-254-9994","addr":"경기도 수원시 장안구 송죽동 392-5번지","category":"음료식품 - 정육점"}]},{"lat":"37.304789161","long":"127.0031978","items":[{"name":"홍보주유소","tel":"031-246-8100","addr":"경기도 수원시 장안구 송죽동 451-3번지","category":"연료판매점 - 주유소"}]},{"lat":"37.295895988","long":"127.00690828","items":[{"name":"홍잠","tel":"031-884-5110","addr":"경기도 수원시 장안구 송죽동 514번지 수원로얄팰리스 102동 202호","category":"건강식품 - 기타건강식품"}]},{"lat":"37.298373873","long":"127.00289325","items":[{"name":"홍카페치킨","tel":"031-246-5655","addr":"경기도 수원시 장안구 송죽동 412-21번지","category":"일반휴게음식 - 스넥"}]},{"lat":"37.301203048","long":"127.00594985","items":[{"name":"화성문구센타","tel":"031-242-4023","addr":"경기도 수원시 장안구 송죽동 461-22번지","category":"서적문구 - 문구용품"}]},{"lat":"37.306681307","long":"127.0035926","items":[{"name":"환수네부대찌개","tel":"031-251-1066","addr":"경기도 수원시 장안구 송죽동 194번지","category":"일반휴게음식 - 일반한식"}]},{"lat":"37.301869845","long":"127.00264511","items":[{"name":"황금발 푸드트럭","tel":"","addr":"경기도 수원시 장안구 송죽동 239-5번지 만성공원 푸드트럭존 야외음악당주변","category":"일반휴게음식 - 일반한식"}]},{"lat":"37.296625863","long":"127.00055864","items":[{"name":"황금종합카렌다","tel":"031-242-6618","addr":"경기도 수원시 장안구 송죽동 408-2번지","category":"서적문구 - 출판 및 인쇄물"}]},{"lat":"37.305708197","long":"127.00156225","items":[{"name":"효봉노인전문요양원","tel":"031-244-1002","addr":"경기도 수원시 장안구 송죽동 445-2번지","category":"기타의료기관 - 기타의료기관 및 기타"}]}]