[{"lat":"37.075534304","long":"126.97592663","items":[{"name":"(주)다물산업","tel":"031-354-0851","addr":"경기도 화성시 양감면 용소리 1103-1","category":"자동차정비 유지 - 자동차부품"}]},{"lat":"37.081174393","long":"126.97367538","items":[{"name":"김기수갤러리","tel":"031-1577-0000","addr":"경기도 화성시 양감면 용소리 985-1번지 1층","category":"문화.취미 - 민예·공예품"}]},{"lat":"37.080870359","long":"126.98551779","items":[{"name":"대양스텐","tel":"031-8059-5256","addr":"경기도 화성시 양감면 용소리 713-3번지 1층","category":"건축자재 - 기타건축자재"}]},{"lat":"37.077091472","long":"126.96940358","items":[{"name":"만나웰빙부페","tel":"02-1111-1111","addr":"경기도 화성시 양감면 용소리 1043-3번지","category":"일반휴게음식 - 일반한식"}]},{"lat":"37.076145146","long":"126.96865054","items":[{"name":"맛소","tel":"031-352-1308","addr":"경기도 화성시 양감면 용소리 1053-25번지","category":"음료식품 - 정육점"},{"name":"태민식당","tel":"031-352-1308","addr":"경기도 화성시 양감면 용소리 1053-25번지","category":"일반휴게음식 - 일반한식"}]},{"lat":"37.078624158","long":"126.97270921","items":[{"name":"벡스타","tel":"031-354-1580","addr":"경기도 화성시 양감면 용소리 1098번지","category":"수리서비스 - 기타수리서비스"}]},{"lat":"37.075984802","long":"126.97579153","items":[{"name":"보명산업","tel":"031-353-6122","addr":"경기도 화성시 양감면 용소리 1102번지","category":"자동차정비 유지 - 자동차부품"}]},{"lat":"37.080483281","long":"126.98831818","items":[{"name":"솔마트","tel":"031-366-4791","addr":"경기도 화성시 양감면 용소리 630-3번지","category":"유통업 영리 - 슈퍼마켓"}]},{"lat":"37.083562982","long":"126.97707095","items":[{"name":"용소식당","tel":"031-366-3254","addr":"경기도 화성시 양감면 용소리 835-12번지","category":"일반휴게음식 - 위탁급식업"}]},{"lat":"37.081149408","long":"126.98370707","items":[{"name":"태양기계","tel":"031-352-7991","addr":"경기도 화성시 양감면 용소리 714-7","category":"기타 - 기계공구"}]}]