[{"lat":"37.348748718","long":"126.95374239","items":[{"name":"(Re)생 당정지사","tel":"","addr":"경기도 군포시 당정동 522번지 SK벤티움 101동 705호","category":"건강식품 - 기타건강식품"},{"name":"(주)드림투","tel":"02-451-2220","addr":"경기도 군포시 당정동 522번지 SK벤티움 101동 517호","category":"유통업 영리 - 기타유통업"},{"name":"(주)로텍인스트루먼트/원격지","tel":"031-436-0033","addr":"경기도 군포시 당정동 522번지 SK벤티움 101동 905호","category":"기타 - 기타 전문점"},{"name":"(주)모던인더스트리/원격지","tel":"031-366-2000","addr":"경기도 군포시 당정동 522번지 SK벤티음 101동 804호","category":"기타 - 기타 전문점"},{"name":"(주)씨이에스/원격지","tel":"031-436-1030","addr":"경기도 군포시 당정동 522번지 SK벤티움 101동 902호","category":"기타 - 기타 전문점"},{"name":"(주)알에프스타텍","tel":"031-477-2201","addr":"경기도 군포시 당정동 522번지 SK벤티움 101동 904호","category":"사무통신 - 통신기기"},{"name":"(주)에이에스텍/원격지","tel":"031-436-1455","addr":"경기도 군포시 당정동 522번지 SK벤티움 101동 406호","category":"기타 - 기타 전문점"},{"name":"(주)우리환경기술","tel":"031-205-0808","addr":"경기도 군포시 당정동 522번지 SK벤티움 101동 802호","category":"서적문구 - 과학기자재"},{"name":"(주)우리환경기술/원격지","tel":"031-436-1701","addr":"경기도 군포시 당정동 522번지 SK벤티움 101동 802호","category":"기타 - 기타 전문점"},{"name":"(주)이즈소프트/원격지","tel":"031-436-1422","addr":"경기도 군포시 당정동 522번지 SK벤티움 101동 907호","category":"기타 - 기타 전문점"},{"name":"NCB","tel":"031-454-9952","addr":"경기도 군포시 당정동 522외2필지에스케이벤티움101-903","category":"용역 서비스 - 소프트웨어"},{"name":"sk골프존","tel":"031-436-0889","addr":"경기도 군포시 당정동 522번지 SK벤티움 101동 3층 315호","category":"레저업소 - 스크린골프"},{"name":"건민회계법인","tel":"031-436-1114","addr":"경기도 군포시 당정동 522번지 SK벤티움 101동 321호","category":"용역 서비스 - 법률회계서비스(법인)"},{"name":"경인엔지니어링(주)","tel":"031-436-1880","addr":"경기도 군포시 당정동 522번지 SK벤티움 101동 901호","category":"기타 - 기타 전문점"},{"name":"경인엔지니어링(주)/원격지","tel":"031-436-1880","addr":"경기도 군포시 당정동 522번지 SK벤티움 101동 901호","category":"기타 - 기타 전문점"},{"name":"김밥플러스","tel":"031-436-0508","addr":"경기도 군포시 당정동 522번지 SK벤티움 101동 213호","category":"일반휴게음식 - 스넥"},{"name":"나미 앤 리빙","tel":"070-8899-1235","addr":"경기도 군포시 당정동 522번지 SK벤티움 101동 414호","category":"직물 - 침구·수예점"},{"name":"뉴욕치과","tel":"031-436-0466","addr":"경기도 군포시 당정동 522번지 SK벤티움 101동 411호","category":"의원 - 치과의원"},{"name":"드림디포 군포점","tel":"031-436-1083","addr":"경기도 군포시 당정동 522번지 SK벤티움 101동 212호","category":"서적문구 - 문구용품"},{"name":"라온카페","tel":"031-455-3383","addr":"경기도 군포시 당정동 522번지 에스케이벤티움 101동 211호","category":"일반휴게음식 - 일반한식"},{"name":"미스터힐링 군포당정동점","tel":"031-456-0011","addr":"경기도 군포시 당정동 522번지 SK벤티움 101동 415호","category":"보건위생 - 기타대인서비스"},{"name":"바울C&P","tel":"031-436-0486","addr":"경기도 군포시 당정동 522번지 SK벤티움 101동 213호","category":"사무통신 - 사무용 OA기기"},{"name":"바이더웨이군포벤티움점","tel":"031-456-0105","addr":"경기도 군포시 당정동 522.101-215","category":"유통업 영리 - 편 의 점"},{"name":"비체레커피","tel":"031-436-2025","addr":"경기도 군포시 당정동 522번지 SK벤티움 101동 218호","category":"일반휴게음식 - 서양음식"},{"name":"세븐일레븐군포벤티움점","tel":"031-1577-0711","addr":"경기도 군포시 당정동 522번지 SK벤티움 101동 215호","category":"유통업 영리 - 편 의 점"},{"name":"수리산갈비","tel":"031-436-0488","addr":"경기도 군포시 당정동 522번지 SK벤티움 101동 311호","category":"일반휴게음식 - 일반한식"},{"name":"아이피월드","tel":"031-436-0339","addr":"경기도 군포시 당정동 522번지 SK벤티움 101동 319호","category":"사무통신 - 컴퓨터"},{"name":"엄마손부페","tel":"031-427-5888","addr":"경기도 군포시 당정동 522번지 SK벤티움 101동 221호","category":"일반휴게음식 - 일반한식"},{"name":"에스케이 (SK)당구클럽","tel":"031-458-4524","addr":"경기도 군포시 당정동 522번지 SK벤티움 101동 412호","category":"레저업소 - 당 구 장"},{"name":"에스케이바다목장","tel":"031-453-0100","addr":"경기도 군포시 당정동 522 외 2필지 SK벤티움 101-312","category":"일반휴게음식 - 일식·회집"},{"name":"에스케이질러존노래연습장","tel":"031-452-3307","addr":"경기도 군포시 당정동 522번지 101동 316,317호","category":"레저업소 - 노 래 방"},{"name":"엑스트로닉스주식회사","tel":"031-436-1740","addr":"경기도 군포시 당정동 522번지 SK벤티움 101동 806호","category":"사무통신 - 통신기기"},{"name":"왕송농원","tel":"031-427-0300","addr":"경기도 군포시 당정동 522번지 SK벤티움 101동 403호","category":"음료식품 - 농·축·수산품"},{"name":"이레한식부페","tel":"031-436-0100","addr":"경기도 군포시 당정동 522번지 SK벤티움 101동 312호","category":"일반휴게음식 - 일반한식"},{"name":"장금이푸드","tel":"031-453-4542","addr":"경기도 군포시 당정동 522번지 SK벤티움 101동 115호","category":"일반휴게음식 - 일반한식"},{"name":"장금이푸드","tel":"031-253-0830","addr":"경기도 군포시 당정동 522번지 SK벤티움 101동 115호","category":"일반휴게음식 - 일반한식"},{"name":"장황노래연습장","tel":"031-477-7878","addr":"경기도 군포시 당정동 522번지 SK벤티움 101동 413호","category":"레저업소 - 노 래 방"},{"name":"전라도한식부페","tel":"031-436-0100","addr":"경기도 군포시 당정동 522번지 SK벤티움 101동 312호","category":"일반휴게음식 - 일반한식"},{"name":"주식회사 예스골프","tel":"02-808-0707","addr":"경기도 군포시 당정동 522번지 SK벤티움 101동 505호","category":"레져용품 - 스포츠·레져용품"},{"name":"주식회사 유니콘","tel":"031-457-7200","addr":"경기도 군포시 당정동 522번지 SK벤티움 101동 901호","category":"전기제품 - 기타전기제품"},{"name":"주식회사제이플러스","tel":"031-477-0240","addr":"경기도 군포시 당정동 522번지 SK벤티움 101동 606호","category":"사무통신 - 컴퓨터"},{"name":"주식회사케익드라마","tel":"031-456-0520","addr":"경기도 군포시 당정동 522 에스케이벤티움101동601~603호","category":"음료식품 - 제과점"},{"name":"지호한방삼계탕 당정점","tel":"031-342-3739","addr":"경기도 군포시 당정동 522번지 SK밴티움 101동 219호","category":"일반휴게음식 - 일반한식"},{"name":"태양꽃식물원","tel":"031-436-0633","addr":"경기도 군포시 당정동 522번지 SK벤티움 101동 218호","category":"문화.취미 - 화원"},{"name":"필텍엔지니어링","tel":"031-357-0369","addr":"경기도 군포시 당정동 522번지 SK벤티움 101동 706호","category":"용역 서비스 - 기타용역서비스"},{"name":"하이테크에어컨","tel":"031-459-4300","addr":"경기도 군포시 당정동 522번지 SK벤티움 101동 214호","category":"전기제품 - 가전제품"}]},{"lat":"37.349703191","long":"126.95230842","items":[{"name":"(사)대한산업안전협회 경기서부지회","tel":"031-1111-1111","addr":"경기도 군포시 당정동 522번지 SK벤티움 104동 903호","category":"학원 - 기타 교육기관"},{"name":"(사)한국척수장애인협회디지털인쇄사업소","tel":"031-429-8418","addr":"경기도 군포시 당정동 522번지 SK벤티움 104동 105호","category":"서적문구 - 출판 및 인쇄물"},{"name":"(주)베스콘","tel":"031-455-7600","addr":"경기도 군포시 당정동 522번지 SK벤티움 104동 1001호","category":"전기제품 - 기타전기제품"},{"name":"(주)스매싱스포츠","tel":"031-427-1787","addr":"경기도 군포시 당정동 522번지 SK벤티움 104동 506호","category":"레져용품 - 스포츠·레져용품"},{"name":"(주)코마틱코리아/원격지","tel":"02-574-9345","addr":"경기도 군포시 당정동 522번지 SK벤티움 104동 1112호","category":"기타 - 기타 전문점"},{"name":"(주)하일(Hail Co. Ltd.)","tel":"031-477-4142","addr":"경기도 군포시 당정동 522번지 SK벤티움 104동 403호","category":"전기제품 - 가전제품"},{"name":"대승WIRE TECH","tel":"031-454-2949","addr":"경기도 군포시 당정동 522번지 SK벤티움 104동 B101호","category":"기타 - 기계공구"},{"name":"비오비네이처주식회사","tel":"031-456-0365","addr":"경기도 군포시 당정동 522번지 SK벤티움 104동 1109호","category":"회원제형태 - 기타1"},{"name":"주식회사 와이에스","tel":"031-346-1157","addr":"경기도 군포시 당정동 522번지 SK벤티움 104동 1109호","category":"음료식품 - 농·축·수산품"},{"name":"주식회사일루코","tel":"031-429-8825","addr":"경기도 군포시 당정동 522번지 SK벤티움 104동 505호","category":"광학제품 - 기타광학제품"},{"name":"주식회사제네시스","tel":"031-476-4033","addr":"경기도 군포시 당정동 522번지 SK벤티움 104동 1101호","category":"서적문구 - 과학기자재"},{"name":"주식회사코스파인/원격지","tel":"031-436-0940","addr":"경기도 군포시 당정동 522번지 군포에스케이벤티움 104동 705호","category":"기타 - 기타 전문점"},{"name":"프로스테크","tel":"031-508-6667","addr":"경기도 군포시 당정동 522번지 외2필지SK벤티움 104동 1101호","category":"서적문구 - 과학기자재"},{"name":"효성인쇄문화사","tel":"031-395-8600","addr":"경기도 군포시 당정동 522번지 SK벤티움 104동 1106호","category":"서적문구 - 출판 및 인쇄물"}]},{"lat":"37.34967675","long":"126.95370793","items":[{"name":"(주) 네오하이테크","tel":"031-689-3389","addr":"경기도 군포시 당정동 1045번지 군포IT밸리 A동 24층 2403호","category":"기타 - 기계공구"},{"name":"(주)글로벌이테크","tel":"031-8086-8251","addr":"경기도 군포시 당정동 1045번지 군포IT밸리 A동 1601호","category":"사무통신 - 통신기기"},{"name":"(주)더나미애","tel":"031-451-5188","addr":"경기도 군포시 당정동 1045번지 군포IT밸리 B동 2003호","category":"보건위생 - 미용재료"},{"name":"(주)디웰전자","tel":"031-8235-0820","addr":"경기도 군포시 당정동 1045번지 군포아이티밸리 A동 1003호","category":"전기제품 - 기타전기제품"},{"name":"(주)세이프스퀘어","tel":"02-6951-3999","addr":"경기도 군포시 당정동 1045번지 군포IT밸리 2601-2호","category":"용역 서비스 - 소프트웨어"},{"name":"(주)아이차밍","tel":"031-345-1944","addr":"경기도 군포시 당정동 1045번지 군포아이티밸리 A동 3001호","category":"보건위생 - 화장품"},{"name":"(주)어퓨커뮤니케이션즈","tel":"031-689-5081","addr":"경기도 군포시 당정동 1045번지 군포아이티밸리 A동 1605호","category":"유통업 영리 - 기타유통업"},{"name":"(주)에스엔엘코리아","tel":"031-468-4668","addr":"경기도 군포시 당정동 1045번지 군포IT밸리 A동 805호","category":"서적문구 - 과학기자재"},{"name":"(주)에이치엔비(H&B lnc)","tel":"031-689-4741","addr":"경기도 군포시 당정동 1045번지 군포아이티밸리 A동 2601-2호","category":"전기제품 - 기타전기제품"},{"name":"(주)예가커뮤니케이션","tel":"02-1577-6605","addr":"경기도 군포시 당정동 1045번지 군포아이티밸리 B동 1604호","category":"서적문구 - 출판 및 인쇄물"},{"name":"(주)유니온소프트","tel":"031-1566-4261","addr":"경기도 군포시 당정동 1045번지 군포아이티밸리 3층 310호","category":"용역 서비스 - 소프트웨어"},{"name":"(주)유니콘기연","tel":"031-479-2171","addr":"경기도 군포시 당정동 1045번지 군포아이티밸리 204호","category":"용역 서비스 - 기타용역서비스"},{"name":"(주)이브이레이저","tel":"031-452-9860","addr":"경기도 군포시 당정동 1045번지 (313,313-1,317호)","category":"기타 - 기계공구"},{"name":"(주)인텍이앤씨","tel":"031-454-9315","addr":"경기도 군포시 당정동 1045번지 군포IT밸리A동 1401-1408호 A동 1401호","category":"사무통신 - 통신기기"},{"name":"(주)정연시스템","tel":"031-454-7250","addr":"경기도 군포시 당정동 1045번지 군포아이티밸리 A동 1602호","category":"기타 - 기계공구"},{"name":"(주)참메드","tel":"031-8068-1411","addr":"경기도 군포시 당정동 1045번지 에이동1301~1308호,비211~213호","category":"보건위생 - 의료용품"},{"name":"(주)케이엠비앤센서","tel":"02-875-1206","addr":"경기도 군포시 당정동 1045번지 군포아이티밸리 10층 제비1008호","category":"기타 - 기타 전문점"},{"name":"(주)티피이솔루션","tel":"031-8059-0917","addr":"경기도 군포시 당정동 1045번지 20층 비-2008호","category":"직물 - 기타직물"},{"name":"(주)희연프라자","tel":"031-8068-2090","addr":"경기도 군포시 당정동 1045번지 군포아이티밸리 상가 114호","category":"사무통신 - 통신기기"},{"name":"SKL SYSTEM","tel":"070-5056-4093","addr":"경기도 군포시 당정동 1045번지 군포아이티밸리 A동 1906호","category":"기타 - 기계공구"},{"name":"군포IT밸리관리위원회","tel":"031-8068-1111","addr":"경기도 군포시 당정동 1045번지 군포IT밸리 A동 지하 1층 관리위원회","category":"자동차정비 유지 - 주차장"},{"name":"기가넷","tel":"031-391-1198","addr":"경기도 군포시 당정동 1045번지 군포아이티밸리 1층 114호","category":"사무통신 - 컴퓨터"},{"name":"김밥여행","tel":"031-8086-8223","addr":"경기도 군포시 당정동 1045번지 군포아이티밸리 120호","category":"일반휴게음식 - 일반한식"},{"name":"나주곰탕","tel":"031-8086-8253","addr":"경기도 군포시 당정동 1045번지 1층 118호,119호","category":"일반휴게음식 - 일반한식"},{"name":"노바테크인터스트리(주)","tel":"031-387-5727","addr":"경기도 군포시 당정동 1045번지 군포아이티밸리 511호 군포아이티밸리","category":"전기제품 - 기타전기제품"},{"name":"대성사무용가구","tel":"031-458-4210","addr":"경기도 군포시 당정동 1045번지 군포IT밸리 1층 124호","category":"가구 - 일반가구"},{"name":"대호실업","tel":"031-429-8627","addr":"경기도 군포시 당정동 1045번지 군포IT밸리 210호","category":"기타 - 기계공구"},{"name":"드림디포 군포아이티밸리점","tel":"031-8068-1238","addr":"경기도 군포시 당정동 1045번지 110, 107-110호 군포IT밸리상가","category":"서적문구 - 문구용품"},{"name":"라온과학주식회사","tel":"031-477-7263","addr":"경기도 군포시 당정동 1045번지 군포아이티밸리 A동 1707호","category":"서적문구 - 과학기자재"},{"name":"미광메디칼","tel":"031-479-0800","addr":"경기도 군포시 당정동 1045번지 군포IT밸리 제지2층 제비218호","category":"자동차정비 유지 - 자동차부품"},{"name":"미래인터내셔널","tel":"031-395-4020","addr":"경기도 군포시 당정동 1045번지 외1필지 군포IT밸리 B동 907호","category":"기타 - 기계공구"},{"name":"미래인터내셔널 주식회사","tel":"031-395-0420","addr":"경기도 군포시 당정동 1045번지 군포아이티밸리 B동 907호","category":"기타 - 기계공구"},{"name":"바스테크(VASTECH)","tel":"070-8260-8258","addr":"경기도 군포시 당정동 1045번지 군포아이티밸리 711호 군포아이티밸리","category":"사무통신 - 컴퓨터"},{"name":"블랙캣","tel":"070-7826-1770","addr":"경기도 군포시 당정동 1045번지 군포아이티밸리 A동 3102호","category":"유통업 영리 - 기타유통업"},{"name":"상신기기상사","tel":"031-8086-7188","addr":"경기도 군포시 당정동 1045번지 군포아이티밸리 A동 2107호","category":"전기제품 - 기타전기제품"},{"name":"생생식품","tel":"031-361-6266","addr":"경기도 군포시 당정동 1045번지 군포IT밸리 A동 31층 3103호","category":"음료식품 - 정육점"},{"name":"서울기어","tel":"031-442-2836","addr":"경기도 군포시 당정동 1045번지 군포IT밸리 A동 403호","category":"전기제품 - 기타전기제품"},{"name":"서울아이티치과의원","tel":"031-456-8777","addr":"경기도 군포시 당정동 1045번지 군포아이티밸리 1동 126,127,128호","category":"의원 - 치과의원"},{"name":"서울판매","tel":"031-8068-2056","addr":"경기도 군포시 당정동 1045번지 군포IT밸리 B동 지층 121호","category":"자동차정비 유지 - 자동차시트·타이어"},{"name":"세아테크","tel":"070-8747-8995","addr":"경기도 군포시 당정동 1045번지 군포아이티밸리 B동 17층 1706호","category":"기타 - 기계공구"},{"name":"씨유군포아이티벨리점","tel":"031-349-5057","addr":"경기도 군포시 당정동 1045번지 군포IT밸리 1층 101호","category":"유통업 영리 - 편 의 점"},{"name":"아로조각","tel":"031-8068-2011","addr":"경기도 군포시 당정동 1045번지 군포아이티밸리 상가 106호","category":"문화.취미 - 화랑"},{"name":"아미트레이딩","tel":"031-391-7758","addr":"경기도 군포시 당정동 1045번지 군포IT밸리 A동 3202-1호","category":"음료식품 - 기타음료식품"},{"name":"아이콘 옵틱스","tel":"031-459-5760","addr":"경기도 군포시 당정동 1045번지 군포아이티밸리 B동 1108호","category":"광학제품 - 기타광학제품"},{"name":"아톰이엔지(ENG)","tel":"031-8086-8160","addr":"경기도 군포시 당정동 1045번지 군포아이티밸리 B동 902호","category":"기타 - 기계공구"},{"name":"알로라(ALLORA)","tel":"","addr":"경기도 군포시 당정동 1045번지 군포IT밸리 상가동 125호","category":"음료식품 - 기타음료식품"},{"name":"에이피앤드컴페니 주식회사","tel":"070-4649-1102","addr":"경기도 군포시 당정동 1045번지 군포IT밸리 4층 415호","category":"보건위생 - 화장품"},{"name":"워터스생활환경연구소","tel":"031-689-3231","addr":"경기도 군포시 당정동 1045번지 군포IT밸리 A동 1204호","category":"용역 서비스 - 사무서비스"},{"name":"이랑","tel":"031-8068-1505","addr":"경기도 군포시 당정동 1045번지 군포IT밸리상가 비101호","category":"일반휴게음식 - 일반한식"},{"name":"이레정광","tel":"031-8086-7100","addr":"경기도 군포시 당정동 1045번지 군포아이티밸리 A동 107호","category":"용역 서비스 - 종합용역"},{"name":"이모션메이커(Emotion Maker)","tel":"031-689-5503","addr":"경기도 군포시 당정동 1045번지 군포아이티밸리 A동 지하 311호","category":"의류 - 아동의류"},{"name":"제이애드컴","tel":"031-441-1908","addr":"경기도 군포시 당정동 1045번지 군포IT밸리 708호","category":"서적문구 - 출판 및 인쇄물"},{"name":"제이엠토탈","tel":"070-7771-2001","addr":"경기도 군포시 당정동 1045번지 109호 군포IT벨리자식산업센터 공장","category":"자동차정비 유지 - 자동차부품"},{"name":"주식회사 나무","tel":"02-806-1300","addr":"경기도 군포시 당정동 1045번지 군포아이티밸리 B동 1605호","category":"서적문구 - 과학기자재"},{"name":"주식회사 노아텍","tel":"031-8068-1002","addr":"경기도 군포시 당정동 1045번지 군포IT밸리 723호","category":"건축자재 - 조명기구"},{"name":"주식회사 누리테크","tel":"031-8068-1003","addr":"경기도 군포시 당정동 1045번지 군포IT밸리 B동 804호","category":"전기제품 - 기타전기제품"},{"name":"주식회사 델타에프엔지","tel":"031-689-3577","addr":"경기도 군포시 당정동 1045번지 군포아이티밸리 에이동 2701-2호","category":"레져용품 - 스포츠·레져용품"},{"name":"주식회사 씨큐비젼텍","tel":"031-8084-3540","addr":"경기도 군포시 당정동 1045번지 군포IT밸리 B동 1204호","category":"전기제품 - 기타전기제품"},{"name":"주식회사 아톰이엔지","tel":"031-8086-8160","addr":"경기도 군포시 당정동 1045번지 군포IT밸리 B동 902호","category":"기타 - 기계공구"},{"name":"주식회사 에디션스토리","tel":"031-1522-5072","addr":"경기도 군포시 당정동 1045번지 3102-1호","category":"음료식품 - 기타음료식품"},{"name":"주식회사 엔솔파트너스","tel":"031-8086-7230","addr":"경기도 군포시 당정동 1045번지 군포아이티밸리 705호","category":"용역 서비스 - 기타용역서비스"},{"name":"주식회사 엘로코","tel":"031-427-9203","addr":"경기도 군포시 당정동 1045번지 군포아이티밸리 A동 1808호","category":"주방용구 - 주방용구"},{"name":"주식회사 엠엘랩프랜즈","tel":"031-477-5713","addr":"경기도 군포시 당정동 1045번지 군포IT밸리 지하1층 119호","category":"서적문구 - 과학기자재"},{"name":"주식회사 포스버","tel":"031-295-9057","addr":"경기도 군포시 당정동 1045번지 군포IT밸리 B동 1505호","category":"용역 서비스 - 기타용역서비스"},{"name":"주식회사 하이엘텍","tel":"031-451-2314","addr":"경기도 군포시 당정동 1045번지 군포아이티밸리 A동 1208호","category":"전기제품 - 기타전기제품"},{"name":"주식회사 한스메디칼","tel":"031-346-3093","addr":"경기도 군포시 당정동 1045번지 군포IT밸리 318호","category":"보건위생 - 의료용품"},{"name":"주식회사 화인엠티","tel":"031-267-2607","addr":"경기도 군포시 당정동 1045번지 군포아이티밸리 A동 2501~2508호","category":"전기제품 - 기타전기제품"},{"name":"주식회사로우템","tel":"031-427-0792","addr":"경기도 군포시 당정동 1045번지 군포아이티벨리 301호~302호","category":"보건위생 - 의료용품"},{"name":"주식회사사마스이앤지","tel":"070-4106-3002","addr":"경기도 군포시 당정동 1045번지 군포IT밸리 109호","category":"전기제품 - 냉열기기"},{"name":"주식회사스타아이앤씨","tel":"070-4694-1112","addr":"경기도 군포시 당정동 1045번지 군포IT밸리제3층제311호","category":"사무통신 - 통신기기"},{"name":"주식회사엘에스물산","tel":"031-342-5577","addr":"경기도 군포시 당정동 1045번지 군포IT밸리 A동 2208호","category":"건강식품 - 기타건강식품"},{"name":"주식회사인터","tel":"031-689-3542","addr":"경기도 군포시 당정동 1045번지 군포아이티밸리 A동 3204호","category":"가구 - 일반가구"},{"name":"주식회사제우테크(JEUTECH Co. Ltd.)","tel":"070-7434-0474","addr":"경기도 군포시 당정동 1045번지 군포아이티밸리 B동 1105호","category":"전기제품 - 기타전기제품"},{"name":"주식회사케이에이치티엔지니어링","tel":"02-2683-0987","addr":"경기도 군포시 당정동 1045번지 군포아이티밸리 110호","category":"서적문구 - 과학기자재"},{"name":"주식회사한울엔지니어링","tel":"031-479-5272","addr":"경기도 군포시 당정동 1045번지 군포아이티밸리 713호","category":"서적문구 - 과학기자재"},{"name":"주식회사한울엔지니어링/원격지","tel":"031-479-5272","addr":"경기도 군포시 당정동 1045번지 군포아이티밸리 713호","category":"기타 - 기타 전문점"},{"name":"진사골순대국","tel":"031-8086-8259","addr":"경기도 군포시 당정동 1045번지 군포IT밸리 상가동 103호","category":"일반휴게음식 - 일반한식"},{"name":"켈론 주식회사","tel":"031-8086-8281","addr":"경기도 군포시 당정동 1045번지 아이티밸리 A동 1108호","category":"서적문구 - 과학기자재"},{"name":"크레푸드","tel":"031-395-4464","addr":"경기도 군포시 당정동 1045번지 군포아이티밸리 201호","category":"음료식품 - 기타음료식품"},{"name":"팔공티 군포아이티밸리점","tel":"031-000-0000","addr":"경기도 군포시 당정동 1045번지 군포아이티밸리 상가 1층 123호","category":"일반휴게음식 - 서양음식"},{"name":"화명바이오","tel":"031-8086-0674","addr":"경기도 군포시 당정동 1045번지 군포IT밸리 B동 15층 1506호","category":"보건위생 - 화장품"}]},{"lat":"37.365589761","long":"126.95639552","items":[{"name":"(주) 더윈테크","tel":"031-689-3447","addr":"경기도 군포시 당정동 2-3번지 군포신일IT유토 501호","category":"신변잡화 - 기타잡화"},{"name":"(주)국제통신","tel":"","addr":"경기도 군포시 당정동 2-3번지 신일IT유토지식산업센터 602호","category":"전기제품 - 기타전기제품"},{"name":"(주)덕산교역","tel":"031-444-0933","addr":"경기도 군포시 당정동 2-3번지 신일IT유토지식산업센터 B동 106호","category":"기타 - 기계공구"},{"name":"(주)동영에프에이","tel":"031-429-2816","addr":"경기도 군포시 당정동 2-3번지 신일IT유토지식산업센터 S동 201호","category":"기타 - 기계공구"},{"name":"(주)베스트마킹","tel":"062-383-4819","addr":"경기도 군포시 당정동 2-3번지 신일IT유토지식산업센터 304호","category":"기타 - 기계공구"},{"name":"(주)이에스식품원료","tel":"02-1599-3150","addr":"경기도 군포시 당정동 2-3번지 신일IT유토지식산업센터 104호","category":"음료식품 - 기타음료식품"},{"name":"(주)코엘","tel":"031-429-4301","addr":"경기도 군포시 당정동 2-3번지 신일IT유토지식산업센터 12층 1205호","category":"전기제품 - 기타전기제품"},{"name":"(주)하이나비","tel":"031-424-4233","addr":"경기도 군포시 당정동 2-3번지 신일IT유토지식산업센터 1303호","category":"자동차정비 유지 - 자동차부품"},{"name":"(주)하이디스플레이","tel":"031-427-9089","addr":"경기도 군포시 당정동 2-3번지 신일아이티유토지식산업센터 5층","category":"사무통신 - 컴퓨터"},{"name":"ES","tel":"031-396-3308","addr":"경기도 군포시 당정동 2-3번지 S-101호 신일IT유토","category":"신변잡화 - 기타잡화"},{"name":"IGA 신일IT점","tel":"031-768-0708","addr":"경기도 군포시 당정동 2-3번지 신일아이티유토지식산업센터 1층 S102호","category":"유통업 영리 - 편 의 점"},{"name":"교촌치킨 호계3호점","tel":"031-452-9936","addr":"경기도 군포시 당정동 2-3번지 신일아이티유토 S동 102호","category":"일반휴게음식 - 스넥"},{"name":"다큐페이스 신일IT점","tel":"031-456-7452","addr":"경기도 군포시 당정동 2-3번지 2층 S-201호","category":"서적문구 - 출판 및 인쇄물"},{"name":"대원푸드스토리","tel":"031-689-4455","addr":"경기도 군포시 당정동 2-3번지 지하1층S-B101호,신일IT유토지식산업센터","category":"일반휴게음식 - 일반한식"},{"name":"더밥군포점","tel":"031-689-4455","addr":"경기도 군포시 당정동 2-3번지 지층 S-B101호 1층","category":"일반휴게음식 - 일반한식"},{"name":"리베독일","tel":"031-851-0853","addr":"경기도 군포시 당정동 2-3번지 신일IT유토지식산업센터 712호","category":"주방용구 - 주방용구"},{"name":"세븐일레븐군포신일타워점","tel":"","addr":"경기도 군포시 당정동 2-3번지 신일아이티유토지식산업센터 S동 102호","category":"유통업 영리 - 편 의 점"},{"name":"신원카툴스","tel":"031-479-0049","addr":"경기도 군포시 당정동 2-3번지 409호 (신일IT유토지식산업센터, 당정동)","category":"기타 - 기계공구"},{"name":"신일IT유토관리단 운영위원회","tel":"031-689-3410","addr":"경기도 군포시 당정동 2-3번지","category":"자동차정비 유지 - 주차장"},{"name":"신일IT유토관리운영위원회","tel":"031-689-3410","addr":"경기도 군포시 당정동 2-3번지","category":"자동차정비 유지 - 주차장"},{"name":"에네스와이","tel":"031-689-4306","addr":"경기도 군포시 당정동 2-3번지 신일IT유토 506호","category":"보건위생 - 화장품"},{"name":"에이엔티주식회사","tel":"031-456-6886","addr":"경기도 군포시 당정동 2-3번지 에스동신일IT유토지식산업센터 202호","category":"기타 - 기계공구"},{"name":"에이피 코퍼레이션","tel":"031-380-4260","addr":"경기도 군포시 당정동 2-3번지 신일아이티유토지식산업센터 505호","category":"전기제품 - 기타전기제품"},{"name":"엠아이시스템","tel":"031-000-0000","addr":"경기도 군포시 당정동 2-3번지 S202호","category":"기타 - 기계공구"},{"name":"오피스넥스 군포의왕점","tel":"031-427-2668","addr":"경기도 군포시 당정동 2-3번지 신일IT유토지식산업센터 S동 203호","category":"서적문구 - 문구용품"},{"name":"우일효소","tel":"031-689-5677","addr":"경기도 군포시 당정동 2-3번지 신일IT유토지식산업센터 409호","category":"회원제형태 - 건강식품"},{"name":"이디텍","tel":"070-4365-7625","addr":"경기도 군포시 당정동 2-3번지 신일아이티유토지식산업센터 6동 609호","category":"전기제품 - 기타전기제품"},{"name":"인제","tel":"00-1688-5488","addr":"경기도 군포시 당정동 2-3번지 신일 IT유토 611호","category":"보건위생 - 의료용품"},{"name":"일신전자","tel":"031-609-9980","addr":"경기도 군포시 당정동 2-3번지 신일아이티유토지식산업센터 9층 905호","category":"사무통신 - 통신기기"},{"name":"제이 일렉트릭","tel":"031-397-1545","addr":"경기도 군포시 당정동 2-3번지 신일IT유토지식산업센터 1403호","category":"전기제품 - 가전제품"},{"name":"주식회사 다윈","tel":"031-459-5517","addr":"경기도 군포시 당정동 2-3번지 신일IT유토 703호","category":"전기제품 - 기타전기제품"},{"name":"주식회사 마토코리아","tel":"031-427-8743","addr":"경기도 군포시 당정동 2-3번지 신일IT유토지식산업센터 305호","category":"기타 - 기계공구"},{"name":"주식회사 윈스테크","tel":"031-427-1095","addr":"경기도 군포시 당정동 2-3번지 신일아이티유토지식산업센터 403호","category":"기타 - 기계공구"},{"name":"주식회사 제이컴퍼니","tel":"031-000-0000","addr":"경기도 군포시 당정동 2-3번지 신일IT유토지식산업센터 509호","category":"전기제품 - 기타전기제품"},{"name":"주식회사 지플러스","tel":"031-427-8316","addr":"경기도 군포시 당정동 2-3번지 신일IT유토지식산업센터 1011,1012호","category":"자동차정비 유지 - 자동차부품"},{"name":"주식회사 코비엣인터내셔널","tel":"070-4488-6194","addr":"경기도 군포시 당정동 2-3번지 신일아이티유토 1303호","category":"용역 서비스 - 사무서비스"},{"name":"주식회사 텔레스타","tel":"031-435-0226","addr":"경기도 군포시 당정동 2-3번지 신일IT유토지식산업센터 1010호","category":"사무통신 - 통신기기"},{"name":"주식회사엘지에스","tel":"031-689-4684","addr":"경기도 군포시 당정동 2-3번지 신일IT유토지식산업센터 607호","category":"전기제품 - 기타전기제품"},{"name":"주식회사재원","tel":"031-477-7333","addr":"경기도 군포시 당정동 2-3번지 신일아이티유토 509호","category":"기타 - 기계공구"},{"name":"주식회사제이더스화학","tel":"031-382-5553","addr":"경기도 군포시 당정동 2-3번지 신일IT유토지식산업센터 2층 S-202호","category":"서적문구 - 과학기자재"},{"name":"주식회사피디에이치","tel":"070-4659-0788","addr":"경기도 군포시 당정동 2-3번지 신일군포아이티유토지식산업센터 502호","category":"전기제품 - 기타전기제품"},{"name":"카링크","tel":"070-7793-0407","addr":"경기도 군포시 당정동 2-3번지 신일IT유토지식산업센터 1012호","category":"자동차정비 유지 - 자동차부품"},{"name":"하비인사이드","tel":"031-689-4660","addr":"경기도 군포시 당정동 2-3번지 군포산원IT유토410호~411호 410호","category":"서적문구 - 완구점"},{"name":"한국공조기술개발(주)","tel":"031-689-4333","addr":"경기도 군포시 당정동 2-3번지 신일IT유토지식산업센터101,102,103,104호","category":"전기제품 - 기타전기제품"},{"name":"홀리커피","tel":"070-7757-0742","addr":"경기도 군포시 당정동 2-3번지 신일IT유토지식산업센터 104호","category":"일반휴게음식 - 서양음식"}]},{"lat":"37.36277902","long":"126.95748092","items":[{"name":"(주) 삼광특수강","tel":"031-454-3468","addr":"경기도 군포시 당정동 18-18","category":"기타 - 기계공구"}]},{"lat":"37.358001522","long":"126.9522577","items":[{"name":"(주) 아워홈 엘에스군포알앤디센터점","tel":"031-450-8080","addr":"경기도 군포시 당정동 181번지 1층","category":"일반휴게음식 - 위탁급식업"}]},{"lat":"37.34728068","long":"126.95525565","items":[{"name":"(주) 에프티씨","tel":"031-451-0761","addr":"경기도 군포시 당정동 35블럭7.8롯트비젼프라자4층","category":"사무통신 - 통신기기"},{"name":"84양은냄비","tel":"031-429-3335","addr":"경기도 군포시 당정동 970-7번지 비젼프라자 105호","category":"일반휴게음식 - 일반한식"},{"name":"공릉동원조멸치국수","tel":"031-454-8373","addr":"경기도 군포시 당정동 970-7번지 비젼프라자 101호","category":"일반휴게음식 - 일반한식"},{"name":"글로리 휘트니스","tel":"031-458-1236","addr":"경기도 군포시 당정동 970-7번지 비젼프라자 401동 403호","category":"레저업소 - 헬스클럽"},{"name":"눈부신그대","tel":"031-000-0000","addr":"경기도 군포시 당정동 970-7번지 비젼프라자 201-1호","category":"보건위생 - 피부미용실"},{"name":"대한법무사사무소","tel":"031-429-0692","addr":"경기도 군포시 당정동 970-7번지 비젼프라자 201-2호","category":"용역 서비스 - 법률회계서비스(개인)"},{"name":"명랑쌀핫도그 (한세대점)","tel":"031-427-1616","addr":"경기도 군포시 당정동 970-7번지 비젼프라자 102호","category":"일반휴게음식 - 서양음식"},{"name":"우리동네빵굼터","tel":"031-456-6975","addr":"경기도 군포시 당정동 970-7번지 비젼프라자 1층 104호","category":"음료식품 - 제과점"},{"name":"진주만두","tel":"031-427-6979","addr":"경기도 군포시 당정동 970-7번지 비젼프라자 103호","category":"일반휴게음식 - 스넥"}]},{"lat":"37.349750897","long":"126.95895597","items":[{"name":"(주) 정원이디에쓰 당정스타주유소","tel":"031-451-8600","addr":"경기도 군포시 당정동 405-1,404-2","category":"연료판매점 - GS주유소"},{"name":"당정스타주유소","tel":"031-451-8600","addr":"경기도 군포시 당정동 405-1번지","category":"연료판매점 - 주유소"},{"name":"오토오아시스 당정스타점","tel":"031-388-8802","addr":"경기도 군포시 당정동 405-1번지","category":"자동차정비 유지 - 자동차정비"}]},{"lat":"37.34939049","long":"126.95895618","items":[{"name":"(주)가남개발","tel":"031-427-3855","addr":"경기도 군포시 당정동 405-2번지","category":"기타 - 기타 전문점"},{"name":"(주)한성기공","tel":"031-459-4500","addr":"경기도 군포시 당정동 405-2번지","category":"기타 - 기계공구"}]},{"lat":"37.355001215","long":"126.95242902","items":[{"name":"(주)고도기연","tel":"031-457-6100","addr":"경기도 군포시 당정동 321-1번지","category":"서적문구 - 과학기자재"},{"name":"(주)라셀코리아","tel":"","addr":"경기도 군포시 당정동 321-1번지 2층","category":"기타 - 기타 전문점"},{"name":"대일전자","tel":"031-451-2738","addr":"경기도 군포시 당정동 321-1번지","category":"전기제품 - 기타전기제품"},{"name":"정원푸드","tel":"031-452-2315","addr":"경기도 군포시 당정동 321-1번지 2층","category":"일반휴게음식 - 일반한식"}]},{"lat":"37.350506926","long":"126.95678855","items":[{"name":"(주)공진","tel":"031-453-8335","addr":"경기도 군포시 당정동 429-2번지","category":"기타 - 기계공구"}]},{"lat":"37.3642287","long":"126.95506433","items":[{"name":"(주)그린라이프","tel":"031-453-8229","addr":"경기도 군포시 당정동 230-7번지 이앰솔루션스 2층","category":"전기제품 - 냉열기기"}]},{"lat":"37.35292197","long":"126.95762229","items":[{"name":"(주)나노포인트/원격지","tel":"031-454-5468","addr":"경기도 군포시 당정동 358번지 군포창업보육센터 201호","category":"기타 - 기타 전문점"}]},{"lat":"37.347253884","long":"126.95584253","items":[{"name":"(주)나래바이오테크","tel":"031-451-1094","addr":"경기도 군포시 당정동 980-1번지 유영빌딩 4층 401호","category":"서적문구 - 과학기자재"},{"name":"막창(인)","tel":"070-1111-1111","addr":"경기도 군포시 당정동 980-1번지 유영빌딩 1층 103호","category":"일반휴게음식 - 일반한식"},{"name":"오우바","tel":"031-349-4994","addr":"경기도 군포시 당정동 980-1번지 유영빌딩 1층 102호","category":"일반휴게음식 - 주점"},{"name":"플라이복싱다이어트짐","tel":"031-427-6665","addr":"경기도 군포시 당정동 980-1번지 유영빌딩 3층","category":"레저업소 - 헬스클럽"},{"name":"피자스쿨한세대점","tel":"031-456-8255","addr":"경기도 군포시 당정동 980-1번지 유영빌딩 101호","category":"일반휴게음식 - 서양음식"}]},{"lat":"37.354227177","long":"126.95442732","items":[{"name":"(주)누리바이오텍","tel":"031-459-9521","addr":"경기도 군포시 당정동 325-32번지 3층","category":"서적문구 - 과학기자재"},{"name":"일진ENG","tel":"031-477-6025","addr":"경기도 군포시 당정동 325-32번지","category":"전기제품 - 기타전기제품"}]},{"lat":"37.35686723","long":"126.9546175","items":[{"name":"(주)다올씨앤씨","tel":"031-399-2040","addr":"경기도 군포시 당정동 181-42번지 엠테크노센터 917호","category":"건축자재 - 페인트"},{"name":"(주)디지로그테크","tel":"070-4165-9051","addr":"경기도 군포시 당정동 181-42번지 207,208","category":"전기제품 - 기타전기제품"},{"name":"(주)티씨엔","tel":"","addr":"경기도 군포시 당정동 181-42번지 엠테크노당정지식센터 1011호","category":"사무통신 - 통신기기"},{"name":"그레이스코리아","tel":"070-7781-4243","addr":"경기도 군포시 당정동 181-42번지 9층 916호","category":"건강식품 - 기타건강식품"},{"name":"대한오토파츠","tel":"031-000-0000","addr":"경기도 군포시 당정동 181-42번지 2층 211호","category":"자동차정비 유지 - 자동차부품"},{"name":"마루","tel":"000-0000-0000","addr":"경기도 군포시 당정동 181-42번지 1층 제씨109,씨110호","category":"일반휴게음식 - 일반한식"},{"name":"성진하이텍","tel":"031-398-8123","addr":"경기도 군포시 당정동 181-42번지 1209호","category":"사무통신 - 컴퓨터"},{"name":"씨유군포엠테크점","tel":"080-080-3663","addr":"경기도 군포시 당정동 181-42번지 C101호,C102호","category":"유통업 영리 - 편 의 점"},{"name":"엠테크노센터 관리위원회","tel":"031-740-2715","addr":"경기도 군포시 당정동 181-42번지","category":"자동차정비 유지 - 주차장"},{"name":"윈윈종합관리(주)","tel":"031-470-2715","addr":"경기도 군포시 당정동 181-42번지","category":"자동차정비 유지 - 주차장"},{"name":"유원테크","tel":"","addr":"경기도 군포시 당정동 181-42번지 엠테크노지식산업센터 13층 1313호","category":"사무통신 - 통신기기"},{"name":"존쿡푸드","tel":"","addr":"경기도 군포시 당정동 181-42번지 엠테크노센터 지하1층","category":"일반휴게음식 - 일반한식"},{"name":"주식회사 비엑스엘이디","tel":"031-470-2757","addr":"경기도 군포시 당정동 181-42번지 903호","category":"건축자재 - 조명기구"},{"name":"주식회사 엔디트레이딩","tel":"031-451-4491","addr":"경기도 군포시 당정동 181-42번지 엠테크노센터 1012호","category":"전기제품 - 기타전기제품"},{"name":"지엠","tel":"","addr":"경기도 군포시 당정동 181-42번지 M-테크노센터 802호","category":"용역 서비스 - 소프트웨어"},{"name":"착한커피","tel":"031-1111-1111","addr":"경기도 군포시 당정동 181-42번지 1동 C104호","category":"일반휴게음식 - 서양음식"},{"name":"코아텍계측기","tel":"031-428-8959","addr":"경기도 군포시 당정동 181-42번지 엠테크노당정지식산업센터 10층 1005호","category":"사무통신 - 통신기기"},{"name":"필터스/원격지","tel":"031-252-4966","addr":"경기도 군포시 당정동 181-42번지 6층 614호","category":"기타 - 기타 전문점"},{"name":"한성","tel":"031-453-8345","addr":"경기도 군포시 당정동 181-42번지 M테크노센터 102호","category":"기타 - 기계공구"},{"name":"한성건드릴","tel":"031-453-8345","addr":"경기도 군포시 당정동 181-42번지 M테크노센터 104호","category":"기타 - 기계공구"}]},{"lat":"37.351587118","long":"126.95422586","items":[{"name":"(주)다위실업정공","tel":"031-453-1605","addr":"경기도 군포시 당정동 474번지 삼풍프라자 202호","category":"보건위생 - 의료용품"},{"name":"(주)에이스인스트루먼트","tel":"031-459-8754","addr":"경기도 군포시 당정동 474번지 삼풍프라자 102호","category":"기타 - 기타 전문점"},{"name":"경면나노테크","tel":"031-429-6779","addr":"경기도 군포시 당정동 474번지 삼풍프라자 2층 201호","category":"전기제품 - 기타전기제품"},{"name":"금호식당","tel":"031-429-1209","addr":"경기도 군포시 당정동 474번지 외5필지삼풍프라자 104호","category":"일반휴게음식 - 일반한식"},{"name":"주식회사 그린트러스트","tel":"031-451-0772","addr":"경기도 군포시 당정동 474번지 삼풍프라자 B101호","category":"건축자재 - 기타건축자재"}]},{"lat":"37.362832889","long":"126.9569842","items":[{"name":"(주)다인텍","tel":"031-451-5886","addr":"경기도 군포시 당정동 18-20번지 1층","category":"기타 - 기계공구"}]},{"lat":"37.351974703","long":"126.95458678","items":[{"name":"(주)대흥 에프엔비","tel":"031-457-0111","addr":"경기도 군포시 당정동 473-5번지 4층","category":"음료식품 - 기타음료식품"},{"name":"나따오비까(NATAOBICA)/(주)대흥 군포지점","tel":"031-459-2311","addr":"경기도 군포시 당정동 473-5번지 102호","category":"일반휴게음식 - 서양음식"},{"name":"오피스큐군포점","tel":"031-457-2326","addr":"경기도 군포시 당정동 473-5번지","category":"서적문구 - 문구용품"},{"name":"주식회사 지엠무역","tel":"070-8863-1100","addr":"경기도 군포시 당정동 473-5번지 2층","category":"유통업 영리 - 기타유통업"}]},{"lat":"37.354640035","long":"126.95064592","items":[{"name":"(주)대흥정밀산업/원격지","tel":"031-477-2406","addr":"경기도 군포시 당정동 316번지 (주)대흥정밀산업","category":"기타 - 기타 전문점"}]},{"lat":"37.360721613","long":"126.95003216","items":[{"name":"(주)덴키스트","tel":"031-458-3232","addr":"경기도 군포시 당정동 265번지","category":"보건위생 - 의료용품"},{"name":"주식회사 장원식품","tel":"031-446-9307","addr":"경기도 군포시 당정동 265번지 지하1층","category":"음료식품 - 정육점"},{"name":"토이온","tel":"031-457-5770","addr":"경기도 군포시 당정동 265번지 2층","category":"서적문구 - 완구점"}]},{"lat":"37.351173327","long":"126.95589652","items":[{"name":"(주)동영미디어","tel":"031-458-1121","addr":"경기도 군포시 당정동 426-1번지","category":"전기제품 - 가전제품"}]},{"lat":"37.353175121","long":"126.95994721","items":[{"name":"(주)두비산업","tel":"070-4620-1103","addr":"경기도 군포시 당정동 372-6번지","category":"음료식품 - 기타음료식품"}]},{"lat":"37.353029975","long":"126.95731749","items":[{"name":"(주)듀라소닉","tel":"031-458-2171","addr":"경기도 군포시 당정동 357번지","category":"기타 - 기타 전문점"},{"name":"(주)듀라소닉/원격지","tel":"031-458-2171","addr":"경기도 군포시 당정동 357번지","category":"기타 - 기타 전문점"},{"name":"에이스진공/원격지","tel":"031-427-3309","addr":"경기도 군포시 당정동 357번지","category":"기타 - 기타 전문점"}]},{"lat":"37.353228547","long":"126.95823159","items":[{"name":"(주)디알테크","tel":"031-459-7527","addr":"경기도 군포시 당정동 365번지","category":"사무통신 - 컴퓨터"},{"name":"(주)비젼501","tel":"031-429-6654","addr":"경기도 군포시 당정동 365번지","category":"용역 서비스 - 종합용역"}]},{"lat":"37.351838603","long":"126.95231827","items":[{"name":"(주)루쏘코리아","tel":"031-454-7898","addr":"경기도 군포시 당정동 500-2동국화공(주)군포공장내별관","category":"전기제품 - 기타전기제품"},{"name":"동국한식부페","tel":"031-427-0601","addr":"경기도 군포시 당정동 500-2번지 2층","category":"일반휴게음식 - 일반한식"},{"name":"미래중량","tel":"031-451-2100","addr":"경기도 군포시 당정동 500-2번지 1층 동국화공내","category":"용역 서비스 - 기타용역서비스"},{"name":"브레인 고(GO)","tel":"031-455-2556","addr":"경기도 군포시 당정동 500-2번지 1층","category":"서적문구 - 일반서적"}]},{"lat":"37.343449004","long":"126.94972828","items":[{"name":"(주)리아모","tel":"031-427-2150","addr":"경기도 군포시 당정동 1013-7번지 동호프라자 3층 302호","category":"가구 - 일반가구"},{"name":"고기백화점","tel":"031-455-9953","addr":"경기도 군포시 당정동 1013-7번지 동호프라자 110호","category":"음료식품 - 정육점"},{"name":"고기백화점정육식당","tel":"031-455-9953","addr":"경기도 군포시 당정동 1013-7번지 동호프라자 109호","category":"일반휴게음식 - 일반한식"},{"name":"블루","tel":"031-000-0000","addr":"경기도 군포시 당정동 1013-7번지 동호프라자 120호","category":"의류 - 정장"},{"name":"산본닭발 (당정점)","tel":"031-429-8778","addr":"경기도 군포시 당정동 1013-7번지 동호프라자 1층 111호","category":"일반휴게음식 - 일반한식"},{"name":"신통치킨(당정역점)","tel":"031-342-2258","addr":"경기도 군포시 당정동 1013-7번지 동호프라자 113호","category":"일반휴게음식 - 주점"},{"name":"아벡데프리츠","tel":"031-454-4770","addr":"경기도 군포시 당정동 1013-7번지 동호프라자 102호","category":"일반휴게음식 - 스넥"},{"name":"아줌마네포차","tel":"031-427-8998","addr":"경기도 군포시 당정동 1013-7번지 동호프라자 1층 101호","category":"일반휴게음식 - 일반한식"},{"name":"은광자동차정비","tel":"031-477-2591","addr":"경기도 군포시 당정동 1013-7,8,9동호프라자107호~108호","category":"자동차정비 유지 - 자동차정비"},{"name":"제이티테크","tel":"070-7696-3699","addr":"경기도 군포시 당정동 1013-7번지 동호프라자 3층 304호","category":"전기제품 - 기타전기제품"},{"name":"주식회사 제이원","tel":"031-459-3800","addr":"경기도 군포시 당정동 1013-7번지 동호프라자 306호,119호","category":"음료식품 - 정육점"},{"name":"칼국수마을","tel":"031-455-4163","addr":"경기도 군포시 당정동 1013-7번지 동호프라자 105호","category":"일반휴게음식 - 일반한식"},{"name":"크린토피아군포당정역점","tel":"031-453-3231","addr":"경기도 군포시 당정동 1013-7번지 동호프라자 112호","category":"수리서비스 - 세탁소"},{"name":"토담생선구이","tel":"031-477-2050","addr":"경기도 군포시 당정동 1013-7번지 동호프라자 204호","category":"일반휴게음식 - 일반한식"},{"name":"핑크쿠키랩(pink cookie lab)","tel":"","addr":"경기도 군포시 당정동 1013-7번지 동호프라자 121호","category":"일반휴게음식 - 서양음식"},{"name":"홈케어SEL","tel":"070-8600-3277","addr":"경기도 군포시 당정동 1013-7번지 동호프라자 1층 115호","category":"전기제품 - 가전제품"}]},{"lat":"37.365228452","long":"126.95414932","items":[{"name":"(주)리트젠","tel":"031-419-6700","addr":"경기도 군포시 당정동 231-8번지","category":"기타 - 기계공구"},{"name":"(주)리트젠/원격지","tel":"031-419-6700","addr":"경기도 군포시 당정동 231-8번지","category":"기타 - 기타 전문점"},{"name":"지엔디","tel":"031-427-8711","addr":"경기도 군포시 당정동 231-8번지","category":"전기제품 - 기타전기제품"},{"name":"지엔디/원격지","tel":"031-427-8770","addr":"경기도 군포시 당정동 231-8번지","category":"기타 - 기타 전문점"}]},{"lat":"37.363500343","long":"126.95883507","items":[{"name":"(주)림아트/원격지","tel":"031-452-5616","addr":"경기도 군포시 당정동 16-1번지 한솔테크노타운 601호","category":"기타 - 기타 전문점"},{"name":"(주)소노텍/원격지","tel":"031-476-2082","addr":"경기도 군포시 당정동 16-1번지 한솔테크노타운 403호","category":"기타 - 기타 전문점"},{"name":"(주)신안정보시스템","tel":"031-689-6451","addr":"경기도 군포시 당정동 16-1번지 한솔테크노타운 810호","category":"용역 서비스 - 소프트웨어"},{"name":"(주)이엠이임플란트","tel":"031-453-2528","addr":"경기도 군포시 당정동 16-1번지 한솔테크노타운 404호","category":"기타의료기관 - 기타의료기관 및 기타"},{"name":"(주)클린푸드팩토리","tel":"031-451-3651","addr":"경기도 군포시 당정동 16-1번지 한솔테크노타운 5층 508호","category":"음료식품 - 기타음료식품"},{"name":"BIG SOUND","tel":"031-246-6368","addr":"경기도 군포시 당정동 16-1번지 한솔테크노타운 101호","category":"레져용품 - 음반/영상물"},{"name":"DEBORA전자/원격지","tel":"031-458-7966","addr":"경기도 군포시 당정동 16-1번지 한솔테크노타운 506호","category":"기타 - 기타 전문점"},{"name":"더블유에스코퍼레이션주식회사(WS Corp.)","tel":"02-1588-1640","addr":"경기도 군포시 당정동 16-1번지 한솔테크노타운 801호","category":"전기제품 - 기타전기제품"},{"name":"미창통신","tel":"031-429-9911","addr":"경기도 군포시 당정동 16-1번지 한솔테크노 907호","category":"사무통신 - 통신기기"},{"name":"보산","tel":"031-455-7474","addr":"경기도 군포시 당정동 16-1번지 한솔테크노타운 414호","category":"의류 - 내의판매"},{"name":"블루키친","tel":"070-4649-1102","addr":"경기도 군포시 당정동 16-1번지 한솔테크노타운 1층 107호","category":"음료식품 - 기타음료식품"},{"name":"비앤케이","tel":"031-451-0561","addr":"경기도 군포시 당정동 16-1번지 한솔테크노타운 909호","category":"자동차정비 유지 - 자동차부품"},{"name":"삼보리본(주)","tel":"031-449-0068","addr":"경기도 군포시 당정동 16-1번지 한솔테크노타운 906호","category":"사무통신 - 전자(상우회)"},{"name":"삼화기업","tel":"031-479-1723","addr":"경기도 군포시 당정동 16-1번지 한솔테크노타운 101호","category":"기타 - 기계공구"},{"name":"에스.엠.지 (S.M.G) 새몸사랑","tel":"070-4469-6956","addr":"경기도 군포시 당정동 16-1번지 한솔테크노타운 801호","category":"신변잡화 - 기타잡화"},{"name":"에이엠테크","tel":"031-457-6090","addr":"경기도 군포시 당정동 16-1번지 한솔테크노타운 208호","category":"전기제품 - 기타전기제품"},{"name":"연세디지털미디어(주)","tel":"031-457-6040","addr":"경기도 군포시 당정동 16-1번지 한솔테크노타운101호,B-112호","category":"용역 서비스 - 소프트웨어"},{"name":"오베리굿 주식회사","tel":"031-1670-8797","addr":"경기도 군포시 당정동 16-1번지 한솔테크노타운 705호","category":"음료식품 - 기타음료식품"},{"name":"위대한밥상","tel":"031-457-0103","addr":"경기도 군포시 당정동 16-1번지 한솔테크노타운 105호","category":"일반휴게음식 - 일반한식"},{"name":"위대한밥상","tel":"031-457-0103","addr":"경기도 군포시 당정동 16-1번지 한솔테크노타운 105호","category":"일반휴게음식 - 일반한식"},{"name":"유니콘테크","tel":"031-441-7972","addr":"경기도 군포시 당정동 16-1번지 한솔테크노타운 지하B113-1","category":"전기제품 - 기타전기제품"},{"name":"유니콘테크/원격지","tel":"031-441-7972","addr":"경기도 군포시 당정동 16-1번지 한솔테크노타운 지하B113-1","category":"기타 - 기타 전문점"},{"name":"이플러스켐주식회사","tel":"031-455-8089","addr":"경기도 군포시 당정동 16-1번지 한솔테크노타운 401호","category":"사무통신 - 기타 사무용품"},{"name":"인경맥콤","tel":"031-452-1022","addr":"경기도 군포시 당정동 16-1번지 한솔테크노타운 709호","category":"기타 - 기타 전문점"},{"name":"일육일","tel":"031-347-6004","addr":"경기도 군포시 당정동 16-1번지 한솔테크노타운 1층 114호","category":"일반휴게음식 - 서양음식"},{"name":"일육일 (161)","tel":"031-347-6004","addr":"경기도 군포시 당정동 16-1번지 한솔테크노타운 1층 114호","category":"일반휴게음식 - 서양음식"},{"name":"정식당","tel":"031-457-6570","addr":"경기도 군포시 당정동 16-1번지 한솔테크노타운 115호","category":"일반휴게음식 - 일반한식"},{"name":"주식회사 하이세스파워","tel":"031-427-3310","addr":"경기도 군포시 당정동 16-1번지 한솔테크노타운 2층 212호","category":"전기제품 - 기타전기제품"},{"name":"주식회사 화인스코리아","tel":"031-477-7757","addr":"경기도 군포시 당정동 16-1번지 한솔테크노타운 124호","category":"기타 - 기계공구"},{"name":"주식회사태승코리아","tel":"031-455-7474","addr":"경기도 군포시 당정동 16-1번지 한솔테크노타운 412호","category":"의류 - 내의판매"},{"name":"주식회사한보시스텍","tel":"031-457-1137","addr":"경기도 군포시 당정동 16-1번지 한솔테크노 901호","category":"전기제품 - 기타전기제품"},{"name":"지엠텍/원격지","tel":"031-452-0813","addr":"경기도 군포시 당정동 16-1번지 한솔테크노타운 607호","category":"기타 - 기타 전문점"},{"name":"진미생고기","tel":"031-452-5691","addr":"경기도 군포시 당정동 16-1번지 한솔테크노타운 129호","category":"일반휴게음식 - 일반한식"},{"name":"토마토24군포점","tel":"031-455-7968","addr":"경기도 군포시 당정동 16-1번지 한솔테크노타운 117호","category":"유통업 영리 - 슈퍼마켓"},{"name":"필전자/원격지","tel":"031-477-1706","addr":"경기도 군포시 당정동 16-1번지 한솔테크노타운 2층 213호","category":"기타 - 기타 전문점"},{"name":"한솔마트","tel":"031-455-7968","addr":"경기도 군포시 당정동 16-1번지 한솔테크노타운 117호","category":"유통업 영리 - 슈퍼마켓"},{"name":"한솔테크노타운관리단","tel":"031-456-3319","addr":"경기도 군포시 당정동 16-1번지 한솔테크노타운 1층","category":"자동차정비 유지 - 주차장"},{"name":"황수혁세무회계사무소","tel":"031-454-5440","addr":"경기도 군포시 당정동 16-1번지 한솔테크노타운 311호","category":"용역 서비스 - 법률회계서비스(개인)"}]},{"lat":"37.358167029","long":"126.96073449","items":[{"name":"(주)마이크로진(MICROGIENE Co.Ltd)","tel":"031-456-6535","addr":"경기도 군포시 당정동 91번지 4층","category":"서적문구 - 과학기자재"}]},{"lat":"37.355252479","long":"126.95009243","items":[{"name":"(주)메인일렉콤","tel":"031-459-6651","addr":"경기도 군포시 당정동 1129번지","category":"전기제품 - 기타전기제품"},{"name":"주식회사 유행백","tel":"031-427-2568","addr":"경기도 군포시 당정동 1129번지 2층","category":"신변잡화 - 가방"},{"name":"주식회사유행백","tel":"031-427-2568","addr":"경기도 군포시 당정동 1129번지 2층","category":"신변잡화 - 가방"}]},{"lat":"37.362444915","long":"126.95561858","items":[{"name":"(주)명신열처리","tel":"031-453-5170","addr":"경기도 군포시 당정동 215번지","category":"자동차정비 유지 - 자동차부품"}]},{"lat":"37.343863978","long":"126.95086781","items":[{"name":"(주)뷰아이텍","tel":"031-431-2841","addr":"경기도 군포시 당정동 16블럭 2롯트 성원프라자402,404호","category":"기타 - 기타 전문점"},{"name":"가구만들기","tel":"070-7661-3450","addr":"경기도 군포시 당정동 1004-2번지 성원프라자 104호","category":"가구 - 일반가구"},{"name":"경희대효동태권도","tel":"031-427-1555","addr":"경기도 군포시 당정동 1004-2번지 성원프라자 2층 205호","category":"학원 - 예·체능계학원"},{"name":"군포카프라자","tel":"031-458-0586","addr":"경기도 군포시 당정동 1004-2번지 성원프라자 119~120호","category":"자동차정비 유지 - 자동차정비"},{"name":"김밥하우스","tel":"031-429-4981","addr":"경기도 군포시 당정동 1004-2번지 성원프라자 103호","category":"일반휴게음식 - 스넥"},{"name":"다락방PC카페","tel":"","addr":"경기도 군포시 당정동 1004-2번지 성원프라자 2층 201,202호","category":"레저업소 - 기타레져업소"},{"name":"당정메디칼약국","tel":"031-427-7564","addr":"경기도 군포시 당정동 1004-2번지 성원프라자 110호","category":"약국 - 약국"},{"name":"더폰","tel":"070-4218-8664","addr":"경기도 군포시 당정동 1004-2번지 성원프라자 109호","category":"사무통신 - 통신기기"},{"name":"레드헤어","tel":"031-427-1793","addr":"경기도 군포시 당정동 1004-2번지 성원프라자 116호","category":"보건위생 - 미용원"},{"name":"린","tel":"","addr":"경기도 군포시 당정동 1004-2번지 성원프라자","category":"일반휴게음식 - 서양음식"},{"name":"몽짬뽕","tel":"031-427-7770","addr":"경기도 군포시 당정동 1004-2번지 성원프라자 108호","category":"일반휴게음식 - 중국식"},{"name":"보람요양원","tel":"031-477-7588","addr":"경기도 군포시 당정동 1004-2번지 성원프라자 4층","category":"기타의료기관 - 기타의료기관 및 기타"},{"name":"성원스크린골프","tel":"031-477-1122","addr":"경기도 군포시 당정동 1004-2번지 성원프라자 501호","category":"레져용품 - 골프용품 전문점"},{"name":"알찬반찬","tel":"031-429-8254","addr":"경기도 군포시 당정동 1004-2번지 성원프라자 1층 104호","category":"음료식품 - 기타음료식품"},{"name":"연세메디의원","tel":"031-314-8300","addr":"경기도 군포시 당정동 1004-2번지 성원프라자 203호","category":"의원 - 의원"},{"name":"옹골네순대국","tel":"031-427-6334","addr":"경기도 군포시 당정동 1004-2번지 성원프라자 101호","category":"일반휴게음식 - 일반한식"},{"name":"천하명당","tel":"070-4254-0160","addr":"경기도 군포시 당정동 1004-2번지 성원프라자 1층 105호","category":"음료식품 - 기타음료식품"},{"name":"카페달보드레","tel":"031-808-0670","addr":"경기도 군포시 당정동 1004-2번지 성원프라자 1층 102호","category":"일반휴게음식 - 서양음식"},{"name":"토마토푸줏간","tel":"031-477-6632","addr":"경기도 군포시 당정동 1004-2번지 성원프라자 1층 115호","category":"음료식품 - 정육점"},{"name":"파리바게뜨","tel":"031-427-4826","addr":"경기도 군포시 당정동 1004-2번지 성원프라자 111동 112호","category":"음료식품 - 제과점"},{"name":"헤어홀릭","tel":"031-429-8253","addr":"경기도 군포시 당정동 1004-2번지 성원프라자 107호","category":"보건위생 - 미용원"},{"name":"홀인원스크린골프","tel":"031-455-7737","addr":"경기도 군포시 당정동 1004-2 성원프라자2층201호,202호","category":"회원제형태 - 레져업소"},{"name":"훌랄라참숯바베큐치킨","tel":"031-457-2430","addr":"경기도 군포시 당정동 1004-2번지 성원프라자 106호","category":"일반휴게음식 - 주점"}]},{"lat":"37.343836202","long":"126.9491976","items":[{"name":"(주)블루정보","tel":"","addr":"경기도 군포시 당정동 1013-5번지 3층","category":"사무통신 - 컴퓨터"},{"name":"(주)유씨티","tel":"031-451-1493","addr":"경기도 군포시 당정동 1013-5번지 덕수프라자 2층","category":"전기제품 - 기타전기제품"},{"name":"대한메디텍주식회사","tel":"031-349-6288","addr":"경기도 군포시 당정동 1013-5번지 2층","category":"약국 - 제약회사"},{"name":"아뜰리앤","tel":"031-427-5990","addr":"경기도 군포시 당정동 1013-5번지","category":"보건위생 - 미용원"},{"name":"아리가또맘마","tel":"031-427-1005","addr":"경기도 군포시 당정동 1013-5번지 2호","category":"일반휴게음식 - 스넥"},{"name":"태영","tel":"031-477-6581","addr":"경기도 군포시 당정동 1013-5번지 덕수빌딩 4층","category":"음료식품 - 기타음료식품"}]},{"lat":"37.355252824","long":"126.95087124","items":[{"name":"(주)비티비평생교육원","tel":"031-458-8088","addr":"경기도 군포시 당정동 1128번지 신라테크노빌 가동 903호","category":"회원제형태 - 학원"},{"name":"(주)안양가로수","tel":"031-455-6148","addr":"경기도 군포시 당정동 1128번지 신라테크노빌 603호","category":"서적문구 - 출판 및 인쇄물"},{"name":"(주)안양가로수","tel":"031-453-0080","addr":"경기도 군포시 당정동 1128번지 신라테크노빌 603호","category":"서적문구 - 출판 및 인쇄물"},{"name":"(주)컴트로닉스","tel":"031-459-3300","addr":"경기도 군포시 당정동 1128번지 신라테크토빌 901호","category":"기타 - 기계공구"},{"name":"군포시장애인보호작업시설","tel":"031-429-1043","addr":"경기도 군포시 당정동 1128번지 신라테크노빌3층304호~305호 3층 304호","category":"사무통신 - 컴퓨터"},{"name":"도란도란집밥","tel":"031-454-7841","addr":"경기도 군포시 당정동 1128번지 신라테크노빌 1층 105-1호","category":"일반휴게음식 - 일반한식"},{"name":"디와이","tel":"031-429-1112","addr":"경기도 군포시 당정동 1128번지 신라테크노빌 가동 402호","category":"전기제품 - 기타전기제품"},{"name":"세븐일레븐군포테크노빌점","tel":"031-1577-0711","addr":"경기도 군포시 당정동 1128번지 신라테크노빌 1층 103-1호","category":"유통업 영리 - 편 의 점"},{"name":"신우전원기술(주)","tel":"031-454-0021","addr":"경기도 군포시 당정동 1128번지 신라테크노빌 604호","category":"사무통신 - 통신기기"},{"name":"이안푸드","tel":"","addr":"경기도 군포시 당정동 1128번지 신라테크노빌 102-5,102-6,102-7,102-9","category":"일반휴게음식 - 일반한식"},{"name":"주식회사 세광미디어","tel":"031-458-8088","addr":"경기도 군포시 당정동 1128번지 신라테크노빌 가동 9층 902호","category":"음료식품 - 기타음료식품"},{"name":"주식회사 옥샘코리아","tel":"031-427-1259","addr":"경기도 군포시 당정동 1128번지 신라테크노빌 703-2호","category":"주방용구 - 주방용구"},{"name":"주식회사 차오름메탈","tel":"031-427-1257","addr":"경기도 군포시 당정동 1128번지 신라테크노빌 나동 606호","category":"전기제품 - 기타전기제품"},{"name":"주식회사 하나텔콤","tel":"031-427-0611","addr":"경기도 군포시 당정동 1128번지 신라테크노빌 가동 601호","category":"자동차정비 유지 - 자동차부품"},{"name":"주식회사세광미디어","tel":"031-458-8088","addr":"경기도 군포시 당정동 1128번지 신라테크노빌 가동 902호","category":"전기제품 - 기타전기제품"},{"name":"청풍테크","tel":"031-458-0794","addr":"경기도 군포시 당정동 1128번지 신라테크노빌 나동 307호","category":"사무통신 - 통신기기"},{"name":"하나텔콤","tel":"031-427-0611","addr":"경기도 군포시 당정동 1128번지 신라테크노빌 가동 6층 601호","category":"자동차정비 유지 - 자동차부품"},{"name":"혜민푸드","tel":"031-429-9639","addr":"경기도 군포시 당정동 1128번지 신라테크노빌 1층 102-5호,102-6호,102-7호,102-9호","category":"일반휴게음식 - 일반한식"},{"name":"화일P&C","tel":"031-455-6262","addr":"경기도 군포시 당정동 1128번지 신라테크노빌 나동 105호","category":"서적문구 - 출판 및 인쇄물"}]},{"lat":"37.35125497","long":"126.95730727","items":[{"name":"(주)삼호산업","tel":"031-458-1541","addr":"경기도 군포시 당정동 414-3번지","category":"전기제품 - 기타전기제품"}]},{"lat":"37.354308685","long":"126.95545437","items":[{"name":"(주)새한오존","tel":"031-356-7799","addr":"경기도 군포시 당정동 343-17번지","category":"기타 - 기타 전문점"},{"name":"새한셀프식당","tel":"031-456-9916","addr":"경기도 군포시 당정동 343-17번지 1층 일부","category":"일반휴게음식 - 일반한식"},{"name":"주식회사엘럽스","tel":"031-456-3890","addr":"경기도 군포시 당정동 343-17번지 2층","category":"보건위생 - 의료용품"}]},{"lat":"37.356055926","long":"126.9536699","items":[{"name":"(주)서도금속","tel":"02-2682-4985","addr":"경기도 군포시 당정동 181-41번지 A동,B동","category":"기타 - 기타 전문점"}]},{"lat":"37.354091529","long":"126.953231","items":[{"name":"(주)서진엔지니어링","tel":"031-459-2280","addr":"경기도 군포시 당정동 325-22번지","category":"사무통신 - 통신기기"}]},{"lat":"37.349064422","long":"126.95458864","items":[{"name":"(주)선택글로벌","tel":"031-477-5656","addr":"경기도 군포시 당정동 545-6번지 맥시움빌딩 505호","category":"기타 - 기계공구"},{"name":"(주)연산","tel":"031-454-0490","addr":"경기도 군포시 당정동 545-6번지 맥시움빌딩 502호","category":"기타 - 기타 전문점"},{"name":"(주)연산/원격지","tel":"031-454-0490","addr":"경기도 군포시 당정동 545-6번지 맥시움빌딩 502호","category":"기타 - 기타 전문점"},{"name":"(주)웰스첸","tel":"031-455-9100","addr":"경기도 군포시 당정동 545-6번지 맥시움빌딩 5층 506호","category":"주방용구 - 주방용구"},{"name":"MD이레텍","tel":"031-427-2570","addr":"경기도 군포시 당정동 545-6번지 맥시움빌딩 401호","category":"용역 서비스 - 사무서비스"},{"name":"MD이레텍/원격지","tel":"031-427-2570","addr":"경기도 군포시 당정동 545-6번지 맥시움빌딩 401호","category":"기타 - 기타 전문점"},{"name":"골뱅이 하우스","tel":"031-453-1060","addr":"경기도 군포시 당정동 545-6번지 맥시옴빌딩 604호","category":"일반휴게음식 - 일반한식"},{"name":"도성","tel":"031-453-5242","addr":"경기도 군포시 당정동 545-6번지 맥시움빌딩 501호","category":"신변잡화 - 기타잡화"},{"name":"동감늘푸른한의원","tel":"031-477-8275","addr":"경기도 군포시 당정동 545-6번지 맥시움빌딩 403호","category":"의원 - 한의원"},{"name":"디저트피시방(당정점)","tel":"070-5020-5330","addr":"경기도 군포시 당정동 545-6번지 맥시움빌딩 205호","category":"레저업소 - 기타레져업소"},{"name":"맥시움골프스쿨","tel":"031-429-6789","addr":"경기도 군포시 당정동 545-6번지 맥시움빌딩 701호","category":"레저업소 - 골프연습장"},{"name":"맥시움노래연습장","tel":"031-427-3671","addr":"경기도 군포시 당정동 545-6번지 맥시움빌딩 6층 602호","category":"레저업소 - 노 래 방"},{"name":"비어플러스","tel":"031-454-0166","addr":"경기도 군포시 당정동 545-6번지 외1필지군포맥시움 603동 604호","category":"일반휴게음식 - 주점"},{"name":"생생동태탕","tel":"031-427-9592","addr":"경기도 군포시 당정동 545-6번지 맥시움빌딩 101호","category":"일반휴게음식 - 일반한식"},{"name":"세무사서태식법률사무소","tel":"031-477-7733","addr":"경기도 군포시 당정동 545-6번지 맥시움빌딩 504동 505호","category":"용역 서비스 - 법률회계서비스(개인)"},{"name":"수치과","tel":"031-459-2275","addr":"경기도 군포시 당정동 545-6번지 맥시움빌딩 405호","category":"의원 - 치과의원"},{"name":"안양원예농업협동조합한세지점","tel":"031-451-8950","addr":"경기도 군포시 당정동 545-6외1","category":"유통업 비영리 - 농,축협 직영매장"},{"name":"엔에이치 (NH)커피인더스토리","tel":"050-5306-1472","addr":"경기도 군포시 당정동 545-6번지 맥시움빌딩 1층 103호","category":"일반휴게음식 - 서양음식"},{"name":"예향한식부페","tel":"031-453-8865","addr":"경기도 군포시 당정동 545-6번지 맥시움빌딩 2층 202호","category":"일반휴게음식 - 일반한식"},{"name":"웅가네추어탕 당정점","tel":"031-427-9592","addr":"경기도 군포시 당정동 545-6번지 맥시움빌딩 1층 101호","category":"일반휴게음식 - 일반한식"},{"name":"잇썸 (itsome')커피플레이스","tel":"031-344-3002","addr":"경기도 군포시 당정동 545-6번지 맥시움빌딩 1층 103호","category":"일반휴게음식 - 서양음식"},{"name":"주식회사타스","tel":"031-207-7100","addr":"경기도 군포시 당정동 545-6번지 맥시움빌딩 3층 302-2호","category":"기타 - 기타 전문점"}]},{"lat":"37.354730379","long":"126.95119892","items":[{"name":"(주)세원엠텍","tel":"031-897-0929","addr":"경기도 군포시 당정동 315-3번지","category":"기타 - 기계공구"}]},{"lat":"37.354505031","long":"126.95098462","items":[{"name":"(주)수성레이져","tel":"031-451-8080","addr":"경기도 군포시 당정동 317-1번지","category":"기타 - 기계공구"}]},{"lat":"37.347397735","long":"126.95506372","items":[{"name":"(주)스테코/원격지","tel":"031-454-3477","addr":"경기도 군포시 당정동 970-6번지 보흥빌딩 302호","category":"기타 - 기타 전문점"},{"name":"또와유청정명태간장조림","tel":"031-429-9254","addr":"경기도 군포시 당정동 970-6번지 보흥빌딩 1층","category":"일반휴게음식 - 일반한식"},{"name":"주식회사 리텐드","tel":"031-477-2917","addr":"경기도 군포시 당정동 970-6번지 보흥빌딩 202호","category":"의류 - 정장"},{"name":"카페하라","tel":"031-398-1212","addr":"경기도 군포시 당정동 970-6번지 보흥빌딩 1층","category":"일반휴게음식 - 서양음식"},{"name":"탑앤에스솔루션","tel":"031-348-1011","addr":"경기도 군포시 당정동 970-6번지 보흥빌딩 302호","category":"사무통신 - 컴퓨터"},{"name":"한결독서실","tel":"031-455-3275","addr":"경기도 군포시 당정동 970-6번지 보흥빌딩 3층일부,4층일부","category":"학원 - 독서실"},{"name":"형제샤브샤브뷔페","tel":"031-429-7585","addr":"경기도 군포시 당정동 970-6번지 보흥빌딩","category":"일반휴게음식 - 일반한식"}]},{"lat":"37.362561756","long":"126.95489606","items":[{"name":"(주)스포텍","tel":"031-479-5282","addr":"경기도 군포시 당정동 222-6번지 201호","category":"레져용품 - 스포츠·레져용품"}]},{"lat":"37.351534049","long":"126.95669763","items":[{"name":"(주)신용산업","tel":"031-458-7361","addr":"경기도 군포시 당정동 419-5번지 2층","category":"기타 - 기계공구"}]},{"lat":"37.364976019","long":"126.95378825","items":[{"name":"(주)씨브이","tel":"031-451-4053","addr":"경기도 군포시 당정동 231-23번지","category":"기타 - 기타 전문점"},{"name":"(주)씨브이/원격지","tel":"031-451-4053","addr":"경기도 군포시 당정동 231-23번지","category":"기타 - 기타 전문점"}]},{"lat":"37.350028847","long":"126.95542321","items":[{"name":"(주)씨앤씨홀스넷","tel":"031-458-0582","addr":"경기도 군포시 당정동 448-1번지 2층","category":"레져용품 - 스포츠·레져용품"},{"name":"씨앤씨","tel":"031-458-0582","addr":"경기도 군포시 당정동 448-1번지","category":"서적문구 - 출판 및 인쇄물"}]},{"lat":"37.343422381","long":"126.95064241","items":[{"name":"(주)씨에스네트워크","tel":"031-386-7714","addr":"경기도 군포시 당정동 1011-3번지 대우프라자 110호","category":"사무통신 - 기타 사무용품"},{"name":"GQ 컬렉션","tel":"031-397-6878","addr":"경기도 군포시 당정동 1011-3번지 202호 대우프라자1","category":"수리서비스 - 세탁소"},{"name":"GS25당정센터점","tel":"","addr":"경기도 군포시 당정동 1011-3번지 대우프라자1 103~104호","category":"유통업 영리 - 편 의 점"},{"name":"J*피부사랑","tel":"031-458-2345","addr":"경기도 군포시 당정동 1011-3번지 대우프라자1 107호","category":"회원제형태 - 기타4"},{"name":"계수나무떡집","tel":"031-427-0670","addr":"경기도 군포시 당정동 1011-3번지 대우프라자 1층 108호","category":"음료식품 - 제과점"},{"name":"글로리휘트니스","tel":"031-459-1236","addr":"경기도 군포시 당정동 1011-3 대우프라자3층301호.302호","category":"회원제형태 - 레져업소"},{"name":"김밥천국당정점","tel":"031-427-8050","addr":"경기도 군포시 당정동 1011-3번지 대우프라자1 111호","category":"일반휴게음식 - 스넥"},{"name":"대림타일철물","tel":"031-459-5464","addr":"경기도 군포시 당정동 1011-3번지 대우프라자1 1층 111호","category":"건축자재 - 건축용 요업제품"},{"name":"라미헤어","tel":"031-346-0436","addr":"경기도 군포시 당정동 1011-3번지 대우프라자1 101호","category":"보건위생 - 미용원"},{"name":"성화약품주식회사","tel":"031-477-6500","addr":"경기도 군포시 당정동 1011-3번지 대우프라자 402호","category":"약국 - 약국"},{"name":"아이월드안경.콘택트","tel":"031-452-0533","addr":"경기도 군포시 당정동 1011-3번지 대우프라자 105호","category":"보건위생 - 안경"},{"name":"에스헤어","tel":"031-427-5100","addr":"경기도 군포시 당정동 1011-3번지 대우프라자1 1층 109호","category":"보건위생 - 미용원"},{"name":"옛날통닭","tel":"031-1234-1234","addr":"경기도 군포시 당정동 1011-3번지 대우프라자1 1층 106호","category":"일반휴게음식 - 스넥"},{"name":"이센스PC","tel":"070-5020-5323","addr":"경기도 군포시 당정동 1011-3번지 대우프라자 2층 201호","category":"레저업소 - 기타레져업소"},{"name":"주식회사 핵산바이오","tel":"031-456-7090","addr":"경기도 군포시 당정동 1011-3번지 대우프라자1 2층 203호","category":"건강식품 - 기타건강식품"},{"name":"하우징","tel":"031-427-3740","addr":"경기도 군포시 당정동 1011-3번지","category":"직물 - 카페트,커튼,천막,지물"}]},{"lat":"37.356896457","long":"126.96034014","items":[{"name":"(주)씨케이엠에스","tel":"031-278-4723","addr":"경기도 군포시 당정동 93-5번지 금봉테크노밸리 301호","category":"용역 서비스 - 기타용역서비스"},{"name":"금봉매점","tel":"031-457-5400","addr":"경기도 군포시 당정동 93-5번지 금봉테크노벨리 103호","category":"음료식품 - 기타음료식품"},{"name":"금봉식당","tel":"031-451-1991","addr":"경기도 군포시 당정동 93-5번지 금봉테크노벨리 1층 103호","category":"일반휴게음식 - 일반한식"},{"name":"동일레이저테크놀로지","tel":"031-429-9953","addr":"경기도 군포시 당정동 93-5번지 금봉테크노벨리 6층 603호","category":"기타 - 기계공구"},{"name":"커피인더스트리","tel":"031-457-8178","addr":"경기도 군포시 당정동 93-5번지 금봉테크노벨리 102호 일부호","category":"일반휴게음식 - 서양음식"}]},{"lat":"37.353812285","long":"126.95340048","items":[{"name":"(주)씨피티","tel":"031-457-1735","addr":"경기도 군포시 당정동 324-4번지","category":"서적문구 - 과학기자재"}]},{"lat":"37.349063493","long":"126.95236528","items":[{"name":"(주)아라인터코아","tel":"031-436-0500","addr":"경기도 군포시 당정동 522번지 에스케이벤티움 103동 305호","category":"건강식품 - 기타건강식품"},{"name":"(주)아라인터페이스","tel":"031-436-0500","addr":"경기도 군포시 당정동 522번지 SK벤티움 103동 103호","category":"보건위생 - 화장품"},{"name":"(주)에프에스티","tel":"031-457-9198","addr":"경기도 군포시 당정동 522번지","category":"전기제품 - 가전제품"},{"name":"(주)에프에스티/원격지","tel":"031-457-9198","addr":"경기도 군포시 당정동 522번지","category":"기타 - 기타 전문점"},{"name":"(주)조이랜드","tel":"031-436-0424","addr":"경기도 군포시 당정동 522번지 SK벤티움 103동 307호","category":"직물 - 침구·수예점"},{"name":"대한엔지니어링","tel":"031-457-0863","addr":"경기도 군포시 당정동 522번지 SK벤티움 103동 101호","category":"기타 - 기계공구"},{"name":"동화특수산업 주식회사","tel":"031-451-6232","addr":"경기도 군포시 당정동 522번지 SK벤티움 103동 804호","category":"서적문구 - 과학기자재"},{"name":"리빙케어소재기술(주)","tel":"031-436-0190","addr":"경기도 군포시 당정동 522번지 SK벤티움 103동 1001호","category":"전기제품 - 기타전기제품"},{"name":"삼육프린텍","tel":"031-455-9757","addr":"경기도 군포시 당정동 522번지 SK벤티움 103동 607호","category":"서적문구 - 출판 및 인쇄물"},{"name":"씨엠테크","tel":"031-457-1297","addr":"경기도 군포시 당정동 522번지 SK벤티움 103동 607호","category":"기타 - 기계공구"},{"name":"아이비티 주식회사","tel":"031-456-0150","addr":"경기도 군포시 당정동 522번지 에스케이벤티움 103동 910호","category":"음료식품 - 기타음료식품"},{"name":"아임시스템","tel":"070-4801-5959","addr":"경기도 군포시 당정동 522번지 SK벤티움 103동 1007호","category":"전기제품 - 기타전기제품"},{"name":"위이전자/원격지","tel":"031-454-8356","addr":"경기도 군포시 당정동 522번지 SK벤티움 103동 1002호","category":"기타 - 기타 전문점"},{"name":"윈아트","tel":"031-393-3100","addr":"경기도 군포시 당정동 522번지 SK벤티움 103동 905호","category":"용역 서비스 - 종합용역"},{"name":"주식회사 산쪼메","tel":"031-477-6669","addr":"경기도 군포시 당정동 522번지 SK벤티움 103동 501호","category":"음료식품 - 기타음료식품"},{"name":"주식회사 애니원정보시스템","tel":"031-453-9990","addr":"경기도 군포시 당정동 522번지 SK벤티움 103동 1001호","category":"기타 - 기계공구"},{"name":"주식회사 팀케이","tel":"031-000-0000","addr":"경기도 군포시 당정동 522번지 SK벤티움 103동 908호","category":"음료식품 - 기타음료식품"},{"name":"주식회사 하늘","tel":"031-451-8333","addr":"경기도 군포시 당정동 522번지 SK벤티움 103동 1006호","category":"음료식품 - 기타음료식품"},{"name":"한국U.C.D","tel":"031-436-0641","addr":"경기도 군포시 당정동 522번지 SK벤티움 103동 202호","category":"전기제품 - 냉열기기"}]},{"lat":"37.358698588","long":"126.96062132","items":[{"name":"(주)아이에스몰드앤드프라스틱","tel":"031-429-7592","addr":"경기도 군포시 당정동 78-19번지","category":"기타 - 기계공구"}]},{"lat":"37.34364709","long":"126.94942344","items":[{"name":"(주)아이엔티코리아","tel":"031-465-5374","addr":"경기도 군포시 당정동 1013-6번지 유영타운 4층 405호","category":"기타 - 기계공구"},{"name":"군포에덴요양원","tel":"031-477-3332","addr":"경기도 군포시 당정동 1013-6번지 유영타운 2층","category":"기타의료기관 - 기타의료기관 및 기타"},{"name":"굿빈스 당정점","tel":"031-455-7290","addr":"경기도 군포시 당정동 1013-6번지 유영타운 103,104호","category":"일반휴게음식 - 서양음식"},{"name":"그미장원","tel":"031-405-4404","addr":"경기도 군포시 당정동 1013-6번지 유영타운 116호","category":"보건위생 - 미용원"},{"name":"다복식당","tel":"031-427-6268","addr":"경기도 군포시 당정동 1013-6번지 유영타운 109호","category":"일반휴게음식 - 일반한식"},{"name":"리안헤어 당정역점","tel":"0331-427-5722","addr":"경기도 군포시 당정동 1013-6번지 유영타운 1층 110호","category":"보건위생 - 미용원"},{"name":"멜카롱","tel":"02-1111-1111","addr":"경기도 군포시 당정동 1013-6번지 유영타운 1층 112호","category":"음료식품 - 제과점"},{"name":"명환유통","tel":"031-455-1267","addr":"경기도 군포시 당정동 1013-6번지 유영타운 102호","category":"음료식품 - 농·축·수산품"},{"name":"바이픽스","tel":"070-4125-8083","addr":"경기도 군포시 당정동 1013-6번지 유영타운 117호","category":"레져용품 - 스포츠·레져용품"},{"name":"블링블링헤어샵","tel":"031-477-2777","addr":"경기도 군포시 당정동 1013-6번지 유명타운 110호","category":"보건위생 - 미용원"},{"name":"오부장","tel":"031-427-5585","addr":"경기도 군포시 당정동 1013-6번지","category":"일반휴게음식 - 일반한식"},{"name":"의료법인희망나눔의료재단휴성심요양병원","tel":"031-477-9797","addr":"경기도 군포시 당정동 1013-6번지 유영타운 3층 301호","category":"병원 - 병원"},{"name":"주식회사건국환자이송센터","tel":"031-454-4129","addr":"경기도 군포시 당정동 1013-6번지 유영타운 11호","category":"보건위생 - 기타대인서비스"},{"name":"쭈꾸미와친구들","tel":"031-477-8892","addr":"경기도 군포시 당정동 1013-6번지 유영타운 106호","category":"일반휴게음식 - 일반한식"},{"name":"한세마트","tel":"031-451-7543","addr":"경기도 군포시 당정동 1013-6번지 유영타운 101호","category":"유통업 영리 - 슈퍼마켓"},{"name":"호남기사식당","tel":"031-223-5214","addr":"경기도 군포시 당정동 1013-6번지 유영타운 1층 108호","category":"일반휴게음식 - 일반한식"},{"name":"효성심요양원","tel":"031-477-3333","addr":"경기도 군포시 당정동 1013-6번지 유영타운 3층","category":"기타의료기관 - 기타의료기관 및 기타"}]},{"lat":"37.357139572","long":"126.9598998","items":[{"name":"(주)아이전자","tel":"031-342-3690","addr":"경기도 군포시 당정동 908-71번지 5층","category":"광학제품 - 카메라"}]},{"lat":"37.34947697","long":"126.95009648","items":[{"name":"(주)아진화학","tel":"031-458-2228","addr":"경기도 군포시 당정동 516-3번지","category":"기타 - 기타 전문점"},{"name":"화천종합써비스","tel":"031-457-9007","addr":"경기도 군포시 당정동 516-3번지","category":"기타 - 기계공구"}]},{"lat":"37.350362488","long":"126.95608889","items":[{"name":"(주)안양비철","tel":"031-451-0234","addr":"경기도 군포시 당정동 437번지 1층","category":"건축자재 - 기타건축자재"},{"name":"SM.KOREA","tel":"031-456-3041","addr":"경기도 군포시 당정동 437번지","category":"건축자재 - 기타건축자재"},{"name":"우진연마","tel":"031-457-7534","addr":"경기도 군포시 당정동 437번지 435-1F동","category":"자동차정비 유지 - 자동차부품"},{"name":"태성 레이져.알곤","tel":"031-341-7221","addr":"경기도 군포시 당정동 437번지","category":"수리서비스 - 기타수리서비스"}]},{"lat":"37.345558531","long":"126.95234505","items":[{"name":"(주)어퓨커뮤니케이션즈/아리랑","tel":"031-458-5080","addr":"경기도 군포시 당정동 996-1번지","category":"일반휴게음식 - 일반한식"}]},{"lat":"37.352697156","long":"126.95878496","items":[{"name":"(주)에스엔케이인터내쇼날","tel":"02-3443-1212","addr":"경기도 군포시 당정동 366-5번지","category":"가구 - 일반가구"}]},{"lat":"37.34897344","long":"126.9524782","items":[{"name":"(주)에스피씨지에프에스 에스케이벤티음식","tel":"031-427-6720","addr":"경기도 군포시 당정동 522번지 SK벤티움 101동 1층 111호 일부호","category":"일반휴게음식 - 일반한식"},{"name":"(주)오에스테크윈/원격지","tel":"031-453-5242","addr":"경기도 군포시 당정동 522번지 외에스케이벤티움","category":"기타 - 기타 전문점"},{"name":"(주)킴스아이엔씨","tel":"031-457-3107","addr":"경기도 군포시 당정동 522번지 SK벤티움 6층 606호","category":"사무통신 - 통신기기"},{"name":"SK벤티움입주자대표회의","tel":"031-436-0110","addr":"경기도 군포시 당정동 522번지 SK벤티움","category":"자동차정비 유지 - 주차장"},{"name":"주식회사 아이언","tel":"031-262-1050","addr":"경기도 군포시 당정동 522번지 SK벤티움 104동 지하 102호","category":"신변잡화 - 기념품점"},{"name":"주식회사 위코테크","tel":"031-340-6981","addr":"경기도 군포시 당정동 522번지 에스케이벤티움 103동 302,706호","category":"기타 - 기계공구"},{"name":"주식회사드림테크윈","tel":"070-4821-2351","addr":"경기도 군포시 당정동 522번지 SK벤티움 103동 603-2호","category":"전기제품 - 기타전기제품"}]},{"lat":"37.348423839","long":"126.95252371","items":[{"name":"(주)에이치엔씨","tel":"031-428-8920","addr":"경기도 군포시 당정동 522번지 SK벤티움 102동 1204호","category":"전기제품 - 기타전기제품"},{"name":"(주)엔젤키즈","tel":"070-8785-1905","addr":"경기도 군포시 당정동 522번지 SK벤티움 102동 303호","category":"서적문구 - 출판 및 인쇄물"},{"name":"(주)테릭/원격지","tel":"031-436-0025","addr":"경기도 군포시 당정동 522번지 SK벤티움 102동 405호","category":"기타 - 기타 전문점"},{"name":"VGK","tel":"070-8785-1905","addr":"경기도 군포시 당정동 522번지 SK벤티움 102동 303호","category":"서적문구 - 출판 및 인쇄물"},{"name":"다온페이퍼","tel":"031-436-0072","addr":"경기도 군포시 당정동 522번지 SK벤티움 102동 1003호","category":"서적문구 - 출판 및 인쇄물"},{"name":"단디메카","tel":"031-436-0151","addr":"경기도 군포시 당정동 522번지","category":"기타 - 기계공구"},{"name":"라보코스메틱 주식회사","tel":"031-429-6888","addr":"경기도 군포시 당정동 522번지 SK벤티움 102동 803호","category":"보건위생 - 화장품"},{"name":"아우시스템(주)","tel":"031-436-1191","addr":"경기도 군포시 당정동 522번지 SK벤티움 102동 1304호","category":"사무통신 - 컴퓨터"},{"name":"아이생각","tel":"031-433-9166","addr":"경기도 군포시 당정동 522번지 SK벤티움 102동 303호","category":"회원제형태 - 서적"},{"name":"엠디텍","tel":"031-436-0077","addr":"경기도 군포시 당정동 522번지 SK벤티움 102동 1004호","category":"사무통신 - 컴퓨터"},{"name":"이엔테크놀로지(주)","tel":"02-420-3810","addr":"경기도 군포시 당정동 522번지 SK벤티움 102동 1101호","category":"기타 - 기타 전문점"},{"name":"이엔테크놀로지(주)/원격지","tel":"02-420-3810","addr":"경기도 군포시 당정동 522번지 SK벤티움 102동 1101호","category":"기타 - 기타 전문점"},{"name":"주식회사 뉴레파생명공학","tel":"031-1899-7868","addr":"경기도 군포시 당정동 522번지 SK벤티움 102동 905호","category":"보건위생 - 의료용품"},{"name":"주식회사 유오엠","tel":"02-808-0707","addr":"경기도 군포시 당정동 522번지 SK벤티움 102동 1001호","category":"레져용품 - 골프용품 전문점"},{"name":"주식회사다인산전/원격지","tel":"031-456-7960","addr":"경기도 군포시 당정동 522번지 SK벤티움 102동 1305호","category":"기타 - 기타 전문점"},{"name":"주식회사삼정에프엔비","tel":"02-511-8355","addr":"경기도 군포시 당정동 522번지 SK벤티움 102동 1201호","category":"음료식품 - 기타음료식품"},{"name":"주식회사쎄넷","tel":"02-2077-1231","addr":"경기도 군포시 당정동 522번지 SK벤티움 102동 1001호","category":"회원제형태 - 학원"},{"name":"진한ENG","tel":"031-455-4655","addr":"경기도 군포시 당정동 522번지 SK벤티움 102동 504호","category":"기타 - 기계공구"}]},{"lat":"37.343007404","long":"126.94950289","items":[{"name":"(주)엔씨에프","tel":"02-1566-7316","addr":"경기도 군포시 당정동 1015-4번지 아르떼하우스 2층 202호","category":"용역 서비스 - 소프트웨어"},{"name":"누인","tel":"031-2678-7789","addr":"경기도 군포시 당정동 1015-2번지 아르떼하우스 D동 6층 601호","category":"보건위생 - 화장품"},{"name":"용호수산","tel":"031-393-8006","addr":"경기도 군포시 당정동 1015-4번지 아르떼하우스 1층 101호","category":"일반휴게음식 - 일반한식"}]},{"lat":"37.357112802","long":"126.96062221","items":[{"name":"(주)엘지에스","tel":"031-429-4086","addr":"경기도 군포시 당정동 92-3번지","category":"사무통신 - 통신기기"}]},{"lat":"37.353866251","long":"126.95317471","items":[{"name":"(주)엠비엘","tel":"031-397-4541","addr":"경기도 군포시 당정동 324-18번지","category":"기타의료기관 - 기타의료기관 및 기타"},{"name":"주식회사 이파워","tel":"070-4779-8551","addr":"경기도 군포시 당정동 324-18번지 삼풍데파트 501호","category":"건축자재 - 조명기구"}]},{"lat":"37.353361668","long":"126.95314118","items":[{"name":"(주)예은테크","tel":"031-459-0960","addr":"경기도 군포시 당정동 323-1 군포제일공단604","category":"전기제품 - 기타전기제품"},{"name":"(주)케이티에스솔루션","tel":"031-457-3059","addr":"경기도 군포시 당정동 323-1번지 군포제일공단 603호","category":"기타 - 기계공구"},{"name":"나이스몰드주식회사","tel":"031-455-0470","addr":"경기도 군포시 당정동 323-1번지 제일공단 B동 105호","category":"기타 - 기계공구"},{"name":"벽옥의사계절뷔페","tel":"031-427-5847","addr":"경기도 군포시 당정동 323-1번지 군포제일공단 309,310호","category":"일반휴게음식 - 일반한식"},{"name":"삼보계전(주)","tel":"031-453-3772","addr":"경기도 군포시 당정동 323-1,군포제일공단203","category":"기타 - 기타 전문점"},{"name":"중앙정밀","tel":"031-457-3693","addr":"경기도 군포시 당정동 323-1 군포제일공단 104","category":"신변잡화 - 기타잡화"},{"name":"한국본코트(주)/통판","tel":"031-451-3041","addr":"경기도 군포시 당정동 323-1군포제일공단407","category":"별도관리 - 일반(통신판매)"},{"name":"한빈테크(HHTek)","tel":"031-427-0239","addr":"경기도 군포시 당정동 323-1번지 군포제일공단 101,102호","category":"기타 - 기계공구"},{"name":"한성미크론","tel":"031-458-6443","addr":"경기도 군포시 당정동 323-1군포제일공단103","category":"기타 - 기타 전문점"},{"name":"혜강전자","tel":"070-4250-2240","addr":"경기도 군포시 당정동 323-1번지 군포제일공단 503호","category":"전기제품 - 기타전기제품"},{"name":"화신냉기씨스템","tel":"031-452-1666","addr":"경기도 군포시 당정동 323-1번지 군포제일공단 1층 106호","category":"전기제품 - 기타전기제품"}]},{"lat":"37.357471967","long":"126.95728094","items":[{"name":"(주)오비스코리아","tel":"031-429-1492","addr":"경기도 군포시 당정동 150-31번지","category":"전기제품 - 기타전기제품"}]},{"lat":"37.365003333","long":"126.95447683","items":[{"name":"(주)오성유니콘","tel":"031-457-0331","addr":"경기도 군포시 당정동 230-4번지","category":"기타 - 기계공구"}]},{"lat":"37.352119384","long":"126.95587336","items":[{"name":"(주)온주실업","tel":"031-443-2781","addr":"경기도 군포시 당정동 467-3번지","category":"기타 - 기계공구"}]},{"lat":"37.349361872","long":"126.95487061","items":[{"name":"(주)워시뷰","tel":"","addr":"경기도 군포시 당정동 450번지 1층","category":"자동차정비 유지 - 세차장"}]},{"lat":"37.358360945","long":"126.95001124","items":[{"name":"(주)웨이브텍","tel":"031-451-8762","addr":"경기도 군포시 당정동 1066-2번지","category":"사무통신 - 통신기기"}]},{"lat":"37.365588717","long":"126.95381043","items":[{"name":"(주)웨이퍼펩","tel":"031-454-7751","addr":"경기도 군포시 당정동 231-1번지","category":"전기제품 - 기타전기제품"},{"name":"SM Tech/원격지","tel":"031-454-7752","addr":"경기도 군포시 당정동 231-1번지","category":"기타 - 기타 전문점"}]},{"lat":"37.353695758","long":"126.95486785","items":[{"name":"(주)유비엠솔루션","tel":"031-1833-6799","addr":"경기도 군포시 당정동 345-1번지 다산빌딩","category":"신변잡화 - 기타잡화"},{"name":"농업회사법인자연애(주)","tel":"031-459-7571","addr":"경기도 군포시 당정동 345-1번지 3층","category":"음료식품 - 농·축·수산품"},{"name":"유림건강사업부","tel":"031-459-7571","addr":"경기도 군포시 당정동 345-1번지 2층","category":"건강식품 - 기타건강식품"}]},{"lat":"37.354785667","long":"126.95408835","items":[{"name":"(주)이륜","tel":"031-429-9412","addr":"경기도 군포시 당정동 327-16번지 1층","category":"사무통신 - 사무용 OA기기"}]},{"lat":"37.359559244","long":"126.94989752","items":[{"name":"(주)인터텍킴스코","tel":"02-774-8205","addr":"경기도 군포시 당정동 1056번지","category":"용역 서비스 - 사무서비스"},{"name":"인터텍빌딩","tel":"031-8069-3700","addr":"경기도 군포시 당정동 1056번지","category":"용역 서비스 - 부동산 중개·임대"},{"name":"인터텍이티엘셈코(주)","tel":"031-8069-3830","addr":"경기도 군포시 당정동 1056번지","category":"용역 서비스 - 사무서비스"}]},{"lat":"37.353418668","long":"126.96070328","items":[{"name":"(주)인테크","tel":"031-456-8317","addr":"경기도 군포시 당정동 105번지","category":"유통업 영리 - 기타유통업"},{"name":"경기버티칼","tel":"031-456-0888","addr":"경기도 군포시 당정동 105번지 3층","category":"직물 - 카페트,커튼,천막,지물"},{"name":"델코전자(주)","tel":"031-451-6864","addr":"경기도 군포시 당정동 105번지 통일공단 3층","category":"전기제품 - 기타전기제품"},{"name":"동신테크","tel":"031-477-1450","addr":"경기도 군포시 당정동 105번지 1층","category":"기타 - 기계공구"},{"name":"이엠에스시스템","tel":"031-427-6073","addr":"경기도 군포시 당정동 105번지","category":"전기제품 - 기타전기제품"}]},{"lat":"37.354396338","long":"126.94969799","items":[{"name":"(주)정우상사","tel":"031-455-6400","addr":"경기도 군포시 당정동 1143번지","category":"기타 - 기타 전문점"}]},{"lat":"37.358361056","long":"126.95025957","items":[{"name":"(주)제이디아웃도어","tel":"070-8796-0869","addr":"경기도 군포시 당정동 1072번지 5층","category":"레져용품 - 스포츠·레져용품"},{"name":"테크웨어주식회사","tel":"","addr":"경기도 군포시 당정동 1072번지 외2필지 테크웨어","category":"건축자재 - 조명기구"}]},{"lat":"37.361785155","long":"126.95081029","items":[{"name":"(주)제이티비전자","tel":"031-477-3939","addr":"경기도 군포시 당정동 258-6번지","category":"전기제품 - 기타전기제품"},{"name":"주식회사스마트스퀘어","tel":"031-429-6032","addr":"경기도 군포시 당정동 258-6번지","category":"사무통신 - 컴퓨터"},{"name":"주식회사에이치케이테크널러지","tel":"031-427-0235","addr":"경기도 군포시 당정동 258-6번지 2층","category":"기타 - 기계공구"}]},{"lat":"37.353868045","long":"126.9576443","items":[{"name":"(주)중앙문고","tel":"031-387-5777","addr":"경기도 군포시 당정동 364-12번지 (주)중앙문고","category":"서적문구 - 일반서적"},{"name":"자영식당","tel":"031-429-0661","addr":"경기도 군포시 당정동 364-12번지 1층","category":"일반휴게음식 - 일반한식"},{"name":"좋은도서","tel":"031-477-9390","addr":"경기도 군포시 당정동 364-12번지 2층","category":"회원제형태 - 서적"}]},{"lat":"37.346758258","long":"126.95567355","items":[{"name":"(주)지니코퍼레이션","tel":"031-454-7400","addr":"경기도 군포시 당정동 971-8번지 아련빌딩 2층","category":"건축자재 - 인테리어전문"},{"name":"설아 아이스크림 할인점","tel":"031-427-5987","addr":"경기도 군포시 당정동 971-8번지 1층","category":"음료식품 - 기타음료식품"},{"name":"쥬씨 한세대점","tel":"","addr":"경기도 군포시 당정동 971-8번지 101호","category":"일반휴게음식 - 일반한식"}]},{"lat":"37.358059159","long":"126.96144566","items":[{"name":"(주)지승자동차공업사","tel":"031-455-7001","addr":"경기도 군포시 당정동 82-1번지","category":"자동차정비 유지 - 자동차정비"},{"name":"성광","tel":"031-455-7001","addr":"경기도 군포시 당정동 82-1번지","category":"자동차정비 유지 - 자동차정비"}]},{"lat":"37.355506867","long":"126.955036","items":[{"name":"(주)진우기연","tel":"031-452-9723","addr":"경기도 군포시 당정동 331-2번지","category":"건축자재 - 보일러·펌프·샷시"}]},{"lat":"37.356056495","long":"126.95505822","items":[{"name":"(주)진우식품","tel":"031-457-2393","addr":"경기도 군포시 당정동 337-6번지","category":"음료식품 - 기타음료식품"}]},{"lat":"37.348361959","long":"126.95540169","items":[{"name":"(주)케이아이엠에스","tel":"070-7761-4531","addr":"경기도 군포시 당정동 974-7번지 프라임타운2 1동 502호","category":"농업 - 비료,사료,종자"},{"name":"(주)휴먼허브글로벌(HumanHubGlobal co.Ltd","tel":"031-477-7502","addr":"경기도 군포시 당정동 974-7번지 프라임타운2 1동 502호","category":"보건위생 - 화장품"},{"name":"깐부/주식회사이노하이테크","tel":"031-427-6589","addr":"경기도 군포시 당정동 974-7번지 프라임타운2 102호","category":"일반휴게음식 - 주점"},{"name":"새건디자인","tel":"031-456-0642","addr":"경기도 군포시 당정동 974-7번지 프라임타운2 405호","category":"건축자재 - 인테리어전문"},{"name":"플라","tel":"","addr":"경기도 군포시 당정동 974-7번지 프라임타운2 2층 201호","category":"레저업소 - 헬스클럽"},{"name":"호미양꼬치","tel":"031-451-2019","addr":"경기도 군포시 당정동 974-7번지 프라임타운2 1층 104호","category":"일반휴게음식 - 일반한식"},{"name":"홈브루","tel":"031-436-0641","addr":"경기도 군포시 당정동 974-7번지 프라임타운 4층","category":"유통업 영리 - 기타유통업"}]},{"lat":"37.345476307","long":"126.94976071","items":[{"name":"(주)케이트로닉스","tel":"031-452-0132","addr":"경기도 군포시 당정동 1006-5번지 당정빌딩 303호","category":"기타 - 기계공구"}]},{"lat":"37.363283544","long":"126.95736773","items":[{"name":"(주)타이어산본종합판매","tel":"031-454-0785","addr":"경기도 군포시 당정동 18-2번지","category":"자동차정비 유지 - 자동차시트·타이어"},{"name":"싸인몰","tel":"031-461-4435","addr":"경기도 군포시 당정동 18-2","category":"건축자재 - 인테리어전문"},{"name":"이도리","tel":"031-399-8282","addr":"경기도 군포시 당정동 18-2번지","category":"자동차정비 유지 - 자동차정비"},{"name":"주식회사 신동부자동차공업사","tel":"031-429-3355","addr":"경기도 군포시 당정동 18-2번지","category":"자동차정비 유지 - 자동차정비"},{"name":"창앤미","tel":"070-8283-5902","addr":"경기도 군포시 당정동 18-2번지 외 1필지","category":"용역 서비스 - 기타용역서비스"},{"name":"창앤미","tel":"070-8283-2222","addr":"경기도 군포시 당정동 18-2번지 외 1필지","category":"용역 서비스 - 기타용역서비스"},{"name":"프라임","tel":"031-349-6978","addr":"경기도 군포시 당정동 18-2","category":"음료식품 - 농·축·수산품"}]},{"lat":"37.357671039","long":"126.9595383","items":[{"name":"(주)태영북","tel":"031-360-0884","addr":"경기도 군포시 당정동 91-13번지","category":"서적문구 - 일반서적"},{"name":"한국브레인","tel":"031-455-2556","addr":"경기도 군포시 당정동 91-13번지 2층","category":"서적문구 - 일반서적"}]},{"lat":"37.350227685","long":"126.95698059","items":[{"name":"(주)텍콤","tel":"031-456-4031","addr":"경기도 군포시 당정동 435-2번지","category":"전기제품 - 기타전기제품"}]},{"lat":"37.358227808","long":"126.95472951","items":[{"name":"(주)토토미트원","tel":"031-451-0522","addr":"경기도 군포시 당정동 181-32번지","category":"음료식품 - 정육점"}]},{"lat":"37.354533144","long":"126.95351288","items":[{"name":"(주)팔복시스템","tel":"031-456-4190","addr":"경기도 군포시 당정동 325-5번지","category":"기타 - 기타 전문점"}]},{"lat":"37.350153314","long":"126.9514165","items":[{"name":"(주)프라임파워솔루션스","tel":"031-464-1041","addr":"경기도 군포시 당정동 508-4번지 B동 3층","category":"전기제품 - 기타전기제품"}]},{"lat":"37.352424069","long":"126.95186641","items":[{"name":"(주)필리아텔레콤","tel":"031-459-2706","addr":"경기도 군포시 당정동 500-1번지","category":"사무통신 - 통신기기"},{"name":"대진특수알곤용접","tel":"031-453-9115","addr":"경기도 군포시 당정동 500-1번지","category":"기타 - 기계공구"},{"name":"조양정밀","tel":"031-458-2422","addr":"경기도 군포시 당정동 500-1 A","category":"기타 - 기계공구"},{"name":"진일프라스틱주식회사","tel":"031-452-2240","addr":"경기도 군포시 당정동 500-1번지","category":"기타 - 기계공구"}]},{"lat":"37.355000948","long":"126.95180823","items":[{"name":"(주)하나에프에스","tel":"031-451-9296","addr":"경기도 군포시 당정동 294-11번지 2층","category":"음료식품 - 기타음료식품"},{"name":"신승프라스틱","tel":"031-451-5551","addr":"경기도 군포시 당정동 294-11번지","category":"기타 - 기타 전문점"},{"name":"주식회사 하나에프에스","tel":"031-481-9297","addr":"경기도 군포시 당정동 294-11번지 2층","category":"음료식품 - 기타음료식품"}]},{"lat":"37.358696142","long":"126.95425513","items":[{"name":"(주)하나정공","tel":"031-455-3215","addr":"경기도 군포시 당정동 181-24번지 1층","category":"전기제품 - 기타전기제품"}]},{"lat":"37.342396565","long":"126.95378038","items":[{"name":"(주)한세대마리아마인드","tel":"031-429-2205","addr":"경기도 군포시 당정동 604-5 한세대학교내","category":"음료식품 - 기타음료식품"},{"name":"(주)한세대마리아마인드","tel":"031-382-2287","addr":"경기도 군포시 당정동 604-5 한세대학교내","category":"일반휴게음식 - 위탁급식업"},{"name":"한세이레서점","tel":"031-450-5348","addr":"경기도 군포시 당정동 604-5 한세대학교 본관3층","category":"서적문구 - 일반서적"}]},{"lat":"37.353869256","long":"126.96092877","items":[{"name":"(주)해중림","tel":"070-4219-9836","addr":"경기도 군포시 당정동 103-7번지","category":"보건위생 - 화장품"}]},{"lat":"37.351949732","long":"126.95992533","items":[{"name":"(주)현대그린푸드 현대케피코","tel":"031-525-2166","addr":"경기도 군포시 당정동 376-4번지 케피코(주) 엑스 1동 1층","category":"일반휴게음식 - 서양음식"},{"name":"(주)현대그린푸드 현대케피코","tel":"031-525-2513","addr":"경기도 군포시 당정동 376-4번지 엑스 1동 1호 케피코(주)","category":"일반휴게음식 - 위탁급식업"},{"name":"위드미현대케피코점","tel":"02-6916-1500","addr":"경기도 군포시 당정동 376-4번지","category":"유통업 영리 - 편 의 점"}]},{"lat":"37.364030215","long":"126.95442101","items":[{"name":"(주)협진상공/조흥물대","tel":"031-427-4063","addr":"경기도 군포시 당정동 231-19번지","category":"별도관리 - 자체물품대금"},{"name":"앙블랑","tel":"031-429-9939","addr":"경기도 군포시 당정동 231-19번지 3층","category":"직물 - 침구·수예점"},{"name":"협진상공","tel":"031-427-4063","addr":"경기도 군포시 당정동 231-19번지","category":"자동차정비 유지 - 자동차부품"}]},{"lat":"37.353867661","long":"126.95665106","items":[{"name":"(주)휴니드테크놀러지스","tel":"031-450-2500","addr":"경기도 군포시 당정동 352번지","category":"사무통신 - 통신기기"},{"name":"다원 한식부폐","tel":"031-451-1310","addr":"경기도 군포시 당정동 352번지","category":"일반휴게음식 - 일반한식"},{"name":"다원셀프식당","tel":"031-451-1310","addr":"경기도 군포시 당정동 352번지","category":"일반휴게음식 - 일반한식"},{"name":"비엔에이치","tel":"031-459-2706","addr":"경기도 군포시 당정동 352번지 102호","category":"보건위생 - 의료용품"}]},{"lat":"37.34367446","long":"126.95017954","items":[{"name":"2030당구클럽","tel":"070-7737-8881","addr":"경기도 군포시 당정동 1011-1번지 대우프라자 201,205호","category":"레저업소 - 당 구 장"},{"name":"경민통신","tel":"031-455-9111","addr":"경기도 군포시 당정동 1011-1번지 대우프라자2 1층 101호","category":"사무통신 - 통신기기"},{"name":"계동치킨","tel":"031-477-8255","addr":"경기도 군포시 당정동 1011-1번지 대우프라자2 111호","category":"일반휴게음식 - 주점"},{"name":"고기한마당","tel":"031-427-0674","addr":"경기도 군포시 당정동 1011-1번지 대우프라자II 108호","category":"일반휴게음식 - 일반한식"},{"name":"남궁가족발당정점","tel":"031-427-3227","addr":"경기도 군포시 당정동 1011-1번지 대우프라자2 110호","category":"일반휴게음식 - 일반한식"},{"name":"라온애드","tel":"","addr":"경기도 군포시 당정동 1011-1번지 대우프라자2 2층 202호","category":"용역 서비스 - 사무서비스"},{"name":"미소노래연습장","tel":"031-453-9377","addr":"경기도 군포시 당정동 1011-1번지 대우프라자2차 301호","category":"레저업소 - 노 래 방"},{"name":"미스킨앤바디","tel":"","addr":"경기도 군포시 당정동 1011-1번지 대우프라자2 202호","category":"보건위생 - 화장품"},{"name":"빠야팬","tel":"031-427-4682","addr":"경기도 군포시 당정동 1011-1번지 대우프라자2 107호","category":"일반휴게음식 - 주점"},{"name":"성전당약국","tel":"031-427-3959","addr":"경기도 군포시 당정동 1011-1번지 104대우프라자II","category":"약국 - 약국"},{"name":"오피스비젼","tel":"031-397-3988","addr":"경기도 군포시 당정동 1011-1 15블럭 1롯트 대우프라자 11 1층 107","category":"사무통신 - 기타 사무용품"},{"name":"응급실국물떡볶이군포당정점","tel":"031-429-7119","addr":"경기도 군포시 당정동 1011-1번지 대우프라자2 1층 103호","category":"일반휴게음식 - 스넥"},{"name":"이모네반찬","tel":"031-427-0165","addr":"경기도 군포시 당정동 1011-1번지 대우프라자2 109호","category":"음료식품 - 기타음료식품"},{"name":"주식회사 한스피엠아이","tel":"031-346-3093","addr":"경기도 군포시 당정동 1011-1번지 대우프라자2차3층303,304","category":"보건위생 - 의료용품"},{"name":"청진동해장국시골밥상","tel":"031-454-8339","addr":"경기도 군포시 당정동 1011-1번지 대우프라자2 105호","category":"일반휴게음식 - 일반한식"},{"name":"카라헤어","tel":"031-427-8287","addr":"경기도 군포시 당정동 1011-1번지 대우프라자2 204호","category":"보건위생 - 미용원"},{"name":"헤어제이","tel":"031-427-8409","addr":"경기도 군포시 당정동 1011-1번지 대우프라자2 1층 102호","category":"보건위생 - 미용원"}]},{"lat":"37.364058819","long":"126.95842837","items":[{"name":"24시전주콩나물해장국","tel":"031-455-3535","addr":"경기도 군포시 당정동 12-2","category":"일반휴게음식 - 일반한식"}]},{"lat":"37.346756474","long":"126.95139625","items":[{"name":"448돈까스","tel":"031-347-3748","addr":"경기도 군포시 당정동 1002-2번지 1층","category":"일반휴게음식 - 서양음식"}]},{"lat":"37.344197025","long":"126.95012274","items":[{"name":"59쌀피자 당정점","tel":"031-429-5982","addr":"경기도 군포시 당정동 1008-5번지 보라빌딩 103호","category":"일반휴게음식 - 서양음식"},{"name":"네이밍카페커피GO(고)!#5","tel":"070-5121-6774","addr":"경기도 군포시 당정동 1008-5번지 보라빌딩 102호","category":"일반휴게음식 - 서양음식"},{"name":"당정역중앙공인중개사사무소","tel":"031-457-7400","addr":"경기도 군포시 당정동 1008-5번지 보라빌딩 101호","category":"용역 서비스 - 부동산 중개·임대"},{"name":"옥주한의원","tel":"031-459-4455","addr":"경기도 군포시 당정동 1008-5번지 보라빌딩 2층","category":"의원 - 한의원"},{"name":"토대력","tel":"031-477-7714","addr":"경기도 군포시 당정동 1008-5번지 보라빌딩 1층","category":"일반휴게음식 - 주점"}]},{"lat":"37.355311083","long":"126.96150361","items":[{"name":"C.T.S(Creative Total Solution)","tel":"031-454-5608","addr":"경기도 군포시 당정동 115-5","category":"서적문구 - 과학기자재"}]},{"lat":"37.344286545","long":"126.94883614","items":[{"name":"ELLE ME DIT(그녀가내게말했어)","tel":"070-8248-5884","addr":"경기도 군포시 당정동 1010-1번지 슬기빌딩 105호","category":"의류 - 정장"},{"name":"로직웍스","tel":"031-387-0787","addr":"경기도 군포시 당정동 1010-1번지 슬기빌딩 302호","category":"전기제품 - 기타전기제품"},{"name":"로직웍스/원격지","tel":"031-387-0787","addr":"경기도 군포시 당정동 1010-1번지 슬기빌딩 302호","category":"기타 - 기타 전문점"},{"name":"미주유통","tel":"031-427-1712","addr":"경기도 군포시 당정동 1010-1번지 슬기빌딩 201호","category":"신변잡화 - 기타잡화"},{"name":"위드미당정역점","tel":"031-477-3505","addr":"경기도 군포시 당정동 1010-1번지 슬기프라자 101호","category":"유통업 영리 - 편 의 점"},{"name":"인카","tel":"070-4207-8987","addr":"경기도 군포시 당정동 1010-1번지 슬기빌딩 108호 107","category":"자동차정비 유지 - 자동차부품"},{"name":"호야통신","tel":"031-000-0000","addr":"경기도 군포시 당정동 1010-1번지 슬기빌딩 102,103호","category":"사무통신 - 통신기기"}]},{"lat":"37.348361868","long":"126.95517597","items":[{"name":"GS25군포고산로점","tel":"","addr":"경기도 군포시 당정동 974-1번지 SK프라자 104호","category":"유통업 영리 - 편 의 점"},{"name":"NEW당구클럽","tel":"031-444-3910","addr":"경기도 군포시 당정동 974-1번지 SK프라자 3층 302호","category":"레저업소 - 당 구 장"},{"name":"남호주점","tel":"031-427-5281","addr":"경기도 군포시 당정동 974-1번지 SK프라자 1층 106호","category":"일반휴게음식 - 주점"},{"name":"대신철물","tel":"031-429-0487","addr":"경기도 군포시 당정동 974-1번지 SK프라자 101-1","category":"건축자재 - 목재·석재·철물"},{"name":"무진장김치찌개","tel":"031-455-1545","addr":"경기도 군포시 당정동 974-1번지 SK프라자 2층 201호","category":"일반휴게음식 - 일반한식"},{"name":"미래디앤피","tel":"031-427-8555","addr":"경기도 군포시 당정동 974-1번지 SK프라자 101호","category":"용역 서비스 - 사무서비스"},{"name":"불타는신닭발","tel":"031-458-8939","addr":"경기도 군포시 당정동 974-1번지 SK프라자 1층 105호","category":"일반휴게음식 - 일반한식"},{"name":"뿔돈","tel":"031-477-9219","addr":"경기도 군포시 당정동 974-1번지 SK프라자 외1필지107","category":"일반휴게음식 - 일반한식"},{"name":"스타김밥","tel":"031-477-3949","addr":"경기도 군포시 당정동 974-1번지 SK프라자 106호","category":"일반휴게음식 - 스넥"},{"name":"신림동또순이순대","tel":"031-455-9888","addr":"경기도 군포시 당정동 36-1SK프라자2층202","category":"일반휴게음식 - 일반한식"},{"name":"육반장","tel":"031-395-5990","addr":"경기도 군포시 당정동 974-1번지 SK프라자 106호","category":"일반휴게음식 - 일반한식"},{"name":"이디야한세대점","tel":"031-429-1476","addr":"경기도 군포시 당정동 974-1번지 SK프라자 1층 103호","category":"일반휴게음식 - 서양음식"},{"name":"정관장당정동점","tel":"031-457-2304","addr":"경기도 군포시 당정동 974-1번지 SK프라자 1층 102호","category":"건강식품 - 홍삼제품"},{"name":"정관장서경기당정동점","tel":"031-457-2304","addr":"경기도 군포시 당정동 974-1번지 SK프라자 1층 102호","category":"건강식품 - 홍삼제품"},{"name":"춘천토종닭갈비","tel":"031-477-3337","addr":"경기도 군포시 당정동 974-1번지 SK프라자 202호","category":"일반휴게음식 - 일반한식"},{"name":"황실타이유통","tel":"031-456-7077","addr":"경기도 군포시 당정동 974-1번지 SK프라자 401호","category":"가구 - 기타가구"}]},{"lat":"37.357839869","long":"126.95351071","items":[{"name":"GS25군포공단점","tel":"","addr":"경기도 군포시 당정동 181-37번지 한웅빌딩 101호","category":"유통업 영리 - 편 의 점"}]},{"lat":"37.352308802","long":"126.95639242","items":[{"name":"GS25군포당정본점","tel":"","addr":"경기도 군포시 당정동 417-3번지","category":"유통업 영리 - 편 의 점"},{"name":"군포삼성상사","tel":"031-459-3353","addr":"경기도 군포시 당정동 417-3번지","category":"자동차정비 유지 - 자동차부품"},{"name":"협창상사","tel":"031-456-7311","addr":"경기도 군포시 당정동 417-3번지","category":"기타 - 기계공구"}]},{"lat":"37.353138661","long":"126.95880727","items":[{"name":"IGA공단마트","tel":"031-457-3133","addr":"경기도 군포시 당정동 369-5번지","category":"유통업 영리 - 슈퍼마켓"},{"name":"가나비니루포장상사","tel":"031-455-2534","addr":"경기도 군포시 당정동 369-5번지 108호","category":"신변잡화 - 기타잡화"},{"name":"김밥천국군포공단점","tel":"031-455-8511","addr":"경기도 군포시 당정동 369-5번지 1층","category":"일반휴게음식 - 스넥"},{"name":"삼시세끼","tel":"031-426-5255","addr":"경기도 군포시 당정동 369-5번지 2층","category":"일반휴게음식 - 일반한식"},{"name":"진영종합상사","tel":"031-477-8527","addr":"경기도 군포시 당정동 369-5번지 1층","category":"의류 - 기타의류"}]},{"lat":"37.349813262","long":"126.95709371","items":[{"name":"IN VETRO","tel":"031-451-0231","addr":"경기도 군포시 당정동 439-2번지","category":"건축자재 - 유리"},{"name":"산본모터스","tel":"031-429-8585","addr":"경기도 군포시 당정동 439-2번지","category":"자동차정비 유지 - 자동차정비"}]},{"lat":"37.346975135","long":"126.95728729","items":[{"name":"JB인터내셔널","tel":"070-7630-2222","addr":"경기도 군포시 당정동 982-4번지 뷰티하우스 A동 303호","category":"건강식품 - 기타건강식품"}]},{"lat":"37.354201515","long":"126.95789241","items":[{"name":"JK하이텍","tel":"031-451-0960","addr":"경기도 군포시 당정동 123번지","category":"전기제품 - 기타전기제품"},{"name":"풍성화학","tel":"031-477-3020","addr":"경기도 군포시 당정동 123번지","category":"유통업 영리 - 기타유통업"}]},{"lat":"37.346172785","long":"126.95614792","items":[{"name":"N.I.N.E-KOREA","tel":"031-317-5270","addr":"경기도 군포시 당정동 959-4 LG프라자","category":"의류 - 기타의류"},{"name":"STYLE 01 GYM","tel":"070-8182-0428","addr":"경기도 군포시 당정동 988-1번지 LG프라자 3층 301호","category":"회원제형태 - 레져업소"},{"name":"경희마루한의원","tel":"031-427-7975","addr":"경기도 군포시 당정동 988-1번지 LG프라자 203호","category":"의원 - 한의원"},{"name":"고우리헤어아뜰리에","tel":"031-427-3390","addr":"경기도 군포시 당정동 988-1번지 LG프라자 113호","category":"보건위생 - 미용원"},{"name":"마리안잉글리쉬학원","tel":"031-395-7089","addr":"경기도 군포시 당정동 988-1번지 LG프라자 406호 엘지프라자","category":"학원 - 보습학원"},{"name":"블럭팡","tel":"031-427-9002","addr":"경기도 군포시 당정동 988-1번지 LG프라자 3층 303호","category":"서적문구 - 완구점"},{"name":"솔리드학원","tel":"031-458-1005","addr":"경기도 군포시 당정동 988-1번지 LG프라자 302호","category":"학원 - 보습학원"},{"name":"솔복지센터","tel":"031-458-3004","addr":"경기도 군포시 당정동 988-1 엘지프라자 404호405호","category":"보건위생 - 기타대인서비스"},{"name":"예음피아노학원","tel":"031-342-0866","addr":"경기도 군포시 당정동 988-1번지 LG프라자 206호","category":"학원 - 예·체능계학원"},{"name":"용인대백호태권도","tel":"031-454-3774","addr":"경기도 군포시 당정동 988-1번지 LG프라자 205호","category":"학원 - 예·체능계학원"},{"name":"우리축산물도매센타","tel":"031-457-4572","addr":"경기도 군포시 당정동 988-1번지 LG프라자 1층 106호","category":"음료식품 - 정육점"},{"name":"윤덕호수학전문교습소","tel":"031-452-9163","addr":"경기도 군포시 당정동 988-1번지 LG프라자 3층","category":"회원제형태 - 학원"},{"name":"정인태권도장","tel":"031-454-3775","addr":"경기도 군포시 당정동 988-1번지 LG프라자 205호","category":"회원제형태 - 학원"},{"name":"주식회사우리메디텍","tel":"031-477-0380","addr":"경기도 군포시 당정동 988-1번지 엘지프라자 206호","category":"약국 - 제약회사"},{"name":"채움학원","tel":"031-341-0071","addr":"경기도 군포시 당정동 988-1번지 LG프라자 204호","category":"학원 - 보습학원"},{"name":"코뮌영어학원","tel":"070-8227-4421","addr":"경기도 군포시 당정동 988-1번지 LG프라자 3층 303-1호","category":"학원 - 외국어학원"},{"name":"화물차정보(주)","tel":"031-1544-0785","addr":"경기도 군포시 당정동 988-1번지 엘지프라자 403호","category":"회원제형태 - 기타4"}]},{"lat":"37.363086255","long":"126.95986255","items":[{"name":"TRENDY square","tel":"031-455-8581","addr":"경기도 군포시 당정동 13-4번지 1층","category":"건축자재 - 인테리어전문"},{"name":"신세대노래방","tel":"031-456-8010","addr":"경기도 군포시 당정동 13-4번지","category":"레저업소 - 노 래 방"},{"name":"트렌디 리노베이션 코리아","tel":"031-455-8581","addr":"경기도 군포시 당정동 13-4번지 1층,2층","category":"건축자재 - 인테리어전문"}]},{"lat":"37.354201098","long":"126.95680887","items":[{"name":"가야카정비","tel":"031-425-2112","addr":"경기도 군포시 당정동 342-1번지","category":"자동차정비 유지 - 자동차정비"},{"name":"그남자디자인","tel":"031-451-2232","addr":"경기도 군포시 당정동 342-1번지 2층","category":"건축자재 - 인테리어전문"}]},{"lat":"37.347091557","long":"126.95548149","items":[{"name":"가장맛있는족발당정점","tel":"031-427-7722","addr":"경기도 군포시 당정동 971-6번지 대승빌딩 102호,103호","category":"일반휴게음식 - 일반한식"},{"name":"봉구스밥버거 당정동점","tel":"031-477-0032","addr":"경기도 군포시 당정동 971-6번지 대승빌딩 1층","category":"일반휴게음식 - 스넥"},{"name":"봉구스밥버거당정동점","tel":"031-477-0032","addr":"경기도 군포시 당정동 971-6번지 대승빌딩 1층 1호","category":"일반휴게음식 - 스넥"},{"name":"생각하는방법학원","tel":"031-429-9916","addr":"경기도 군포시 당정동 971-6번지 대승빌딩 3층","category":"학원 - 보습학원"},{"name":"씨엔에스","tel":"031-347-0043","addr":"경기도 군포시 당정동 971-6번지 402호","category":"보건위생 - 의료용품"},{"name":"태성추어탕","tel":"031-427-7556","addr":"경기도 군포시 당정동 971-6번지 대승빌딩 2층","category":"일반휴게음식 - 일반한식"}]},{"lat":"37.365561399","long":"126.95312184","items":[{"name":"강남 김치찌개","tel":"031-427-8819","addr":"경기도 군포시 당정동 235-1 1층","category":"일반휴게음식 - 일반한식"},{"name":"덕성관","tel":"031-452-2610","addr":"경기도 군포시 당정동 235-1번지","category":"일반휴게음식 - 중국식"},{"name":"이모네분식","tel":"031-453-3246","addr":"경기도 군포시 당정동 235-1","category":"일반휴게음식 - 스넥"},{"name":"투데이치킨호프","tel":"031-452-8679","addr":"경기도 군포시 당정동 235-1번지","category":"일반휴게음식 - 주점"}]},{"lat":"37.35225437","long":"126.95545567","items":[{"name":"강남공구전기","tel":"031-455-6092","addr":"경기도 군포시 당정동 469-4번지","category":"기타 - 기타 전문점"}]},{"lat":"37.347308013","long":"126.95601179","items":[{"name":"건배7080라이브","tel":"031-454-9624","addr":"경기도 군포시 당정동 980-7번지 2층","category":"일반휴게음식 - 주점"},{"name":"건배7080라이브","tel":"031-358-6987","addr":"경기도 군포시 당정동 980-7번지 기정빌딩 2층","category":"일반휴게음식 - 주점"},{"name":"당정고을해물손칼국수","tel":"031-427-0418","addr":"경기도 군포시 당정동 48블럭 12롯트 기정빌딩","category":"일반휴게음식 - 일반한식"}]},{"lat":"37.356146823","long":"126.95562253","items":[{"name":"경기문고(과세)","tel":"031-429-3314","addr":"경기도 군포시 당정동 339-8번지 2층","category":"서적문구 - 일반서적"}]},{"lat":"37.365364132","long":"126.95544742","items":[{"name":"경수마트","tel":"031-457-3918","addr":"경기도 군포시 당정동 6-7번지","category":"유통업 영리 - 슈퍼마켓"}]},{"lat":"37.346945868","long":"126.95181369","items":[{"name":"고구려수제본갈비","tel":"031-455-9291","addr":"경기도 군포시 당정동 995-1번지 1,2층","category":"일반휴게음식 - 일반한식"}]},{"lat":"37.346064783","long":"126.9564527","items":[{"name":"골프존파크","tel":"031-454-7077","addr":"경기도 군포시 당정동 988-2번지 401,402호","category":"레저업소 - 스크린골프"},{"name":"노블레스골프존","tel":"031-454-7077","addr":"경기도 군포시 당정동 988-2번지 광개토프라자 401호,402호,403호","category":"회원제형태 - 레져업소"},{"name":"동명항","tel":"031-477-0999","addr":"경기도 군포시 당정동 56B2L광개토프라자103,104호","category":"일반휴게음식 - 일식·회집"},{"name":"메리엔다","tel":"02-1577-0000","addr":"경기도 군포시 당정동 988-2번지 광개토프라자 108,109호","category":"일반휴게음식 - 서양음식"},{"name":"무쏘군포당정점","tel":"031-398-8312","addr":"경기도 군포시 당정동 988-2번지 광개토프라자 2층 201호","category":"일반휴게음식 - 일반한식"},{"name":"벌교꼬막 주당","tel":"031-429-6320","addr":"경기도 군포시 당정동 988-2번지 광개토프라자 105호","category":"일반휴게음식 - 주점"},{"name":"손수만두(SonSoo)","tel":"031-429-9898","addr":"경기도 군포시 당정동 988-2번지 광개토프라자 1층 101호","category":"일반휴게음식 - 스넥"},{"name":"올바른","tel":"031-429-8204","addr":"경기도 군포시 당정동 988-2번지 광개토프라자 1층 106호","category":"건축자재 - 인테리어전문"},{"name":"주식회사 신영에스앤씨","tel":"031-477-8515","addr":"경기도 군포시 당정동 988-2번지 광개토프라자 403호","category":"전기제품 - 가전제품"},{"name":"쭌이랑","tel":"031-405-4404","addr":"경기도 군포시 당정동 988-2번지 광개토프라자","category":"일반휴게음식 - 주점"},{"name":"화평동왕냉면","tel":"031-477-5009","addr":"경기도 군포시 당정동 988-2번지 광개토프라자 101호","category":"일반휴게음식 - 일반한식"}]},{"lat":"37.345010073","long":"126.95514423","items":[{"name":"공부습관수학공부방","tel":"070-4245-7199","addr":"경기도 군포시 당정동 973-1번지 당정마을엘지아파트","category":"회원제형태 - 학원"},{"name":"에듀바비 서울 용산지사","tel":"02-1522-0701","addr":"경기도 군포시 당정동 973-1번지 당정마을엘지아파트","category":"용역 서비스 - 사무서비스"}]},{"lat":"37.359086192","long":"126.96109518","items":[{"name":"광진비철","tel":"031-459-6061","addr":"경기도 군포시 당정동 81-1번지","category":"건축자재 - 목재·석재·철물"},{"name":"시스템솔루션","tel":"070-4221-1738","addr":"경기도 군포시 당정동 81-1번지","category":"전기제품 - 가전제품"}]},{"lat":"37.347812193","long":"126.95504088","items":[{"name":"구가네한방항아리보쌈","tel":"031-427-3211","addr":"경기도 군포시 당정동 970-9번지 당정메디칼빌딩 203호","category":"일반휴게음식 - 일반한식"},{"name":"네이처컬렉션군포점","tel":"031-427-0933","addr":"경기도 군포시 당정동 970-9번지 당정메디컬빌딩 102호","category":"보건위생 - 화장품"},{"name":"누이네곱창","tel":"031-429-8065","addr":"경기도 군포시 당정동 970-9번지 당정메디컬빌딩 105호","category":"일반휴게음식 - 일반한식"},{"name":"당정점핑허브다이어트","tel":"031-427-9710","addr":"경기도 군포시 당정동 970-9번지 당정메디컬빌딩 3층 301호","category":"건강식품 - 기타건강식품"},{"name":"메가MGC커피군포당정점","tel":"031-7765-1449","addr":"경기도 군포시 당정동 970-9번지 당정메디컬빌딩 1층 104호","category":"일반휴게음식 - 서양음식"},{"name":"멘토에듀학원","tel":"031-453-0913","addr":"경기도 군포시 당정동 970-9번지 당정메디컬빌딩 403호","category":"학원 - 보습학원"},{"name":"본도시락한세대점","tel":"031-111-1111","addr":"경기도 군포시 당정동 970-9번지 당정메디컬빌딩 1층 106호","category":"일반휴게음식 - 일반한식"},{"name":"재아수산","tel":"031-429-6692","addr":"경기도 군포시 당정동 970-9번지 당정메디칼빌딩 107호","category":"일반휴게음식 - 일반한식"},{"name":"진영팜","tel":"031-427-4318","addr":"경기도 군포시 당정동 970-9번지 당정메디컬빌딩 3층","category":"약국 - 제약회사"},{"name":"촉","tel":"031-477-2733","addr":"경기도 군포시 당정동 970-9번지 당정메디컬빌딩 102호","category":"일반휴게음식 - 일반한식"},{"name":"카스산업계기","tel":"031-451-1790","addr":"경기도 군포시 당정동 970-9번지 당정메디칼빌딩 201호","category":"기타 - 기계공구"},{"name":"한혜림스타일","tel":"031-477-1575","addr":"경기도 군포시 당정동 970-9번지 당정매디칼빌딩 101호","category":"의류 - 정장"}]},{"lat":"37.350639586","long":"126.95078413","items":[{"name":"구성공구","tel":"031-456-6617","addr":"경기도 군포시 당정동 513-4번지","category":"기타 - 기계공구"},{"name":"명성장","tel":"031-454-7676","addr":"경기도 군포시 당정동 513-4번지 2층","category":"일반휴게음식 - 중국식"},{"name":"오선","tel":"","addr":"경기도 군포시 당정동 513-4번지 3층","category":"보건위생 - 기타대인서비스"}]},{"lat":"37.346308478","long":"126.95753598","items":[{"name":"국수사랑","tel":"031-455-5677","addr":"경기도 군포시 당정동 986-6번지 1층","category":"일반휴게음식 - 일반한식"},{"name":"송담추어탕 당정점","tel":"031-000-0000","addr":"경기도 군포시 당정동 986-6번지","category":"일반휴게음식 - 일반한식"}]},{"lat":"37.346893365","long":"126.95556061","items":[{"name":"국영수D스터디학원","tel":"031-429-5391","addr":"경기도 군포시 당정동 971-7번지 302호","category":"학원 - 보습학원"},{"name":"본가옛날막창","tel":"031-477-7292","addr":"경기도 군포시 당정동 971-7 101호,102호","category":"일반휴게음식 - 주점"},{"name":"엘림통상","tel":"031-423-1445","addr":"경기도 군포시 당정동 971-7번지 LG2차빌딩 202호","category":"음료식품 - 농·축·수산품"},{"name":"즐거운돈까스","tel":"031-477-2949","addr":"경기도 군포시 당정동 971-7번지 2층 202호","category":"일반휴게음식 - 일반한식"},{"name":"커피볶는자유","tel":"031-427-4486","addr":"경기도 군포시 당정동 971-7번지 104호","category":"일반휴게음식 - 서양음식"},{"name":"홍익입시미술교습소","tel":"031-429-0405","addr":"경기도 군포시 당정동 971-7번지 3층","category":"학원 - 예·체능계학원"},{"name":"화풍초벌갈비","tel":"","addr":"경기도 군포시 당정동 971-7번지 1층 104,105호","category":"일반휴게음식 - 일반한식"}]},{"lat":"37.355140133","long":"126.9622035","items":[{"name":"국제에너지","tel":"031-1899-7793","addr":"경기도 군포시 당정동 100번지","category":"연료판매점 - LPG 취급점"},{"name":"한국가스","tel":"031-477-0581","addr":"경기도 군포시 당정동 100번지","category":"연료판매점 - LPG 취급점"}]},{"lat":"37.352001357","long":"126.95367255","items":[{"name":"군포당정우편취급소","tel":"031-429-8811","addr":"경기도 군포시 당정동 477-1번지 101호","category":"용역 서비스 - 공공요금대행서비스/소"},{"name":"장원식당","tel":"031-455-0511","addr":"경기도 군포시 당정동 477-1번지 1층","category":"일반휴게음식 - 일반한식"},{"name":"한컴","tel":"031-349-8940","addr":"경기도 군포시 당정동 477-1번지 104호","category":"사무통신 - 컴퓨터"}]},{"lat":"37.347145336","long":"126.95478173","items":[{"name":"군포문화원","tel":"031-397-0195","addr":"경기도 군포시 당정동 969-2번지 군포문화원","category":"문화.취미 - 문화취미기타"},{"name":"군포문화원","tel":"031-429-5577","addr":"경기도 군포시 당정동 969-2번지","category":"용역 서비스 - 사무서비스"}]},{"lat":"37.343421549","long":"126.94879162","items":[{"name":"군포본점뽕잎사랑","tel":"02-1234-1234","addr":"경기도 군포시 당정동 1014-1번지 1층","category":"일반휴게음식 - 일반한식"},{"name":"초코라멜","tel":"031-427-8286","addr":"경기도 군포시 당정동 1014-1번지 2층","category":"광학제품 - 사진관"}]},{"lat":"37.348117106","long":"126.95162104","items":[{"name":"군포사무가구","tel":"031-455-7282","addr":"경기도 군포시 당정동 532번지","category":"가구 - 기타가구"}]},{"lat":"37.343953639","long":"126.94987464","items":[{"name":"군포시니어클럽","tel":"031-454-2077","addr":"경기도 군포시 당정동 1010-10번지 선경프라자 3층","category":"신변잡화 - 기타잡화"},{"name":"굿모닝치과의원","tel":"031-429-2808","addr":"경기도 군포시 당정동 1010-10번지 선경프라자 2층 2호","category":"병원 - 치과병원"},{"name":"온유한의원","tel":"031-429-8575","addr":"경기도 군포시 당정동 1010-10번지 선경프라자 2층","category":"의원 - 한의원"},{"name":"윤셰프의짬뽕데이본점(JSF&B)","tel":"031-427-8979","addr":"경기도 군포시 당정동 1010-10번지 선경프라자 1층","category":"일반휴게음식 - 중국식"},{"name":"장수국수","tel":"031-456-5365","addr":"경기도 군포시 당정동 1010-10번지 선경프라자","category":"일반휴게음식 - 일반한식"},{"name":"치킨마루(당정한세대점)","tel":"031-453-8255","addr":"경기도 군포시 당정동 1010-10번지 선경프라자 102호","category":"일반휴게음식 - 스넥"},{"name":"케어요가 필라테스","tel":"031-427-3177","addr":"경기도 군포시 당정동 1010-10번지 선경프라자 3층","category":"레저업소 - 헬스클럽"},{"name":"행복축산유통","tel":"031-429-1104","addr":"경기도 군포시 당정동 1010-10번지 선경프라자 1층 103호","category":"음료식품 - 정육점"}]},{"lat":"37.349119722","long":"126.95772615","items":[{"name":"군포시립당정동어린이집[아이행복]","tel":"031-455-2336","addr":"경기도 군포시 당정동 564-5번지","category":"학원 - 유아원"}]},{"lat":"37.343781976","long":"126.94883651","items":[{"name":"군포에너지","tel":"031-396-9696","addr":"경기도 군포시 당정동 1013-2번지","category":"연료판매점 - LPG 취급점"}]},{"lat":"37.365002628","long":"126.95278356","items":[{"name":"군포주류(유)","tel":"31-457-9383","addr":"경기도 군포시 당정동 236-8번지","category":"음료식품 - 기타음료식품"}]},{"lat":"37.355202638","long":"126.96058942","items":[{"name":"군포청화세차장","tel":"031-427-2351","addr":"경기도 군포시 당정동 110-4번지","category":"자동차정비 유지 - 세차장"},{"name":"탑쉴드자동차내외장관리(세차)","tel":"031-427-2351","addr":"경기도 군포시 당정동 110-4번지","category":"자동차정비 유지 - 자동차정비"}]},{"lat":"37.344368092","long":"126.94984049","items":[{"name":"굴다리 돼지갈비","tel":"031-429-1002","addr":"경기도 군포시 당정동 1008-3번지 1층","category":"일반휴게음식 - 일반한식"},{"name":"원당구장","tel":"031-459-4597","addr":"경기도 군포시 당정동 1008-3번지 2층 201호","category":"레저업소 - 당 구 장"},{"name":"원당구장","tel":"02-1111-1111","addr":"경기도 군포시 당정동 1008-3번지 2층","category":"레저업소 - 당 구 장"},{"name":"피디에스 (PDS) PC","tel":"070-5020-5323","addr":"경기도 군포시 당정동 1008-3번지 3층","category":"레저업소 - 기타레져업소"}]},{"lat":"37.346783923","long":"126.9523668","items":[{"name":"그라찌에한세대점","tel":"02-1111-1111","addr":"경기도 군포시 당정동 964-1번지 1층 한세대학교학생회관","category":"일반휴게음식 - 서양음식"},{"name":"씨유한세대학교점","tel":"031-898-6568","addr":"경기도 군포시 당정동 964-1번지 한세대학교트윈빌딩 101호","category":"유통업 영리 - 편 의 점"},{"name":"주식회사 한세대플라타너스","tel":"","addr":"경기도 군포시 당정동 964-1번지 한세대학교","category":"일반휴게음식 - 서양음식"},{"name":"학교법인한세대학교","tel":"031-450-5031","addr":"경기도 군포시 당정동 964-1번지","category":"학원 - 기타 교육기관"},{"name":"한세대학교산학협력단","tel":"031-477-7505","addr":"경기도 군포시 당정동 964-1번지 한세대학교","category":"용역 서비스 - 사무서비스"},{"name":"한세드론아카데미","tel":"","addr":"경기도 군포시 당정동 964-1번지 한세대학교 305호","category":"학원 - 기능학원"},{"name":"한화호텔앤드리조트(주)한세대1점","tel":"031-455-1319","addr":"경기도 군포시 당정동 964-1번지","category":"일반휴게음식 - 일반한식"},{"name":"한화호텔앤드리조트(주)한세대2점","tel":"031-455-1330","addr":"경기도 군포시 당정동 964-1번지","category":"일반휴게음식 - 위탁급식업"}]},{"lat":"37.350308764","long":"126.95694668","items":[{"name":"그린푸드","tel":"031-456-3395","addr":"경기도 군포시 당정동 435-4번지 1층","category":"일반휴게음식 - 일반한식"}]},{"lat":"37.345866819","long":"126.95711867","items":[{"name":"금강실업","tel":"031-454-8845","addr":"경기도 군포시 당정동 988-5번지 송암빌 101호","category":"직물 - 카페트,커튼,천막,지물"}]},{"lat":"37.350867071","long":"126.95612244","items":[{"name":"금성가스","tel":"031-451-0018","addr":"경기도 군포시 당정동 426-3번지 1층","category":"연료판매점 - LPG 취급점"},{"name":"한양가스","tel":"031-477-4411","addr":"경기도 군포시 당정동 426-3번지","category":"연료판매점 - LPG 취급점"}]},{"lat":"37.364615401","long":"126.9532805","items":[{"name":"금성써비스센타","tel":"031-51-2803","addr":"경기도 군포시 당정동 231-26번지","category":"자동차정비 유지 - 자동차정비"}]},{"lat":"37.365723846","long":"126.9537539","items":[{"name":"금호인테리어","tel":"031-429-3024","addr":"경기도 군포시 당정동 233-5번지 101호","category":"건축자재 - 인테리어전문"},{"name":"수정호프","tel":"031-429-1158","addr":"경기도 군포시 당정동 233-5번지 지층","category":"일반휴게음식 - 주점"}]},{"lat":"37.348145441","long":"126.95472466","items":[{"name":"긴자일식","tel":"031-451-1717","addr":"경기도 군포시 당정동 970-1번지 프라임타운 2층 201,202호","category":"일반휴게음식 - 일식·회집"},{"name":"불꽃돼지","tel":"031-452-2222","addr":"경기도 군포시 당정동 970-1번지 프라임타운 1층 101호","category":"일반휴게음식 - 일반한식"},{"name":"아리아","tel":"031-429-7955","addr":"경기도 군포시 당정동 970-1번지","category":"일반휴게음식 - 서양음식"},{"name":"오구싶구(59싶구)비어","tel":"031-477-5977","addr":"경기도 군포시 당정동 970-1번지 프라임타운 102호","category":"일반휴게음식 - 주점"},{"name":"을지로회관","tel":"031-477-1004","addr":"경기도 군포시 당정동 970-1번지 프라임타운 203,204호","category":"일반휴게음식 - 일반한식"},{"name":"일오일 (151)","tel":"031-1544-0135","addr":"경기도 군포시 당정동 970-1번지 프라임타운 301호","category":"일반휴게음식 - 일반한식"},{"name":"철수네양푼김치찌개.동태탕","tel":"031-427-8724","addr":"경기도 군포시 당정동 970-1번지 프라임타운 107호","category":"일반휴게음식 - 일반한식"},{"name":"커피스모크","tel":"031-457-8178","addr":"경기도 군포시 당정동 970-1 프라임타운108호~109호","category":"일반휴게음식 - 서양음식"},{"name":"프라임치과의원","tel":"031-427-7528","addr":"경기도 군포시 당정동 970-1번지 프라임타운 302호","category":"의원 - 치과의원"},{"name":"한우1공장","tel":"031-426-0689","addr":"경기도 군포시 당정동 970-1번지 프라임타운 1층 106호","category":"일반휴게음식 - 일반한식"},{"name":"홍수정영어학원","tel":"031-429-9916","addr":"경기도 군포시 당정동 970-1 프라임타운303호~304호","category":"회원제형태 - 학원"}]},{"lat":"37.34658711","long":"126.95578652","items":[{"name":"김밥천국","tel":"031-477-1009","addr":"경기도 군포시 당정동 47블럭6롯트태영프라자105","category":"일반휴게음식 - 일반한식"},{"name":"꾼떡당정2호점","tel":"031-427-1238","addr":"경기도 군포시 당정동 971-9번지 태영프라자 107호","category":"일반휴게음식 - 스넥"},{"name":"다빈치미술학원","tel":"031-427-3301","addr":"경기도 군포시 당정동 971-9번지 태영프라자 204호","category":"학원 - 예·체능계학원"},{"name":"달달꿈","tel":"031-346-9598","addr":"경기도 군포시 당정동 971-9번지 태영프라자 108호","category":"일반휴게음식 - 서양음식"},{"name":"떡볶이와친구들","tel":"031-429-7702","addr":"경기도 군포시 당정동 971-9번지 태영프라자 102호","category":"일반휴게음식 - 스넥"},{"name":"명문음악학원","tel":"031-477-0205","addr":"경기도 군포시 당정동 971-9번지 태영프라자 2층 203호","category":"학원 - 예·체능계학원"},{"name":"모닝글로리당정점","tel":"031-451-0360","addr":"경기도 군포시 당정동 47블럭5,6롯트태영프라자111","category":"서적문구 - 문구용품"},{"name":"여우별","tel":"031-397-7049","addr":"경기도 군포시 당정동 971-9번지 태영프라자 1층 103호","category":"보건위생 - 피부미용실"},{"name":"용인대 국가대표 태권도","tel":"031-455-0774","addr":"경기도 군포시 당정동 971-9번지 태영프라자 4층 405호","category":"학원 - 예·체능계학원"},{"name":"용인대백호태권도","tel":"031-348-6333","addr":"경기도 군포시 당정동 971-9번지 태영프라자 405호","category":"학원 - 예·체능계학원"},{"name":"윈스학원","tel":"031-391-6777","addr":"경기도 군포시 당정동 971-9번지 태영프라자 401,402호","category":"학원 - 보습학원"},{"name":"이엘에이영어학원","tel":"031-429-3242","addr":"경기도 군포시 당정동 971-9번지 태영프라자 2층 205호","category":"학원 - 외국어학원"},{"name":"이오인테리어","tel":"031-388-8808","addr":"경기도 군포시 당정동 971-9번지 외1필지태영프라자 110호","category":"주방용구 - 주방용구"},{"name":"이윤정음악학원","tel":"031-456-2332","addr":"경기도 군포시 당정동 971-9번지 태영프라자 303호","category":"학원 - 예·체능계학원"},{"name":"준갤러리미술학원","tel":"031-477-9993","addr":"경기도 군포시 당정동 971-9번지 태영프라자 403호","category":"학원 - 예·체능계학원"},{"name":"최봉재세무회계사무소","tel":"031-477-1501","addr":"경기도 군포시 당정동 971-9번지 태영프라자 201호","category":"용역 서비스 - 법률회계서비스(개인)"},{"name":"팩토수학과학해법중국어학원","tel":"031-429-5153","addr":"경기도 군포시 당정동 971-9번지 태영프라자 202호","category":"학원 - 보습학원"},{"name":"프랜즈20000헤어칼라","tel":"031-477-5473","addr":"경기도 군포시 당정동 47블럭5,6롯트태영프라자105","category":"보건위생 - 미용원"},{"name":"한수학교습소","tel":"031-477-8801","addr":"경기도 군포시 당정동 971-9번지 태영프라자 1층 104호","category":"학원 - 보습학원"}]},{"lat":"37.365444616","long":"126.95395727","items":[{"name":"까칠한싱크대","tel":"031-472-6561","addr":"경기도 군포시 당정동 231-6번지","category":"건축자재 - 인테리어전문"},{"name":"봉담산업(주)","tel":"031-459-4829","addr":"경기도 군포시 당정동 231-6번지 지층","category":"직물 - 옷감·직물"},{"name":"태영인더스트리","tel":"031-477-8825","addr":"경기도 군포시 당정동 231-6번지","category":"건축자재 - 목재·석재·철물"},{"name":"파워일레콤","tel":"031-392-9869","addr":"경기도 군포시 당정동 231-6번지","category":"전기제품 - 기타전기제품"}]},{"lat":"37.343007091","long":"126.94881449","items":[{"name":"깜놀","tel":"031-445-5855","addr":"경기도 군포시 당정동 1015-1번지 모모빌딩 2층","category":"레저업소 - 기타레져업소"},{"name":"연가정식백반","tel":"031-456-5722","addr":"경기도 군포시 당정동 1015-1번지 101호","category":"일반휴게음식 - 일반한식"}]},{"lat":"37.35175166","long":"126.96034305","items":[{"name":"꼼플레토 (completo)","tel":"031-455-0795","addr":"경기도 군포시 당정동 381-5번지","category":"의류 - 맞춤복점"},{"name":"영진상사","tel":"031-455-0795","addr":"경기도 군포시 당정동 381-5번지","category":"의류 - 기타의류"}]},{"lat":"37.346813172","long":"126.95786296","items":[{"name":"나래피오어린이집[아이행복]","tel":"031-427-2693","addr":"경기도 군포시 당정동 986-10번지 1층","category":"학원 - 유아원"}]},{"lat":"37.352506686","long":"126.95553451","items":[{"name":"나산디자인","tel":"031-455-3551","addr":"경기도 군포시 당정동 470-6번지 3층","category":"용역 서비스 - 종합용역"},{"name":"태양산업유통","tel":"031-399-0092","addr":"경기도 군포시 당정동 470-6번지 202호","category":"전기제품 - 냉열기기"}]},{"lat":"37.35192309","long":"126.96100886","items":[{"name":"남부카공업사","tel":"031-455-3566","addr":"경기도 군포시 당정동 380-10번지","category":"자동차정비 유지 - 자동차정비"}]},{"lat":"37.345512859","long":"126.95091181","items":[{"name":"내친구둘리어린이집[아이행복]","tel":"031-458-0746","addr":"경기도 군포시 당정동 1001-1번지 한솔솔파크아파트","category":"학원 - 유아원"}]},{"lat":"37.357725756","long":"126.96136683","items":[{"name":"네오통상","tel":"031-342-7188","addr":"경기도 군포시 당정동 82-2번지","category":"신변잡화 - 신발"}]},{"lat":"37.347586686","long":"126.9544203","items":[{"name":"노리숲어린이집[아이행복]","tel":"031-429-1013","addr":"경기도 군포시 당정동 968-2번지 1층","category":"학원 - 유아원"}]},{"lat":"37.355253461","long":"126.95233855","items":[{"name":"농업회사법인 (주)지노팜","tel":"031-689-3999","addr":"경기도 군포시 당정동 313번지 2층","category":"음료식품 - 농·축·수산품"}]},{"lat":"37.353255194","long":"126.95722706","items":[{"name":"농업회사법인 맛깔식품(주)","tel":"031-456-6868","addr":"경기도 군포시 당정동 360-2번지 지층","category":"음료식품 - 정육점"}]},{"lat":"37.3554461","long":"126.96111977","items":[{"name":"뉴디스","tel":"070-8975-3206","addr":"경기도 군포시 당정동 113-2번지 1층","category":"기타 - 기계공구"}]},{"lat":"37.349199926","long":"126.95545759","items":[{"name":"뉴스크린골프","tel":"031-427-3943","addr":"경기도 군포시 당정동 447-4번지 하이파크빌딩 3층","category":"레저업소 - 스크린골프"},{"name":"명태어장(당정점)","tel":"031-427-4259","addr":"경기도 군포시 당정동 447-4번지 하이파크빌딩 2층","category":"일반휴게음식 - 일반한식"},{"name":"봄노래연습장","tel":"031-429-4497","addr":"경기도 군포시 당정동 447-4번지 하이파크빌딩 402호","category":"레저업소 - 노 래 방"},{"name":"엄가네(본가)시골집","tel":"031-429-2023","addr":"경기도 군포시 당정동 447-4번지 2층","category":"일반휴게음식 - 일반한식"},{"name":"육대장군포점","tel":"031-477-6860","addr":"경기도 군포시 당정동 447-4번지 2층","category":"일반휴게음식 - 일반한식"},{"name":"퀸7080라이브","tel":"031-452-4321","addr":"경기도 군포시 당정동 447-4번지 하이파크빌딩 4층 401호","category":"일반휴게음식 - 서양음식"}]},{"lat":"37.345602235","long":"126.94928663","items":[{"name":"느루미동태탕","tel":"031-458-2050","addr":"경기도 군포시 당정동 1007-4","category":"일반휴게음식 - 일반한식"},{"name":"당정마을카센타","tel":"031-974-7466","addr":"경기도 군포시 당정동 1007-3번지 오성푸르메아파트","category":"자동차정비 유지 - 자동차정비"},{"name":"제이제이골프(JJ GOLF)","tel":"031-429-8332","addr":"경기도 군포시 당정동 1007-3번지 오성푸르메아파트","category":"레져용품 - 스포츠·레져용품"},{"name":"황토장군불바베큐","tel":"031-455-4292","addr":"경기도 군포시 당정동 1007-3번지 오성푸르메아파트","category":"일반휴게음식 - 주점"}]},{"lat":"37.351036107","long":"126.95095315","items":[{"name":"다니엘","tel":"031-344-4411","addr":"경기도 군포시 당정동 512-1번지","category":"기타 - 기타 전문점"},{"name":"주식회사 한국청소회사케이앤씨씨","tel":"031-382-1122","addr":"경기도 군포시 당정동 512-1번지 3층 전체","category":"용역 서비스 - 종합용역"}]},{"lat":"37.344287061","long":"126.94997597","items":[{"name":"다미스킨테라피","tel":"02-420-7525","addr":"경기도 군포시 당정동 1008-4번지 1층 101호","category":"회원제형태 - 기타4"},{"name":"헤라손눈썹","tel":"","addr":"경기도 군포시 당정동 1008-4번지 1층 101호","category":"보건위생 - 미용원"},{"name":"헤어코코","tel":"031-393-7825","addr":"경기도 군포시 당정동 1008-4번지 무지개빌 102호","category":"보건위생 - 미용원"}]},{"lat":"37.363723269","long":"126.95297631","items":[{"name":"다복셀프식당","tel":"031-453-5952","addr":"경기도 군포시 당정동 246-3번지 1층 103호","category":"일반휴게음식 - 일반한식"},{"name":"다온모터스","tel":"031-395-9763","addr":"경기도 군포시 당정동 246-3번지","category":"자동차정비 유지 - 자동차정비"},{"name":"이노테크주식회사","tel":"031-453-4900","addr":"경기도 군포시 당정동 246-3번지 외1필지 301호","category":"보건위생 - 의료용품"}]},{"lat":"37.351533657","long":"126.95570442","items":[{"name":"다빈","tel":"031-427-3747","addr":"경기도 군포시 당정동 464-1번지 2층","category":"일반휴게음식 - 중국식"},{"name":"셀프식당","tel":"031-451-9722","addr":"경기도 군포시 당정동 464-1번지","category":"일반휴게음식 - 일반한식"},{"name":"소담푸드","tel":"","addr":"경기도 군포시 당정동 464-1번지","category":"일반휴게음식 - 일반한식"}]},{"lat":"37.354641053","long":"126.9530049","items":[{"name":"다솔푸드","tel":"031-456-4530","addr":"경기도 군포시 당정동 326-4번지 2층","category":"일반휴게음식 - 일반한식"},{"name":"행복한밥상","tel":"031-456-4530","addr":"경기도 군포시 당정동 326-4번지 2층","category":"일반휴게음식 - 일반한식"}]},{"lat":"37.351695115","long":"126.95392105","items":[{"name":"다옴집밥뷔페","tel":"031-427-7774","addr":"경기도 군포시 당정동 476-3번지 대준빌딩 102호","category":"일반휴게음식 - 일반한식"},{"name":"당정셀프식당","tel":"031-429-5540","addr":"경기도 군포시 당정동 476-3번지 도현빌딩 102호","category":"일반휴게음식 - 일반한식"},{"name":"신풍상사","tel":"031-453-5972","addr":"경기도 군포시 당정동 476-3번지","category":"유통업 영리 - 슈퍼마켓"},{"name":"용당구장","tel":"031-429-6278","addr":"경기도 군포시 당정동 476-3번지 대준빌딩 302호","category":"레저업소 - 당 구 장"},{"name":"주식회사 네오팩토리","tel":"070-4649-1101","addr":"경기도 군포시 당정동 476-3번지 대준빌딩 202호","category":"신변잡화 - 기타잡화"}]},{"lat":"37.362389568","long":"126.95250309","items":[{"name":"다인/삼원(담배)","tel":"031-450-5552","addr":"경기도 군포시 당정동 247번지 농심(주)","category":"기타 - 기타 전문점"},{"name":"청아","tel":"031-450-5555","addr":"경기도 군포시 당정동 247번지","category":"신변잡화 - 기타잡화"},{"name":"청아","tel":"031-214-7750","addr":"경기도 군포시 당정동 247번지","category":"회원제형태 - 건강식품"}]},{"lat":"37.348001347","long":"126.95489404","items":[{"name":"담소소사골순대","tel":"031-427-1821","addr":"경기도 군포시 당정동 970-8번지 R&K프라자 1층 102호","category":"일반휴게음식 - 일반한식"},{"name":"베스킨라빈스 군포당정점","tel":"031-427-3101","addr":"경기도 군포시 당정동 970-8번지 R&K프라자 1층","category":"음료식품 - 제과점"},{"name":"조이아동발달센터","tel":"031-344-0227","addr":"경기도 군포시 당정동 970-8번지 R&K프라자","category":"보건위생 - 기타대인서비스"}]},{"lat":"37.354139763","long":"126.96150425","items":[{"name":"당정슈퍼","tel":"031-456-8225","addr":"경기도 군포시 당정동 103-10번지","category":"유통업 영리 - 슈퍼마켓"}]},{"lat":"37.34881295","long":"126.9566203","items":[{"name":"당정자동차외장관리","tel":"031-455-7626","addr":"경기도 군포시 당정동 975-1번지","category":"자동차정비 유지 - 세차장"},{"name":"정공업사","tel":"031-477-6768","addr":"경기도 군포시 당정동 975-1번지","category":"자동차정비 유지 - 자동차정비"}]},{"lat":"37.345812919","long":"126.95753628","items":[{"name":"당정점현대자동차","tel":"031-386-8204","addr":"경기도 군포시 당정동 989-1,2","category":"자동차정비 유지 - 자동차정비"}]},{"lat":"37.344169439","long":"126.94889266","items":[{"name":"당정카피랜드","tel":"031-453-0192","addr":"경기도 군포시 당정동 1010-3번지 1층","category":"용역 서비스 - 사무서비스"},{"name":"보사안티구아 1964","tel":"031-344-1960","addr":"경기도 군포시 당정동 1010-3번지 201호","category":"일반휴게음식 - 일반한식"}]},{"lat":"37.343088909","long":"126.95042822","items":[{"name":"당정포차","tel":"031-429-5900","addr":"경기도 군포시 당정동 1012-4번지 대우프라자3 102호","category":"일반휴게음식 - 일반한식"},{"name":"무무케이크(MUMUCAKE)","tel":"","addr":"경기도 군포시 당정동 1012-4번지 대우프라자3 1층 102호","category":"일반휴게음식 - 서양음식"},{"name":"브레드104","tel":"070-5099-0847","addr":"경기도 군포시 당정동 1012-4번지 대우프라자 104호","category":"음료식품 - 제과점"},{"name":"비비헤어(BB헤어)","tel":"031-458-8858","addr":"경기도 군포시 당정동 1012-4번지 대우프라자 103호","category":"보건위생 - 미용원"},{"name":"소망","tel":"080-454-9191","addr":"경기도 군포시 당정동 1012-4번지 대우프라자3차 402호","category":"보건위생 - 화장품"},{"name":"신쭈꾸미","tel":"031-429-5900","addr":"경기도 군포시 당정동 1012-4번지","category":"일반휴게음식 - 일반한식"},{"name":"아름다운피아노교습소","tel":"031-477-4155","addr":"경기도 군포시 당정동 1012-4번지 대우프라자Ⅱ 301호","category":"학원 - 예·체능계학원"},{"name":"유림식당","tel":"031-429-4518","addr":"경기도 군포시 당정동 1012-4번지 대우프라자3 105호","category":"일반휴게음식 - 일반한식"},{"name":"치킨플러스 군포당정점","tel":"031-427-7171","addr":"경기도 군포시 당정동 1012-4번지 대우프라자3 105호","category":"일반휴게음식 - 스넥"},{"name":"카페팡파르","tel":"","addr":"경기도 군포시 당정동 1012-4번지 대우프라자3 106호","category":"일반휴게음식 - 서양음식"},{"name":"코텍이엔지","tel":"031-455-7114","addr":"경기도 군포시 당정동 1012-4번지 대우프라자 303호","category":"건축자재 - 기타건축자재"},{"name":"하나이미술학원","tel":"031-429-3288","addr":"경기도 군포시 당정동 1012-4번지 대우프라자3 302호","category":"학원 - 예·체능계학원"}]},{"lat":"37.345034682","long":"126.94947888","items":[{"name":"당정회센터","tel":"031-427-7152","addr":"경기도 군포시 당정동 1007-5번지 상훈아파트","category":"일반휴게음식 - 일식·회집"},{"name":"선진철물","tel":"031-427-6831","addr":"경기도 군포시 당정동 1007-5번지 상훈아파트","category":"건축자재 - 목재·석재·철물"}]},{"lat":"37.347837767","long":"126.9515648","items":[{"name":"대광냉동공업(주)","tel":"031-427-8774","addr":"경기도 군포시 당정동 629-14번지","category":"자동차판매 - 기타운송"}]},{"lat":"37.356310113","long":"126.95847809","items":[{"name":"대동기업","tel":"031-457-0889","addr":"경기도 군포시 당정동 150","category":"기타 - 기계공구"}]},{"lat":"37.351144279","long":"126.95106594","items":[{"name":"대동특수용접","tel":"031-456-9507","addr":"경기도 군포시 당정동 512-6번지","category":"기타 - 기타 전문점"}]},{"lat":"37.345279031","long":"126.95191639","items":[{"name":"대림","tel":"","addr":"경기도 군포시 당정동 1001-1번지 한솔솔파크아파트","category":"건축자재 - 인테리어전문"},{"name":"유니엘어린이집[아이행복]","tel":"031-455-5004","addr":"경기도 군포시 당정동 1001-1번지 한솔솔파크아파트","category":"학원 - 유아원"}]},{"lat":"37.360166795","long":"126.95939012","items":[{"name":"대명에듀(주)","tel":"031-307-4408","addr":"경기도 군포시 당정동 59-35번지","category":"학원 - 기타 교육기관"}]},{"lat":"37.355199754","long":"126.95317383","items":[{"name":"대명종합산업","tel":"031-456-4354","addr":"경기도 군포시 당정동 326번지","category":"전기제품 - 냉열기기"},{"name":"레투스 코퍼레이션","tel":"031-629-5199","addr":"경기도 군포시 당정동 326번지","category":"가구 - 일반가구"}]},{"lat":"37.352200241","long":"126.9552864","items":[{"name":"대성","tel":"031-459-4440","addr":"경기도 군포시 당정동 469-3번지 1층","category":"용역 서비스 - 사무서비스"}]},{"lat":"37.354172865","long":"126.95381786","items":[{"name":"대영마킹M/C","tel":"031-456-6435","addr":"경기도 군포시 당정동 325-27번지","category":"기타 - 기타 전문점"},{"name":"열린세상","tel":"031-452-7662","addr":"경기도 군포시 당정동 325-27번지 4층","category":"서적문구 - 문구용품"}]},{"lat":"37.353281414","long":"126.95517285","items":[{"name":"대영유통","tel":"031-394-9292","addr":"경기도 군포시 당정동 345-2번지","category":"음료식품 - 정육점"}]},{"lat":"37.357832912","long":"126.95870294","items":[{"name":"대영제경","tel":"031-447-9306","addr":"경기도 군포시 당정동 59-4번지","category":"건축자재 - 유리"}]},{"lat":"37.351334492","long":"126.95340211","items":[{"name":"대우자동차학원","tel":"031-453-3344","addr":"경기도 군포시 당정동 506-4번지","category":"학원 - 기능학원"}]},{"lat":"37.349147174","long":"126.95884346","items":[{"name":"대인상사(유)","tel":"031-456-9477","addr":"경기도 군포시 당정동 405-3번지","category":"음료식품 - 기타음료식품"}]},{"lat":"37.35525518","long":"126.95653734","items":[{"name":"대일가스","tel":"031-445-2205","addr":"경기도 군포시 당정동 170번지","category":"연료판매점 - LPG 취급점"},{"name":"대일가스","tel":"031-449-3621","addr":"경기도 군포시 당정동 170번지","category":"연료판매점 - LPG 취급점"},{"name":"삼성대원가스","tel":"031-443-4100","addr":"경기도 군포시 당정동 170번지","category":"연료판매점 - LPG 취급점"}]},{"lat":"37.355416092","long":"126.95339943","items":[{"name":"대한FA종합상사","tel":"031-454-5167","addr":"경기도 군포시 당정동 327-23번지","category":"신변잡화 - 기타잡화"}]},{"lat":"37.352445278","long":"126.95989119","items":[{"name":"대호종합배관","tel":"031-429-8917","addr":"경기도 군포시 당정동 376-1번지","category":"건축자재 - 기타건축자재"},{"name":"포토젠","tel":"031-459-0150","addr":"경기도 군포시 당정동 376-1번지 2층","category":"기타 - 기타 전문점"}]},{"lat":"37.344314217","long":"126.95025809","items":[{"name":"더휴앤컴퍼니","tel":"031-462-9000","addr":"경기도 군포시 당정동 1008-9번지 2층","category":"보건위생 - 화장품"}]},{"lat":"37.35183938","long":"126.95416926","items":[{"name":"덕수공구","tel":"031-457-0532","addr":"경기도 군포시 당정동 476-5번지","category":"기타 - 기계공구"}]},{"lat":"37.348675613","long":"126.9513385","items":[{"name":"덕이에어컨","tel":"","addr":"경기도 군포시 당정동 525번지","category":"수리서비스 - 가정용품수리"}]},{"lat":"37.346873855","long":"126.95197174","items":[{"name":"덴트코리아","tel":"031-429-7996","addr":"경기도 군포시 당정동 995-2번지 가동 1층 101호","category":"자동차정비 유지 - 자동차정비"}]},{"lat":"37.342367447","long":"126.94898423","items":[{"name":"도우디앤에프 주식회사","tel":"031-689-3655","addr":"경기도 군포시 당정동 1017-6번지 느티나무빌딩 3층","category":"가구 - 일반가구"}]},{"lat":"37.354035947","long":"126.9497321","items":[{"name":"도진모터스","tel":"031-427-0414","addr":"경기도 군포시 당정동 1144번지","category":"자동차정비 유지 - 자동차정비"}]},{"lat":"37.364588788","long":"126.95428519","items":[{"name":"돌샘한식식당","tel":"031-455-8768","addr":"경기도 군포시 당정동 231-21번지 1층","category":"일반휴게음식 - 일반한식"},{"name":"전주셀프식당","tel":"031-455-8768","addr":"경기도 군포시 당정동 231-21번지 1층","category":"일반휴게음식 - 일반한식"}]},{"lat":"37.364588606","long":"126.95384494","items":[{"name":"동광/원격지","tel":"02-805-4016","addr":"경기도 군포시 당정동 231-34","category":"기타 - 기타 전문점"}]},{"lat":"37.350920975","long":"126.95572738","items":[{"name":"동광드림모터스","tel":"031-448-8033","addr":"경기도 군포시 당정동 426번지","category":"자동차정비 유지 - 자동차정비"},{"name":"아이제이화성","tel":"031-429-5411","addr":"경기도 군포시 당정동 426번지","category":"기타 - 기타 전문점"},{"name":"영경공업사","tel":"031-455-6682","addr":"경기도 군포시 당정동 426번지","category":"용역 서비스 - 기타용역서비스"},{"name":"차사랑세차장","tel":"031-429-5311","addr":"경기도 군포시 당정동 426번지","category":"자동차정비 유지 - 세차장"}]},{"lat":"37.353083358","long":"126.95559059","items":[{"name":"동남정밀","tel":"031-456-0806","addr":"경기도 군포시 당정동 352-10번지","category":"기타 - 기계공구"}]},{"lat":"37.352308705","long":"126.95614412","items":[{"name":"동남화공상사","tel":"031-456-3626","addr":"경기도 군포시 당정동 467-5번지","category":"기타 - 기타 전문점"},{"name":"한울한식식당","tel":"031-457-8010","addr":"경기도 군포시 당정동 467-5번지 2층","category":"일반휴게음식 - 일반한식"}]},{"lat":"37.351559779","long":"126.95348097","items":[{"name":"동명문화사","tel":"031-451-2428","addr":"경기도 군포시 당정동 506-3번지","category":"서적문구 - 출판 및 인쇄물"},{"name":"만석식당","tel":"031-427-1220","addr":"경기도 군포시 당정동 506-3번지 1층","category":"일반휴게음식 - 일반한식"},{"name":"슈퍼맨 밧데리","tel":"031-896-1432","addr":"경기도 군포시 당정동 506-3번지 105호","category":"자동차정비 유지 - 자동차부품"},{"name":"한아름슈퍼","tel":"031-454-4197","addr":"경기도 군포시 당정동 506-3번지","category":"유통업 영리 - 슈퍼마켓"},{"name":"행복한밥상","tel":"031-456-2320","addr":"경기도 군포시 당정동 506-3번지 2층","category":"일반휴게음식 - 위탁급식업"}]},{"lat":"37.35353306","long":"126.95361512","items":[{"name":"동신엔지니어링","tel":"031-452-9344","addr":"경기도 군포시 당정동 324-8번지","category":"전기제품 - 기타전기제품"},{"name":"예림기획","tel":"031-452-2253","addr":"경기도 군포시 당정동 324-8번지","category":"용역 서비스 - 종합용역"},{"name":"예향집밥","tel":"031-457-2374","addr":"경기도 군포시 당정동 324-8번지 2층","category":"일반휴게음식 - 일반한식"}]},{"lat":"37.354362008","long":"126.95364843","items":[{"name":"동양시스템전자(주)","tel":"031-456-9135","addr":"경기도 군포시 당정동 325-11번지","category":"전기제품 - 기타전기제품"},{"name":"동양시스템전자(주)/원격지","tel":"031-456-9135","addr":"경기도 군포시 당정동 325-11번지","category":"기타 - 기타 전문점"}]},{"lat":"37.363642926","long":"126.95478249","items":[{"name":"동천의료기","tel":"031-459-7074","addr":"경기도 군포시 당정동 231-38.1층","category":"보건위생 - 의료용품"}]},{"lat":"37.365255007","long":"126.95300916","items":[{"name":"두리슈퍼마켓","tel":"031-452-4429","addr":"경기도 군포시 당정동 236-2","category":"유통업 영리 - 슈퍼마켓"},{"name":"밥집","tel":"031-456-2439","addr":"경기도 군포시 당정동 236-2번지 1층","category":"일반휴게음식 - 일반한식"},{"name":"밥집","tel":"031-456-2439","addr":"경기도 군포시 당정동 236-2번지 1층","category":"일반휴게음식 - 일반한식"},{"name":"핸디페어 안양호계1동점","tel":"031-429-8289","addr":"경기도 군포시 당정동 236-2번지 지층","category":"건축자재 - 인테리어전문"}]},{"lat":"37.347588374","long":"126.95873151","items":[{"name":"두성종합지류판매(주)","tel":"031-427-4054","addr":"경기도 군포시 당정동 570번지","category":"직물 - 카페트,커튼,천막,지물"},{"name":"두원써비스","tel":"031-459-2448","addr":"경기도 군포시 당정동 570번지","category":"자동차정비 유지 - 자동차부품"}]},{"lat":"37.355723512","long":"126.95604041","items":[{"name":"두화전자통신(주)","tel":"031-429-3375","addr":"경기도 군포시 당정동 339-10번지","category":"사무통신 - 통신기기"}]},{"lat":"37.346560311","long":"126.95637339","items":[{"name":"둥근상시골집","tel":"031-457-6788","addr":"경기도 군포시 당정동 980-6번지 1층","category":"일반휴게음식 - 일반한식"},{"name":"무한이앤에프시골집/주식회사무한이앤에프","tel":"031-457-6788","addr":"경기도 군포시 당정동 980-6번지 1층","category":"일반휴게음식 - 일반한식"},{"name":"한세대시골집","tel":"070-4649-1101","addr":"경기도 군포시 당정동 980-6번지 광민빌딩 1층","category":"일반휴게음식 - 일반한식"}]},{"lat":"37.347758418","long":"126.95575193","items":[{"name":"드림기획","tel":"","addr":"경기도 군포시 당정동 974-11번지 대명빌 4동 405호","category":"용역 서비스 - 종합용역"}]},{"lat":"37.346137063","long":"126.95696051","items":[{"name":"딥마레(deep mare)","tel":"","addr":"경기도 군포시 당정동 988-4번지 디에이원파크 A동 1층 101호","category":"음료식품 - 기타음료식품"}]},{"lat":"37.350756758","long":"126.95087434","items":[{"name":"따버","tel":"050-5306-1472","addr":"경기도 군포시 당정동 513-3번지 1층","category":"일반휴게음식 - 일반한식"},{"name":"트윈카","tel":"031-427-5240","addr":"경기도 군포시 당정동 513-3번지 1층","category":"자동차정비 유지 - 자동차부품"},{"name":"트윈카","tel":"031-427-5240","addr":"경기도 군포시 당정동 513-3번지","category":"자동차정비 유지 - 자동차부품"}]},{"lat":"37.354002002","long":"126.95461934","items":[{"name":"라온푸드","tel":"031-453-1930","addr":"경기도 군포시 당정동 325-30번지 1층","category":"음료식품 - 정육점"},{"name":"아이채널","tel":"031-479-4617","addr":"경기도 군포시 당정동 325-30번지 3층","category":"자동차정비 유지 - 자동차부품"},{"name":"에스케이옵틱스/원격지","tel":"031-429-2883","addr":"경기도 군포시 당정동 325-30지하1층","category":"기타 - 기타 전문점"}]},{"lat":"37.346947615","long":"126.95603458","items":[{"name":"로뎀","tel":"02-1234-1234","addr":"경기도 군포시 당정동 980-3번지 신세기프라자 3층 302호","category":"문화.취미 - 문화취미기타"},{"name":"석기정","tel":"031-456-6630","addr":"경기도 군포시 당정동 980-3번지 신세기프라자 2층 201호","category":"일반휴게음식 - 일반한식"},{"name":"스토리방방","tel":"031-346-0086","addr":"경기도 군포시 당정동 980-3번지 신세기프라자 401,402호","category":"레저업소 - 기타레져업소"},{"name":"에이앤(AN)에이앤헤어","tel":"031-427-4500","addr":"경기도 군포시 당정동 980-3번지 신세기프라자 1층 101호","category":"보건위생 - 미용원"},{"name":"에이치디(HD)통신","tel":"031-429-2235","addr":"경기도 군포시 당정동 980-3번지 신세기프라자 1층 102호","category":"사무통신 - 통신기기"},{"name":"힐링체형관리","tel":"070-7076-5091","addr":"경기도 군포시 당정동 980-3번지 신세기프라자 202호","category":"보건위생 - 피부미용실"}]},{"lat":"37.347839401","long":"126.95548102","items":[{"name":"로스팅아라비카","tel":"070-8243-5974","addr":"경기도 군포시 당정동 974-4번지 거산프라자 3층","category":"일반휴게음식 - 서양음식"},{"name":"바다참치","tel":"031-459-7760","addr":"경기도 군포시 당정동 974-4번지 거산프라자 101호","category":"일반휴게음식 - 일식·회집"},{"name":"엉터리생고기 한세대점","tel":"031-427-3376","addr":"경기도 군포시 당정동 974-4번지 거산프라자 2층","category":"일반휴게음식 - 일반한식"},{"name":"진한낙지","tel":"031-429-6870","addr":"경기도 군포시 당정동 974-4번지 거산프라자 1층 102호","category":"일반휴게음식 - 일반한식"}]},{"lat":"37.348722737","long":"126.9563382","items":[{"name":"롯데첨단소재어린이집[아이행복]","tel":"031-456-3071","addr":"경기도 군포시 당정동 975-2번지","category":"학원 - 유아원"}]},{"lat":"37.349452462","long":"126.95608946","items":[{"name":"르노삼성자동차군포정비(주)","tel":"031-391-0003","addr":"경기도 군포시 당정동 447-7번지 (447-7,438)","category":"자동차정비 유지 - 자동차정비"},{"name":"르노삼성자동차군포정비센터","tel":"031-391-0082","addr":"경기도 군포시 당정동 447-7번지","category":"자동차정비 유지 - 자동차정비"}]},{"lat":"37.34806461","long":"126.95536801","items":[{"name":"리썸기구필라테스","tel":"","addr":"경기도 군포시 당정동 974-3번지 3층 303,304호","category":"레저업소 - 헬스클럽"},{"name":"마녀족발(한세대직영점)","tel":"031-427-5458","addr":"경기도 군포시 당정동 974-3번지 신산본프라자 105, 106호","category":"일반휴게음식 - 일반한식"},{"name":"방일해장국","tel":"031-477-8003","addr":"경기도 군포시 당정동 974-3번지 신산본프라자","category":"일반휴게음식 - 일반한식"},{"name":"비어나인","tel":"031-456-3788","addr":"경기도 군포시 당정동 974-3번지 신산본프라자 301동 3층 302호","category":"일반휴게음식 - 주점"},{"name":"빽다방 군포당정삼거리","tel":"031-342-7429","addr":"경기도 군포시 당정동 974-3번지 신산본프라자 103호","category":"일반휴게음식 - 서양음식"},{"name":"삼흥환경건설(주)","tel":"031-458-6162","addr":"경기도 군포시 당정동 974-3번지 신산본프라자 501호~502호","category":"용역 서비스 - 종합용역"},{"name":"우가네곱창","tel":"031-455-0895","addr":"경기도 군포시 당정동 36블럭11,12롯트신산본프라자104","category":"일반휴게음식 - 일반한식"},{"name":"은빛","tel":"031-427-2055","addr":"경기도 군포시 당정동 974-3번지 신산본프라자 203,204호","category":"일반휴게음식 - 일반한식"},{"name":"퍼펙트헬스크럽","tel":"031-477-1116","addr":"경기도 군포시 당정동 974-3번지 신산본프라자 303동 304호","category":"회원제형태 - 레져업소"},{"name":"한세 골프존","tel":"031-427-4449","addr":"경기도 군포시 당정동 974-3번지 신산본프라자 4층 402호","category":"레저업소 - 스크린골프"},{"name":"한세골프존","tel":"070-8969-6993","addr":"경기도 군포시 당정동 974-3번지 신산본프라자 401호","category":"레져용품 - 골프용품 전문점"}]},{"lat":"37.343728018","long":"126.94906225","items":[{"name":"린다크래프트","tel":"031-458-4584","addr":"경기도 군포시 당정동 1013-3번지 201호","category":"일반휴게음식 - 서양음식"},{"name":"요거프레소 당정역점","tel":"031-451-3330","addr":"경기도 군포시 당정동 1013-3번지","category":"일반휴게음식 - 서양음식"}]},{"lat":"37.36286836","long":"126.95553929","items":[{"name":"마을상회","tel":"031-455-2271","addr":"경기도 군포시 당정동 216-1번지 1층","category":"유통업 영리 - 슈퍼마켓"},{"name":"전주식당","tel":"031-452-1221","addr":"경기도 군포시 당정동 216-1번지 1층","category":"일반휴게음식 - 일반한식"}]},{"lat":"37.356696769","long":"126.95644615","items":[{"name":"마이텍","tel":"031-454-0794","addr":"경기도 군포시 당정동 150-18번지 1층","category":"기타 - 기계공구"}]},{"lat":"37.35513989","long":"126.9615037","items":[{"name":"마제스타","tel":"","addr":"경기도 군포시 당정동 108-1번지 2층","category":"용역 서비스 - 보관및 창고업"}]},{"lat":"37.353001875","long":"126.95461998","items":[{"name":"만도모터스","tel":"031-427-5660","addr":"경기도 군포시 당정동 348번지","category":"자동차정비 유지 - 자동차부품"}]},{"lat":"37.356416369","long":"126.95375996","items":[{"name":"맘 엔 오투엔","tel":"","addr":"경기도 군포시 당정동 181-40번지 신광프라자 3층","category":"보건위생 - 의료용품"},{"name":"오토크래프트코리아","tel":"031-451-2912","addr":"경기도 군포시 당정동 181-40번지 신광프라자 4층","category":"레저업소 - 기타레져업소"},{"name":"주식회사 다첸","tel":"031-392-8834","addr":"경기도 군포시 당정동 181-40번지 신광프라자 3층","category":"전기제품 - 가전제품"},{"name":"취영방","tel":"031-459-0586","addr":"경기도 군포시 당정동 181-40번지 신광프라자103,203호","category":"일반휴게음식 - 중국식"}]},{"lat":"37.353471978","long":"126.95864906","items":[{"name":"맛사랑","tel":"031-458-0918","addr":"경기도 군포시 당정동 370번지 1층","category":"일반휴게음식 - 일반한식"},{"name":"맛있는밥상","tel":"031-454-4740","addr":"경기도 군포시 당정동 370번지 1층","category":"일반휴게음식 - 일반한식"}]},{"lat":"37.34769527","long":"126.95556011","items":[{"name":"멘토수학학원","tel":"031-453-0339","addr":"경기도 군포시 당정동 974-5번지 수미르빌딩 2층","category":"학원 - 보습학원"},{"name":"치킨매니아당정점","tel":"031-456-9255","addr":"경기도 군포시 당정동 974-5번지 수미르빌딩 101호~102호","category":"일반휴게음식 - 주점"},{"name":"토마토도시락한세대점","tel":"031-427-9978","addr":"경기도 군포시 당정동 974-5번지 수미로빌딩 1층 103호","category":"일반휴게음식 - 일반한식"}]},{"lat":"37.353697751","long":"126.96005978","items":[{"name":"모던테크","tel":"","addr":"경기도 군포시 당정동 107-1","category":"기타 - 기계공구"},{"name":"세정정밀","tel":"031-458-4554","addr":"경기도 군포시 당정동 107-1","category":"기타 - 기계공구"}]},{"lat":"37.36413997","long":"126.95858636","items":[{"name":"모두디자인","tel":"031-1833-7911","addr":"경기도 군포시 당정동 12-1번지 외2필지","category":"서적문구 - 출판 및 인쇄물"},{"name":"월드스포츠클럽","tel":"031-427-4868","addr":"경기도 군포시 당정동 12-1번지","category":"용역 서비스 - 사무서비스"},{"name":"이씨엠전자담배군포의왕점","tel":"031-206-9580","addr":"경기도 군포시 당정동 12-1번지 1층","category":"기타 - 기타 전문점"},{"name":"조인약품주식회사","tel":"031-459-2100","addr":"경기도 군포시 당정동 12-1번지 건우빌딩 4층","category":"약국 - 제약회사"}]},{"lat":"37.349507412","long":"126.9583918","items":[{"name":"미림꽃농원(화원)","tel":"031-393-7774","addr":"경기도 군포시 당정동 406번지","category":"문화.취미 - 화원"}]},{"lat":"37.3426737","long":"126.94878087","items":[{"name":"미림정","tel":"031-452-6767","addr":"경기도 군포시 당정동 1016-1번지 1층","category":"일반휴게음식 - 일반한식"}]},{"lat":"37.353949525","long":"126.95867135","items":[{"name":"미성자동차공업사","tel":"031-461-4302","addr":"경기도 군포시 당정동 123-1번지","category":"자동차정비 유지 - 자동차정비"}]},{"lat":"37.347586994","long":"126.95517646","items":[{"name":"미스사이공당정점","tel":"031-427-0421","addr":"경기도 군포시 당정동 970-10번지 경산빌딩 1층 102호","category":"일반휴게음식 - 스넥"},{"name":"발렌타인","tel":"034-341-8807","addr":"경기도 군포시 당정동 970-10번지 경산빌딩 4층","category":"일반휴게음식 - 주점"},{"name":"우성빌리어드클럽","tel":"031-456-3253","addr":"경기도 군포시 당정동 970-10번지 경산빌딩 3층","category":"레저업소 - 당 구 장"},{"name":"황실전통아로마","tel":"031-000-0000","addr":"경기도 군포시 당정동 970-10번지 경산빌딩 5층","category":"보건위생 - 화장품"}]},{"lat":"37.343530408","long":"126.95042791","items":[{"name":"미스터브리즈","tel":"070-8888-7879","addr":"경기도 군포시 당정동 1011-2번지 재경빌딩 1층 101호","category":"일반휴게음식 - 서양음식"},{"name":"중화요리서경","tel":"031-455-9220","addr":"경기도 군포시 당정동 1011-2번지 103,104호","category":"일반휴게음식 - 중국식"}]},{"lat":"37.34758829","long":"126.9585058","items":[{"name":"미스터카약(MR KAYAK)","tel":"031-388-5840","addr":"경기도 군포시 당정동 571번지 1층 101호","category":"레져용품 - 스포츠·레져용품"}]},{"lat":"37.349452395","long":"126.95592016","items":[{"name":"미풍해장국군포의왕점","tel":"031-477-1244","addr":"경기도 군포시 당정동 447-1번지 마스타빌딩 2층 일부호","category":"일반휴게음식 - 일반한식"},{"name":"영당구장","tel":"031-455-7330","addr":"경기도 군포시 당정동 447-1번지 2층","category":"레저업소 - 당 구 장"},{"name":"주식회사리드앤","tel":"031-386-7780","addr":"경기도 군포시 당정동 447-1번지 7층","category":"사무통신 - 컴퓨터"}]},{"lat":"37.341925856","long":"126.94878141","items":[{"name":"방씨네자동차#","tel":"031-495-3852","addr":"경기도 군포시 당정동 1017-4번지 1층","category":"자동차정비 유지 - 자동차부품"},{"name":"주식회사카모아","tel":"031-273-3233","addr":"경기도 군포시 당정동 1017-4번지 아유림 2층","category":"용역 서비스 - 종합용역"}]},{"lat":"37.364031891","long":"126.9586993","items":[{"name":"백년해로 안양중앙점","tel":"031-427-7090","addr":"경기도 군포시 당정동 12-3.1층","category":"의류 - 맞춤복점"},{"name":"성원상사","tel":"031-455-3009","addr":"경기도 군포시 당정동 12-3 1층","category":"유통업 영리 - 기타유통업"},{"name":"퍼니퍼니","tel":"031-456-1616","addr":"경기도 군포시 당정동 12-3,1층","category":"가구 - 일반가구"}]},{"lat":"37.338952182","long":"126.94809518","items":[{"name":"베이커리카페가루밀","tel":"031-335-7793","addr":"경기도 군포시 당정동 938번지 당정역사 2층 일부호","category":"음료식품 - 제과점"},{"name":"코레일네트웍스(주)당정역","tel":"031-457-0998","addr":"경기도 군포시 당정동 938번지 당정역 2층 맞이밤","category":"음료식품 - 제과점"}]},{"lat":"37.354805707","long":"126.95925777","items":[{"name":"벧엘상사","tel":"070-4240-4071","addr":"경기도 군포시 당정동 111-1번지","category":"자동차정비 유지 - 자동차부품"},{"name":"벧엘자동차공업사","tel":"070-4240-4071","addr":"경기도 군포시 당정동 111-1번지","category":"자동차정비 유지 - 자동차정비"},{"name":"사라네한식뷔페","tel":"031-455-4038","addr":"경기도 군포시 당정동 111-1번지","category":"일반휴게음식 - 일반한식"},{"name":"삼화열처리","tel":"031-453-1378","addr":"경기도 군포시 당정동 111-1번지","category":"기타 - 기계공구"},{"name":"특판상사","tel":"031-455-0300","addr":"경기도 군포시 당정동 111-1번지","category":"유통업 영리 - 기타유통업"},{"name":"한결 자동차 정비공업사","tel":"031-429-4347","addr":"경기도 군포시 당정동 111-1번지","category":"자동차정비 유지 - 자동차정비"},{"name":"한샘정밀특수강","tel":"031-429-3977","addr":"경기도 군포시 당정동 111-1번지","category":"기타 - 기계공구"}]},{"lat":"37.344836473","long":"126.94951288","items":[{"name":"본스치킨","tel":"031-429-8292","addr":"경기도 군포시 당정동 1007-6","category":"일반휴게음식 - 스넥"}]},{"lat":"37.346668376","long":"126.95622661","items":[{"name":"본죽","tel":"031-427-3934","addr":"경기도 군포시 당정동 980-5번지 럭키빌딩 102호","category":"일반휴게음식 - 일반한식"},{"name":"수가정의학과의원","tel":"031-477-9960","addr":"경기도 군포시 당정동 980-5번지 럭키빌딩 201호","category":"의원 - 의원"},{"name":"엘지온누리약국","tel":"031-477-9749","addr":"경기도 군포시 당정동 48블럭5롯트럭키빌딩101","category":"약국 - 약국"},{"name":"중식당화요","tel":"031-427-0512","addr":"경기도 군포시 당정동 980-5번지 럭키빌딩 1층","category":"일반휴게음식 - 중국식"}]},{"lat":"37.360030161","long":"126.95552979","items":[{"name":"부여철강","tel":"031-452-5728","addr":"경기도 군포시 당정동 174-7번지","category":"건축자재 - 기타건축자재"}]},{"lat":"37.365200817","long":"126.9527044","items":[{"name":"부여템프콘(주)","tel":"031-452-1122","addr":"경기도 군포시 당정동 236-12번지","category":"기타 - 기타 전문점"}]},{"lat":"37.347001388","long":"126.95531226","items":[{"name":"북경반점","tel":"031-427-0071","addr":"경기도 군포시 당정동 971-1번지 동화빌딩 1층","category":"일반휴게음식 - 중국식"},{"name":"북경반점","tel":"031-427-0071","addr":"경기도 군포시 당정동 971-1번지 동화빌딩 101호","category":"일반휴게음식 - 중국식"},{"name":"주식회사 강원도막국수","tel":"031-223-5214","addr":"경기도 군포시 당정동 971-1번지 동화빌딩","category":"일반휴게음식 - 일반한식"}]},{"lat":"37.349533198","long":"126.9551978","items":[{"name":"빛나리","tel":"031-427-9828","addr":"경기도 군포시 당정동 448-3번지 1층","category":"건축자재 - 조명기구"},{"name":"싸인테크","tel":"031-477-4800","addr":"경기도 군포시 당정동 448-3번지","category":"용역 서비스 - 종합용역"}]},{"lat":"37.354309373","long":"126.95720384","items":[{"name":"빛나카클리닉","tel":"031-456-8911","addr":"경기도 군포시 당정동 363-1번지","category":"자동차정비 유지 - 자동차정비"},{"name":"신한모터스","tel":"031-427-7275","addr":"경기도 군포시 당정동 363-1번지","category":"자동차정비 유지 - 자동차정비"},{"name":"신흥자동차정비공사","tel":"031-453-8450","addr":"경기도 군포시 당정동 363-1번지 1층","category":"자동차정비 유지 - 자동차정비"}]},{"lat":"37.358112121","long":"126.95842059","items":[{"name":"빛춤라이팅","tel":"031-445-8481","addr":"경기도 군포시 당정동 59-3 금봉테크노밸리 901호","category":"건축자재 - 조명기구"},{"name":"씨엘전자 주식회사","tel":"031-424-0365","addr":"경기도 군포시 당정동 59-3번지","category":"전기제품 - 가전제품"},{"name":"한국콤마주식회사","tel":"070-8867-1375","addr":"경기도 군포시 당정동 59-3번지 금봉테크노벨리 803호","category":"주방용구 - 주방용구"}]},{"lat":"37.343926139","long":"126.9488364","items":[{"name":"뽁기&마리","tel":"031-454-4520","addr":"경기도 군포시 당정동 1013-1번지 동원빌딩 101호","category":"일반휴게음식 - 스넥"},{"name":"신비","tel":"070-9144-0312","addr":"경기도 군포시 당정동 1013-1번지 동원빌딩 401호","category":"보건위생 - 미용재료"},{"name":"이디야 당정역점","tel":"031-455-8484","addr":"경기도 군포시 당정동 1013-1번지 동원빌딩 103호","category":"일반휴게음식 - 서양음식"},{"name":"주식회사 더울프","tel":"070-4218-3337","addr":"경기도 군포시 당정동 1013-1번지 동원빌딩 104호","category":"사무통신 - 통신기기"},{"name":"포스걸","tel":"070-7680-8057","addr":"경기도 군포시 당정동 1013-1번지 동원빌딩 101호","category":"의류 - 정장"},{"name":"해림세무회계","tel":"031-457-0015","addr":"경기도 군포시 당정동 1013-1번지 동원빌딩 5층 502호","category":"용역 서비스 - 법률회계서비스(개인)"},{"name":"황소곱창구이","tel":"031-455-5785","addr":"경기도 군포시 당정동 1013-1번지 동원빌딩 1층 105호","category":"일반휴게음식 - 일반한식"}]},{"lat":"37.35891971","long":"126.95031562","items":[{"name":"사계절집밥","tel":"031-477-2492","addr":"경기도 군포시 당정동 1068번지","category":"일반휴게음식 - 일반한식"},{"name":"세븐일레븐군포공단로점","tel":"","addr":"경기도 군포시 당정동 1068번지","category":"유통업 영리 - 편 의 점"}]},{"lat":"37.347533177","long":"126.95578593","items":[{"name":"사회복지법인씨.피재활원/일꿈터","tel":"031-451-8799","addr":"경기도 군포시 당정동 974-6번지 누리에뜰","category":"일반휴게음식 - 일반한식"},{"name":"하나탁구교실","tel":"031-477-0582","addr":"경기도 군포시 당정동 974-6번지 누리에뜰","category":"레저업소 - 기타레져업소"}]},{"lat":"37.362643685","long":"126.95700689","items":[{"name":"산수전기","tel":"031-427-6480","addr":"경기도 군포시 당정동 18-17 1층","category":"수리서비스 - 기타수리서비스"}]},{"lat":"37.35397624","long":"126.95783611","items":[{"name":"삼동주방가구","tel":"031-429-6621","addr":"경기도 군포시 당정동 364-1번지","category":"주방용구 - 주방용구"}]},{"lat":"37.352199697","long":"126.95395458","items":[{"name":"삼부자식품","tel":"031-477-4358","addr":"경기도 군포시 당정동 478-1번지 신우테크 2층","category":"음료식품 - 기타음료식품"}]},{"lat":"37.35289467","long":"126.95692253","items":[{"name":"삼일우드","tel":"031-431-7461","addr":"경기도 군포시 당정동 352-17번지","category":"건축자재 - 목재·석재·철물"}]},{"lat":"37.365363986","long":"126.95508618","items":[{"name":"삼주식품","tel":"031-455-6488","addr":"경기도 군포시 당정동 6-20번지","category":"회원제형태 - 기타4"}]},{"lat":"37.351670665","long":"126.96061397","items":[{"name":"삼천엔지니어링","tel":"031-455-3361","addr":"경기도 군포시 당정동 381-6번지","category":"기타 - 기계공구"},{"name":"세경상사","tel":"031-455-0914","addr":"경기도 군포시 당정동 381-6번지 1층","category":"건축자재 - 목재·석재·철물"},{"name":"오케이냉동","tel":"031-427-4036","addr":"경기도 군포시 당정동 381-6번지 1층","category":"전기제품 - 냉열기기"},{"name":"우성진공상사","tel":"031-427-0936","addr":"경기도 군포시 당정동 381-6번지","category":"기타 - 기계공구"},{"name":"하임툴링","tel":"031-427-8205","addr":"경기도 군포시 당정동 381-6번지","category":"기타 - 기계공구"}]},{"lat":"37.355118893","long":"126.95372695","items":[{"name":"삼홍엔지니어링(주)","tel":"031-429-0981","addr":"경기도 군포시 당정동 327-19","category":"자동차정비 유지 - 자동차부품"},{"name":"용진슈퍼","tel":"031-457-1201","addr":"경기도 군포시 당정동 327-19번지","category":"유통업 영리 - 슈퍼마켓"}]},{"lat":"37.351173655","long":"126.95673171","items":[{"name":"삿갓봉열처리","tel":"031-454-8889","addr":"경기도 군포시 당정동 422-1번지","category":"기타 - 기타 전문점"},{"name":"씨엔아이테크닉스사","tel":"031-453-9270","addr":"경기도 군포시 당정동 422-1번지","category":"기타 - 기계공구"}]},{"lat":"37.352505972","long":"126.95378509","items":[{"name":"새로포장","tel":"","addr":"경기도 군포시 당정동 482-1번지 3층,4층","category":"유통업 영리 - 기타유통업"}]},{"lat":"37.342061101","long":"126.94898445","items":[{"name":"색종이 어린이집[아이행복]","tel":"031-458-0743","addr":"경기도 군포시 당정동 1017-9번지","category":"학원 - 유아원"}]},{"lat":"37.34650637","long":"126.95667814","items":[{"name":"생활용품DC아울렛","tel":"031-457-0087","addr":"경기도 군포시 당정동 987-1번지 1층 104,105,106호","category":"유통업 영리 - 슈퍼마켓"},{"name":"쉔통","tel":"","addr":"경기도 군포시 당정동 987-1번지 101동 107, 108, 109호","category":"일반휴게음식 - 서양음식"}]},{"lat":"37.365308972","long":"126.95278335","items":[{"name":"서정테크","tel":"03-111-1111","addr":"경기도 군포시 당정동 236-10번지 1층","category":"기타 - 기계공구"},{"name":"에스와이피킹테크","tel":"","addr":"경기도 군포시 당정동 236-10번지","category":"레져용품 - 스포츠·레져용품"}]},{"lat":"37.350369182","long":"126.95055859","items":[{"name":"석봉모터스,세차장","tel":"031-455-1112","addr":"경기도 군포시 당정동 514-5번지","category":"자동차정비 유지 - 세차장"}]},{"lat":"37.352866722","long":"126.95462007","items":[{"name":"석정식당","tel":"031-477-4901","addr":"경기도 군포시 당정동 347-3번지 1층","category":"일반휴게음식 - 일반한식"}]},{"lat":"37.353750343","long":"126.95617708","items":[{"name":"선바이오(주)","tel":"031-423-5467","addr":"경기도 군포시 당정동 352-5번지 선바이오(주) 5층 1F","category":"약국 - 제약회사"}]},{"lat":"37.344223716","long":"126.9493666","items":[{"name":"선창목재합판상사","tel":"031-443-6277","addr":"경기도 군포시 당정동 1010-7번지","category":"건축자재 - 목재·석재·철물"}]},{"lat":"37.362309627","long":"126.95528002","items":[{"name":"성만식당","tel":"031-459-1692","addr":"경기도 군포시 당정동 216-3외3필지B동(2층)","category":"일반휴게음식 - 일반한식"}]},{"lat":"37.362390407","long":"126.95451237","items":[{"name":"성엔지니어링","tel":"031-455-0422","addr":"경기도 군포시 당정동 222-2번지","category":"기타 - 기계공구"}]},{"lat":"37.344619911","long":"126.94881333","items":[{"name":"성원24시셀프세차","tel":"031-427-1199","addr":"경기도 군포시 당정동 1009-3번지","category":"자동차정비 유지 - 세차장"}]},{"lat":"37.344189057","long":"126.95251525","items":[{"name":"성원어린이집[아이행복]","tel":"031-346-1004","addr":"경기도 군포시 당정동 997-1번지 청천마을성원아파트","category":"학원 - 유아원"}]},{"lat":"37.363894323","long":"126.95264883","items":[{"name":"성일자동차","tel":"031-429-9722","addr":"경기도 군포시 당정동 239-1번지","category":"자동차정비 유지 - 자동차정비"}]},{"lat":"37.347822077","long":"126.95725292","items":[{"name":"세븐일레븐군포거성점","tel":"","addr":"경기도 군포시 당정동 984-1번지 거성에이플 104동 지하층 비02호","category":"유통업 영리 - 편 의 점"}]},{"lat":"37.357174267","long":"126.95634427","items":[{"name":"세븐일레븐군포공단중앙점","tel":"031-1577-0711","addr":"경기도 군포시 당정동 174-19번지 1층","category":"유통업 영리 - 편 의 점"},{"name":"양평신내서울해장국","tel":"031-427-2522","addr":"경기도 군포시 당정동 174-19번지 다동 1층","category":"일반휴게음식 - 일반한식"}]},{"lat":"37.359029725","long":"126.95476286","items":[{"name":"세븐일레븐군포마리오점","tel":"031-1577-0711","addr":"경기도 군포시 당정동 181-21번지 1층","category":"유통업 영리 - 편 의 점"}]},{"lat":"37.346810593","long":"126.95153164","items":[{"name":"세븐일레븐군포한세대점","tel":"","addr":"경기도 군포시 당정동 1002-1번지 황토빌딩 1층","category":"유통업 영리 - 편 의 점"},{"name":"세븐일레븐군포한세대점","tel":"031-1577-0711","addr":"경기도 군포시 당정동 1002-1번지 황토빌딩 1층","category":"유통업 영리 - 편 의 점"},{"name":"카페클래시카","tel":"031-427-8170","addr":"경기도 군포시 당정동 1002-1번지 홍창기씨근린주택 1층,2층","category":"일반휴게음식 - 서양음식"}]},{"lat":"37.355167019","long":"126.96178586","items":[{"name":"세선EDM","tel":"","addr":"경기도 군포시 당정동 103-1번지","category":"기타 - 기계공구"},{"name":"신광에너지","tel":"031-455-9490","addr":"경기도 군포시 당정동 103-1번지","category":"연료판매점 - 기타연료"},{"name":"한신콤프렛서","tel":"031-458-6403","addr":"경기도 군포시 당정동 103-1번지","category":"기타 - 기계공구"}]},{"lat":"37.350696042","long":"126.95654014","items":[{"name":"세원에프앤씨주식회사","tel":"031-451-6300","addr":"경기도 군포시 당정동 427-2번지","category":"문화.취미 - 화원"}]},{"lat":"37.346369358","long":"126.95214137","items":[{"name":"세이브코스트","tel":"031-458-1009","addr":"경기도 군포시 당정동 995-4번지 1층","category":"유통업 영리 - 슈퍼마켓"},{"name":"엠아이티건설 주식회사","tel":"031-456-8871","addr":"경기도 군포시 당정동 995-4번지 2층","category":"용역 서비스 - 종합용역"}]},{"lat":"37.353334883","long":"126.95372811","items":[{"name":"소노다인","tel":"031-457-2003","addr":"경기도 군포시 당정동 324-10번지 3층","category":"기타 - 기타 전문점"}]},{"lat":"37.354200031","long":"126.95414516","items":[{"name":"소담뷔페식당","tel":"031-455-3325","addr":"경기도 군포시 당정동 325-28번지 2층","category":"일반휴게음식 - 일반한식"},{"name":"현진엔지니어링","tel":"031-451-1054","addr":"경기도 군포시 당정동 325-28번지 1층","category":"건축자재 - 보일러·펌프·샷시"}]},{"lat":"37.346143787","long":"126.95140795","items":[{"name":"소망닛시","tel":"031-382-5743","addr":"경기도 군포시 당정동 1001-1번지 한솔솔파크아파트","category":"의류 - 내의판매"}]},{"lat":"37.344422549","long":"126.950732","items":[{"name":"소중한아이들유치원[아이행복]","tel":"031-451-1630","addr":"경기도 군포시 당정동 1003-3번지","category":"학원 - 유치원"}]},{"lat":"37.347613306","long":"126.95342712","items":[{"name":"소플러스 군포당정점/(주)제이앤에스푸드","tel":"031-456-6243","addr":"경기도 군포시 당정동 965-5번지 1층","category":"일반휴게음식 - 일반한식"}]},{"lat":"37.347596266","long":"126.95583103","items":[{"name":"솔루션(SOLUTION)학원","tel":"070-8221-8798","addr":"경기도 군포시 당정동 974-6번지 누리에뜰","category":"학원 - 보습학원"},{"name":"솔루션(SOLUTION)학원","tel":"070-8221-8798","addr":"경기도 군포시 당정동 974-6번지 누리에뜰 101동 206호","category":"학원 - 보습학원"},{"name":"오부장치킨한세대점","tel":"031-429-9909","addr":"경기도 군포시 당정동 974-6번지 누리에뜰","category":"일반휴게음식 - 스넥"},{"name":"요거프레소한세대점","tel":"031-477-4547","addr":"경기도 군포시 당정동 974-6번지 누리에뜰","category":"일반휴게음식 - 서양음식"},{"name":"짝태앤노가리 군포당정점","tel":"070-7538-6294","addr":"경기도 군포시 당정동 974-6번지 누리에뜰","category":"일반휴게음식 - 주점"},{"name":"참이온닭발","tel":"031-455-2555","addr":"경기도 군포시 당정동 974-6번지 누리에뜰","category":"일반휴게음식 - 일반한식"},{"name":"헤라미용실","tel":"031-456-9870","addr":"경기도 군포시 당정동 974-6번지 누리에뜰 상가 101동 104호","category":"보건위생 - 미용원"}]},{"lat":"37.344169506","long":"126.94903937","items":[{"name":"송씨솜씨","tel":"031-429-9385","addr":"경기도 군포시 당정동 1010-4번지 1층","category":"일반휴게음식 - 일반한식"}]},{"lat":"37.349029334","long":"126.95698132","items":[{"name":"수랏간","tel":"031-427-3318","addr":"경기도 군포시 당정동 976-1번지","category":"일반휴게음식 - 일반한식"},{"name":"횡성한우정육식당","tel":"031-427-3318","addr":"경기도 군포시 당정동 976-1(38블럭1롯트)","category":"일반휴게음식 - 일반한식"}]},{"lat":"37.345088732","long":"126.94945627","items":[{"name":"슈퍼강남카","tel":"031-429-6622","addr":"경기도 군포시 당정동 1007-5번지 상훈아파트","category":"자동차정비 유지 - 자동차부품"}]},{"lat":"37.350255088","long":"126.9579512","items":[{"name":"스피드카 서비스","tel":"031-477-9940","addr":"경기도 군포시 당정동 432-7번지","category":"자동차정비 유지 - 자동차정비"}]},{"lat":"37.352363202","long":"126.95726146","items":[{"name":"슬기마트","tel":"","addr":"경기도 군포시 당정동 413-1번지 1층 104호","category":"유통업 영리 - 슈퍼마켓"},{"name":"시골밥상","tel":"031-427-2599","addr":"경기도 군포시 당정동 413-1번지 지층","category":"일반휴게음식 - 일반한식"}]},{"lat":"37.350532092","long":"126.95222886","items":[{"name":"시하교육","tel":"070-7711-4158","addr":"경기도 군포시 당정동 508-11번지","category":"학원 - 기타 교육기관"}]},{"lat":"37.347144881","long":"126.95367572","items":[{"name":"신선닭유통","tel":"031-529-2291","addr":"경기도 군포시 당정동 966-2번지","category":"음료식품 - 정육점"}]},{"lat":"37.354696031","long":"126.95522839","items":[{"name":"신안화학","tel":"031-455-0579","addr":"경기도 군포시 당정동 343-10번지","category":"기타 - 기타 전문점"},{"name":"진흥정공","tel":"031-451-2319","addr":"경기도 군포시 당정동 343-10","category":"기타 - 기계공구"}]},{"lat":"37.353418193","long":"126.95939402","items":[{"name":"신후주식회사","tel":"031-427-6088","addr":"경기도 군포시 당정동 371-5번지 4층","category":"전기제품 - 가전제품"}]},{"lat":"37.348008827","long":"126.95125996","items":[{"name":"실리팡베베 주식회사","tel":"070-7797-8108","addr":"경기도 군포시 당정동 629-1번지 4층","category":"주방용구 - 주방용식기"},{"name":"퍼시픽로얄","tel":"","addr":"경기도 군포시 당정동 629-1번지 4층","category":"보건위생 - 화장품"}]},{"lat":"37.344449122","long":"126.94970501","items":[{"name":"썬프로","tel":"031-427-0919","addr":"경기도 군포시 당정동 1008-2번지 샤인빌 101호","category":"자동차정비 유지 - 카인테리어"}]},{"lat":"37.347451873","long":"126.95525554","items":[{"name":"쏘닭 군포당정점","tel":"031-427-1663","addr":"경기도 군포시 당정동 970-11번지 1층","category":"일반휴게음식 - 스넥"},{"name":"제우스노래뮤비방","tel":"031-456-8260","addr":"경기도 군포시 당정동 970-11번지 3층","category":"용역 서비스 - 종합용역"},{"name":"헤어라떼","tel":"031-429-1112","addr":"경기도 군포시 당정동 970-11번지 드림타운 2층","category":"보건위생 - 미용원"}]},{"lat":"37.349921545","long":"126.95751123","items":[{"name":"씨유군포고산점","tel":"080-080-3663","addr":"경기도 군포시 당정동 434-1번지 1층","category":"유통업 영리 - 편 의 점"}]},{"lat":"37.353561009","long":"126.95587246","items":[{"name":"씨유군포공단점","tel":"031-898-6568","addr":"경기도 군포시 당정동 352-6번지 1층","category":"유통업 영리 - 편 의 점"}]},{"lat":"37.344340771","long":"126.94919724","items":[{"name":"씨유당정역점","tel":"031-427-1240","addr":"경기도 군포시 당정동 1010-5번지 103호","category":"유통업 영리 - 편 의 점"},{"name":"아이스크림 할인점 (군포당정점)","tel":"070-997-9970","addr":"경기도 군포시 당정동 1010-5번지 에코빌딩 101호","category":"음료식품 - 기타음료식품"},{"name":"주식회사 에버빈스","tel":"031-398-8718","addr":"경기도 군포시 당정동 1010-5번지 202호","category":"용역 서비스 - 사무서비스"},{"name":"하나모터스","tel":"031-459-4102","addr":"경기도 군포시 당정동 1010-5번지 1층 104,105호","category":"자동차정비 유지 - 자동차정비"}]},{"lat":"37.355777756","long":"126.95650315","items":[{"name":"아리랑식당","tel":"031-455-7090","addr":"경기도 군포시 당정동 171-2번지 2층","category":"일반휴게음식 - 일반한식"}]},{"lat":"37.343224012","long":"126.95031527","items":[{"name":"아리수분식점","tel":"031-427-1853","addr":"경기도 군포시 당정동 1012-1번지 아르떼하우스","category":"일반휴게음식 - 스넥"}]},{"lat":"37.352668202","long":"126.95389785","items":[{"name":"아산테크","tel":"","addr":"경기도 군포시 당정동 481-3번지","category":"기타 - 기계공구"}]},{"lat":"37.347597108","long":"126.95799792","items":[{"name":"아스텍","tel":"031-473-9107","addr":"경기도 군포시 당정동 985-1번지 거성에이플아파트","category":"신변잡화 - 기타잡화"}]},{"lat":"37.354424847","long":"126.95309533","items":[{"name":"아이런(솜사랑)","tel":"031-798-6158","addr":"경기도 군포시 당정동 324-1번지 1층","category":"직물 - 침구·수예점"}]},{"lat":"37.35458774","long":"126.95481084","items":[{"name":"아이엠에스(IMS)/원격지","tel":"031-455-2475","addr":"경기도 군포시 당정동 327-13번지","category":"기타 - 기타 전문점"}]},{"lat":"37.349667679","long":"126.95356121","items":[{"name":"아이티기획","tel":"031-8068-1500","addr":"경기도 군포시 당정동 543 A동806호","category":"서적문구 - 출판 및 인쇄물"},{"name":"주식회사군포아이티밸리부동산중개법인","tel":"031-8086-7000","addr":"경기도 군포시 당정동 543, 122","category":"건축자재 - 부동산 분양"}]},{"lat":"37.3522809","long":"126.95422541","items":[{"name":"아트솔루션","tel":"031-613-3812","addr":"경기도 군포시 당정동 479-1번지 402호","category":"전기제품 - 가전제품"}]},{"lat":"37.354813692","long":"126.95656018","items":[{"name":"아프로코리아주식회사","tel":"031-477-7377","addr":"경기도 군포시 당정동 342번지 3층","category":"보건위생 - 의료용품"}]},{"lat":"37.363698671","long":"126.95911717","items":[{"name":"애니카랜드 의왕점","tel":"031-456-0842","addr":"경기도 군포시 당정동 13번지","category":"자동차정비 유지 - 자동차정비"},{"name":"주)동일석유산업주유소","tel":"031-452-3590","addr":"경기도 군포시 당정동 13번지","category":"연료판매점 - SK주유소"},{"name":"토탈전자","tel":"031-453-8383","addr":"경기도 군포시 당정동 13번지","category":"전기제품 - 가전제품"}]},{"lat":"37.348506626","long":"126.95667692","items":[{"name":"야미가","tel":"031-429-4007","addr":"경기도 군포시 당정동 977-1번지 가온누리 101호","category":"일반휴게음식 - 일반한식"}]},{"lat":"37.356282566","long":"126.95712364","items":[{"name":"엄마손식당","tel":"031-477-2507","addr":"경기도 군포시 당정동 150-20번지 PK벤처타워 B01호","category":"일반휴게음식 - 일반한식"},{"name":"주식회사애니일렉트로닉스","tel":"031-457-1329","addr":"경기도 군포시 당정동 150-20번지 피케이벤처타워 402호","category":"전기제품 - 기타전기제품"},{"name":"지안이엔지","tel":"031-429-2071","addr":"경기도 군포시 당정동 150-20 PK벤처타워 502-1호","category":"기타 - 기계공구"}]},{"lat":"37.347810271","long":"126.95050394","items":[{"name":"에스빔(S:bm)","tel":"031-427-1531","addr":"경기도 군포시 당정동 630-4번지 1층","category":"음료식품 - 제과점"},{"name":"오웰(O'well)","tel":"031-457-6753","addr":"경기도 군포시 당정동 630-4번지","category":"일반휴게음식 - 일반한식"}]},{"lat":"37.349342073","long":"126.95067217","items":[{"name":"에스엠코리아(SM Korea)","tel":"031-459-0380","addr":"경기도 군포시 당정동 526-1번지","category":"기타 - 기계공구"}]},{"lat":"37.352560501","long":"126.954925","items":[{"name":"에스엠티스카우트(SMTSCOUT)","tel":"031-455-2460","addr":"경기도 군포시 당정동 470-1","category":"전기제품 - 기타전기제품"}]},{"lat":"37.35125406","long":"126.95500484","items":[{"name":"에스케이자동차공업사","tel":"031-454-5008","addr":"경기도 군포시 당정동 461-1번지","category":"자동차정비 유지 - 자동차정비"}]},{"lat":"37.345224751","long":"126.95140858","items":[{"name":"에스해원","tel":"031-403-2244","addr":"경기도 군포시 당정동 1001-1번지 한솔솔파크아파트","category":"회원제형태 - 기타1"}]},{"lat":"37.352200866","long":"126.95686652","items":[{"name":"에코기전/원격지","tel":"","addr":"경기도 군포시 당정동 415-3번지","category":"기타 - 기타 전문점"},{"name":"주식회사원방테크","tel":"031-423-1760","addr":"경기도 군포시 당정동 415-3번지 1층","category":"기타 - 기계공구"}]},{"lat":"37.35264187","long":"126.95561344","items":[{"name":"연지기공사","tel":"031-458-8145","addr":"경기도 군포시 당정동 350-2번지","category":"기타 - 기계공구"}]},{"lat":"37.365723972","long":"126.95405869","items":[{"name":"염가매장","tel":"031-451-3013","addr":"경기도 군포시 당정동 233-10번지 1층","category":"유통업 영리 - 슈퍼마켓"}]},{"lat":"37.352533603","long":"126.95525233","items":[{"name":"영강교통(주)","tel":"031-451-3097","addr":"경기도 군포시 당정동 470-5번지","category":"여행 - 택시회사"}]},{"lat":"37.350477418","long":"126.9508181","items":[{"name":"영미슈퍼","tel":"031-454-9076","addr":"경기도 군포시 당정동 514번지","category":"유통업 영리 - 슈퍼마켓"},{"name":"주식회사신영금속","tel":"031-451-4611","addr":"경기도 군포시 당정동 514","category":"기타 - 기타 전문점"}]},{"lat":"37.342233526","long":"126.95176046","items":[{"name":"영영아어린이집[아이행복]","tel":"031-459-7883","addr":"경기도 군포시 당정동 1025-1번지 청천마을대우아파트","category":"학원 - 유아원"},{"name":"지엠케이","tel":"031-477-8710","addr":"경기도 군포시 당정동 1025-1번지 청천마을대우아파트","category":"주방용구 - 주방용구"},{"name":"헤어조이","tel":"031-399-2271","addr":"경기도 군포시 당정동 1025-1번지 청천마을대우아파트","category":"회원제형태 - 기타1"}]},{"lat":"37.351869097","long":"126.96120076","items":[{"name":"오가네토종순대국","tel":"031-429-1267","addr":"경기도 군포시 당정동 379-4번지 1층","category":"일반휴게음식 - 일반한식"}]},{"lat":"37.353977257","long":"126.9605901","items":[{"name":"오롬솔루션","tel":"070-7527-6018","addr":"경기도 군포시 당정동 108-14번지","category":"기타 - 기계공구"},{"name":"청양슈퍼","tel":"031-456-0856","addr":"경기도 군포시 당정동 108-14번지","category":"유통업 영리 - 슈퍼마켓"},{"name":"청양슈퍼","tel":"031-456-0856","addr":"경기도 군포시 당정동 108-14번지 1층","category":"유통업 영리 - 슈퍼마켓"}]},{"lat":"37.34475801","long":"126.95569738","items":[{"name":"오름논술교습소","tel":"","addr":"경기도 군포시 당정동 973-1번지 2층 207,208호","category":"학원 - 보습학원"}]},{"lat":"37.355028091","long":"126.95206782","items":[{"name":"오봉식당","tel":"031-452-7802","addr":"경기도 군포시 당정동 294-4번지","category":"일반휴게음식 - 일반한식"}]},{"lat":"37.353777913","long":"126.95756535","items":[{"name":"오성정밀","tel":"031-458-3936","addr":"경기도 군포시 당정동 364-11번지 1층 2호","category":"기타 - 기타 전문점"},{"name":"우성전자(주)","tel":"031-479-5396","addr":"경기도 군포시 당정동 364-11번지","category":"전기제품 - 기타전기제품"}]},{"lat":"37.347353544","long":"126.95724192","items":[{"name":"오피스마루(주)","tel":"02-6403-1497","addr":"경기도 군포시 당정동 983-9번지 뷰티하우스 3동 201호","category":"서적문구 - 문구용품"}]},{"lat":"37.354028186","long":"126.95258769","items":[{"name":"온동네식품","tel":"031-458-4140","addr":"경기도 군포시 당정동 321-2번지 B동 2층","category":"음료식품 - 기타음료식품"}]},{"lat":"37.345063015","long":"126.95244696","items":[{"name":"올라헤어(Hola Hair)","tel":"031-454-6664","addr":"경기도 군포시 당정동 996-2번지 남광 1층 101호","category":"보건위생 - 미용원"}]},{"lat":"37.351337378","long":"126.96086246","items":[{"name":"와스팀손세차","tel":"031-111-1111","addr":"경기도 군포시 당정동 382-1번지 명지빌딩 1동 외3필지","category":"자동차정비 유지 - 세차장"}]},{"lat":"37.340664535","long":"126.94900801","items":[{"name":"와이유기프트","tel":"031-394-9641","addr":"경기도 군포시 당정동 1019-1번지 대원칸타빌 107동 503호","category":"유통업 영리 - 기타유통업"}]},{"lat":"37.352560882","long":"126.95587308","items":[{"name":"우리도료","tel":"031-427-9113","addr":"경기도 군포시 당정동 351-2번지","category":"건축자재 - 페인트"}]},{"lat":"37.354057481","long":"126.9582311","items":[{"name":"우리집밥","tel":"031-223-5214","addr":"경기도 군포시 당정동 123-2번지 2층","category":"일반휴게음식 - 일반한식"}]},{"lat":"37.35164172","long":"126.95555763","items":[{"name":"우주산업","tel":"031-396-3382","addr":"경기도 군포시 당정동 464-4번지","category":"주방용구 - 주방용구"}]},{"lat":"37.354004166","long":"126.96025148","items":[{"name":"운영한식부페","tel":"031-427-5952","addr":"경기도 군포시 당정동 110-6번지 1층","category":"일반휴게음식 - 일반한식"}]},{"lat":"37.344115532","long":"126.94923126","items":[{"name":"원모어플라워","tel":"","addr":"경기도 군포시 당정동 1010-6번지 에디스 1층 101호","category":"문화.취미 - 화원"}]},{"lat":"37.346532972","long":"126.9555947","items":[{"name":"위더스학원","tel":"031-429-5956","addr":"경기도 군포시 당정동 971-4번지 용창빌 1층 일부","category":"학원 - 외국어학원"}]},{"lat":"37.353336771","long":"126.95850241","items":[{"name":"유공가스","tel":"031-455-9991","addr":"경기도 군포시 당정동 369-1번지","category":"연료판매점 - LPG 취급점"}]},{"lat":"37.35413952","long":"126.96081575","items":[{"name":"유한회사 삼호보링","tel":"031-466-3534","addr":"경기도 군포시 당정동 108-18번지 1층","category":"자동차정비 유지 - 자동차정비"}]},{"lat":"37.362001522","long":"126.95109234","items":[{"name":"유한회사대연주류","tel":"031-429-3949","addr":"경기도 군포시 당정동 258-5번지","category":"음료식품 - 기타음료식품"}]},{"lat":"37.36283347","long":"126.95850811","items":[{"name":"유환자동차운전전문학원","tel":"031-454-6500","addr":"경기도 군포시 당정동 27-3번지","category":"학원 - 기능학원"}]},{"lat":"37.344034589","long":"126.94955859","items":[{"name":"육사돈","tel":"031-451-9955","addr":"경기도 군포시 당정동 1010-8번지 1층 101,102,103호","category":"일반휴게음식 - 일반한식"}]},{"lat":"37.342756121","long":"126.95177139","items":[{"name":"윤선생 우리집앞 영어교실 당정공부방","tel":"031-429-1756","addr":"경기도 군포시 당정동 1025-1번지 청천마을대우아파트","category":"학원 - 보습학원"}]},{"lat":"37.351614815","long":"126.95587367","items":[{"name":"윤테크","tel":"031-254-6648","addr":"경기도 군포시 당정동 465번지","category":"기타 - 기계공구"}]},{"lat":"37.357255464","long":"126.95661512","items":[{"name":"은혜식당","tel":"031-451-2555","addr":"경기도 군포시 당정동 150-41번지 2층","category":"일반휴게음식 - 일반한식"}]},{"lat":"37.351923022","long":"126.96081699","items":[{"name":"의왕상사","tel":"031-457-9930","addr":"경기도 군포시 당정동 380-1번지","category":"기타 - 기계공구"}]},{"lat":"37.358695936","long":"126.95375848","items":[{"name":"이글루아이스 주식회사","tel":"031-454-3800","addr":"경기도 군포시 당정동 181-26번지 대보산업공장 2층 201호","category":"주방용구 - 주방용구"}]},{"lat":"37.349695954","long":"126.95664233","items":[{"name":"이래산업","tel":"031-455-1890","addr":"경기도 군포시 당정동 437-11번지 1층","category":"기타 - 기계공구"}]},{"lat":"37.345747502","long":"126.95178065","items":[{"name":"이원상사","tel":"02-572-9698","addr":"경기도 군포시 당정동 1001-1번지 한솔솔파크아파트","category":"직물 - 옷감·직물"}]},{"lat":"37.362868068","long":"126.95481685","items":[{"name":"이카써비스공업사","tel":"031-427-2280","addr":"경기도 군포시 당정동 225-7번지","category":"자동차정비 유지 - 자동차정비"},{"name":"정풍상사","tel":"031-388-2734","addr":"경기도 군포시 당정동 225-7번지","category":"기타 - 기타 전문점"},{"name":"주식회사에스오파츠","tel":"031-427-0022","addr":"경기도 군포시 당정동 225-7번지 2층","category":"자동차정비 유지 - 자동차부품"}]},{"lat":"37.350838017","long":"126.95125802","items":[{"name":"일미식당","tel":"031-454-8761","addr":"경기도 군포시 당정동 512-7번지 성호빌딩 1층","category":"일반휴게음식 - 일반한식"},{"name":"진국뚝배기","tel":"031-54-4450","addr":"경기도 군포시 당정동 512-7번지","category":"일반휴게음식 - 한정식"},{"name":"창신종합상사","tel":"031-459-2551","addr":"경기도 군포시 당정동 512-7번지","category":"기타 - 기계공구"}]},{"lat":"37.353363708","long":"126.95825409","items":[{"name":"자매한식뷔페","tel":"031-8779-5008","addr":"경기도 군포시 당정동 364-7번지 2층","category":"일반휴게음식 - 일반한식"}]},{"lat":"37.350227531","long":"126.95658557","items":[{"name":"자율식당","tel":"031-111-1111","addr":"경기도 군포시 당정동 436번지 2층","category":"일반휴게음식 - 일반한식"}]},{"lat":"37.345891868","long":"126.95225455","items":[{"name":"장수세차장","tel":"031-454-4333","addr":"경기도 군포시 당정동 995-6번지","category":"자동차정비 유지 - 세차장"},{"name":"장수카센타","tel":"031-459-1837","addr":"경기도 군포시 당정동 995-6번지","category":"자동차정비 유지 - 자동차정비"}]},{"lat":"37.355725267","long":"126.96070199","items":[{"name":"장애인기업이음","tel":"031-453-1112","addr":"경기도 군포시 당정동 908-77번지","category":"신변잡화 - 기타잡화"}]},{"lat":"37.354806447","long":"126.96131201","items":[{"name":"전주식당","tel":"031-814-2233","addr":"경기도 군포시 당정동 108-3번지 1층","category":"일반휴게음식 - 일반한식"}]},{"lat":"37.352669947","long":"126.95831093","items":[{"name":"정진자동차공업주식회사","tel":"031-458-0196","addr":"경기도 군포시 당정동 366-1번지","category":"자동차정비 유지 - 자동차부품"}]},{"lat":"37.357030556","long":"126.95750695","items":[{"name":"제로엔지니어링","tel":"031-453-0400","addr":"경기도 군포시 당정동 150-16번지 1층","category":"기타 - 기타 전문점"}]},{"lat":"37.343178936","long":"126.95025888","items":[{"name":"제이스톤뷰티","tel":"070-4185-3546","addr":"경기도 군포시 당정동 1012-5번지 아르떼하우스 B동 304호","category":"보건위생 - 화장품"}]},{"lat":"37.35230901","long":"126.95692289","items":[{"name":"제일특수기술","tel":"031-456-6474","addr":"경기도 군포시 당정동 415-2","category":"기타 - 기계공구"}]},{"lat":"37.343088597","long":"126.94972854","items":[{"name":"젠틀맨더커피","tel":"031-429-1986","addr":"경기도 군포시 당정동 1015-5번지 아르떼하우스 1층 101호","category":"일반휴게음식 - 서양음식"}]},{"lat":"37.346035053","long":"126.95001989","items":[{"name":"젤코바","tel":"031-427-5359","addr":"경기도 군포시 당정동 1001-1번지 한솔솔파크아파트","category":"일반휴게음식 - 서양음식"},{"name":"쥬엑스(ZOOX)엔터프라이즈","tel":"070-8621-2004","addr":"경기도 군포시 당정동 1001-1번지 한솔솔파크아파트","category":"문화.취미 - 애완동물"}]},{"lat":"37.365723907","long":"126.95390065","items":[{"name":"조은에어컨","tel":"","addr":"경기도 군포시 당정동 233-6번지 4층","category":"용역 서비스 - 기타용역서비스"}]},{"lat":"37.354947517","long":"126.95328687","items":[{"name":"주식회사 그린플로우","tel":"231-459-0674","addr":"경기도 군포시 당정동 325번지","category":"기타 - 기계공구"}]},{"lat":"37.359085661","long":"126.9596165","items":[{"name":"주식회사 다이아몬드쏠트","tel":"070-8807-2187","addr":"경기도 군포시 당정동 78번지","category":"보건위생 - 의료용품"}]},{"lat":"37.358227442","long":"126.9538378","items":[{"name":"주식회사 대영씨앤티","tel":"031-458-1425","addr":"경기도 군포시 당정동 181-29번지","category":"서적문구 - 과학기자재"}]},{"lat":"37.357813341","long":"126.95472977","items":[{"name":"주식회사 디피코","tel":"031-688-1500","addr":"경기도 군포시 당정동 181-33번지","category":"학원 - 기능학원"},{"name":"티앤푸드","tel":"031-410-0329","addr":"경기도 군포시 당정동 181-33번지 301호","category":"일반휴게음식 - 일반한식"}]},{"lat":"37.364363488","long":"126.95417246","items":[{"name":"주식회사 볼테크","tel":"031-451-2833","addr":"경기도 군포시 당정동 231-36번지","category":"기타 - 기계공구"}]},{"lat":"37.354091792","long":"126.95386306","items":[{"name":"주식회사 비엠코리아","tel":"031-451-9294","addr":"경기도 군포시 당정동 325-26번지","category":"보건위생 - 의료용품"}]},{"lat":"37.357840005","long":"126.95383805","items":[{"name":"주식회사 빌리엔젤","tel":"02-512-6257","addr":"경기도 군포시 당정동 181-36번지 두림빌딩 4층","category":"음료식품 - 기타음료식품"},{"name":"주식회사빌리엔젤","tel":"02-722-3663","addr":"경기도 군포시 당정동 181-36번지 두림빌딩 4층","category":"일반휴게음식 - 서양음식"}]},{"lat":"37.352445775","long":"126.96127945","items":[{"name":"주식회사 삼화열처리","tel":"031-453-1378","addr":"경기도 군포시 당정동 379번지","category":"기타 - 기계공구"}]},{"lat":"37.354587355","long":"126.95387403","items":[{"name":"주식회사 성균관코스메틱","tel":"031-454-0951","addr":"경기도 군포시 당정동 327-17번지","category":"보건위생 - 화장품"},{"name":"주식회사반도상사","tel":"031-478-2500","addr":"경기도 군포시 당정동 327-17번지","category":"전기제품 - 기타전기제품"}]},{"lat":"37.354640972","long":"126.95281302","items":[{"name":"주식회사 소프트다이아","tel":"031-429-2890","addr":"경기도 군포시 당정동 322-1번지 1층","category":"기타 - 기계공구"}]},{"lat":"37.346702667","long":"126.95198314","items":[{"name":"주식회사 소프트로","tel":"031-000-0000","addr":"경기도 군포시 당정동 995-2번지 나동 501호","category":"용역 서비스 - 소프트웨어"}]},{"lat":"37.351173425","long":"126.95614482","items":[{"name":"주식회사 엔텍스","tel":"031-429-9991","addr":"경기도 군포시 당정동 424번지 1층","category":"건축자재 - 목재·석재·철물"}]},{"lat":"37.364831715","long":"126.95344969","items":[{"name":"주식회사 엘케이글로벌","tel":"070-8839-3133","addr":"경기도 군포시 당정동 231-25번지 나동","category":"의류 - 정장"}]},{"lat":"37.359614938","long":"126.95367887","items":[{"name":"주식회사 우림코리아","tel":"031-455-0018","addr":"경기도 군포시 당정동 281-3번지","category":"회원제형태 - 기타4"},{"name":"하비존(HOBBYZONE)","tel":"070-8727-6651","addr":"경기도 군포시 당정동 281-3번지 2층","category":"서적문구 - 완구점"}]},{"lat":"37.359669737","long":"126.95548486","items":[{"name":"주식회사 우성글라스텍","tel":"031-455-6300","addr":"경기도 군포시 당정동 174-8번지 나동","category":"건축자재 - 유리"}]},{"lat":"37.351389304","long":"126.95523048","items":[{"name":"주식회사 유엠","tel":"031-451-1104","addr":"경기도 군포시 당정동 462번지","category":"기타 - 기계공구"}]},{"lat":"37.352056974","long":"126.95756638","items":[{"name":"주식회사 지디에스","tel":"031-429-0132","addr":"경기도 군포시 당정동 413-10번지 4층","category":"약국 - 제약회사"}]},{"lat":"37.365282283","long":"126.95359615","items":[{"name":"주식회사고려아이텍","tel":"031-477-4500","addr":"경기도 군포시 당정동 231-24","category":"보건위생 - 안경"}]},{"lat":"37.341889908","long":"126.94898457","items":[{"name":"주식회사대림이앤씨","tel":"031-1877-5804","addr":"경기도 군포시 당정동 1017-11번지","category":"용역 서비스 - 기타용역서비스"}]},{"lat":"37.351669117","long":"126.95648311","items":[{"name":"주식회사대영씨앤티/원격지","tel":"031-458-1425","addr":"경기도 군포시 당정동 419-1번지","category":"기타 - 기타 전문점"}]},{"lat":"37.355281006","long":"126.95355754","items":[{"name":"주식회사더블유에스에이","tel":"031-426-8536","addr":"경기도 군포시 당정동 327-20번지 (주)WSA","category":"건축자재 - 보일러·펌프·샷시"}]},{"lat":"37.354364556","long":"126.96020613","items":[{"name":"주식회사디앤디테크놀로지/원격지","tel":"031-445-2340","addr":"경기도 군포시 당정동 110-3번지 3층","category":"기타 - 기타 전문점"},{"name":"청산화장품","tel":"031-457-5604","addr":"경기도 군포시 당정동 110-3번지","category":"보건위생 - 화장품"}]},{"lat":"37.352562166","long":"126.95922521","items":[{"name":"주식회사리모템/원격지","tel":"031-381-2435","addr":"경기도 군포시 당정동 366-9번지 202호","category":"기타 - 기타 전문점"}]},{"lat":"37.365110797","long":"126.95289637","items":[{"name":"주식회사부여레이져","tel":"031-458-5755","addr":"경기도 군포시 당정동 236-9번지","category":"건축자재 - 기타건축자재"}]},{"lat":"37.364779335","long":"126.95764904","items":[{"name":"주식회사삼손종합정비","tel":"031-455-8222","addr":"경기도 군포시 당정동 11-1번지","category":"자동차정비 유지 - 자동차부품"}]},{"lat":"37.356200992","long":"126.95589338","items":[{"name":"주식회사샤인엔프라","tel":"031-457-0527","addr":"경기도 군포시 당정동 339-9번지 지층","category":"기타 - 기계공구"}]},{"lat":"37.359002164","long":"126.95347609","items":[{"name":"주식회사신성산업","tel":"031-456-0426","addr":"경기도 군포시 당정동 181-16번지","category":"건축자재 - 기타건축자재"}]},{"lat":"37.364642327","long":"126.95303214","items":[{"name":"주식회사아주비철","tel":"031-427-1034","addr":"경기도 군포시 당정동 236-4번지","category":"건축자재 - 기타건축자재"}]},{"lat":"37.347757628","long":"126.95381075","items":[{"name":"주식회사영진코퍼레이션","tel":"031-308-4226","addr":"경기도 군포시 당정동 965-2번지 남원빌딩 2층","category":"서적문구 - 과학기자재"},{"name":"주식회사영진코퍼레이션/원격지","tel":"031-457-9187","addr":"경기도 군포시 당정동 965-2번지 남원빌딩 2층","category":"기타 - 기타 전문점"}]},{"lat":"37.3486956","long":"126.95606735","items":[{"name":"주식회사오성유통","tel":"031-426-1811","addr":"경기도 군포시 당정동 975-3번지 골든빌","category":"유통업 영리 - 편 의 점"}]},{"lat":"37.354253688","long":"126.95317446","items":[{"name":"주식회사코아전기","tel":"031-453-3088","addr":"경기도 군포시 당정동 324-14번지","category":"전기제품 - 기타전기제품"},{"name":"주식회사코아전기/원격지","tel":"031-453-3088","addr":"경기도 군포시 당정동 324-14번지","category":"기타 - 기타 전문점"}]},{"lat":"37.347532855","long":"126.95498463","items":[{"name":"주식회사티투엘","tel":"031-429-0767","addr":"경기도 군포시 당정동 35블럭9롯트보흥빌딩402","category":"전기제품 - 기타전기제품"},{"name":"주식회사티투엘/원격지","tel":"031-429-0767","addr":"경기도 군포시 당정동 35블럭9롯트보흥빌딩402","category":"기타 - 기타 전문점"}]},{"lat":"37.353614118","long":"126.95353605","items":[{"name":"주식회사파우미","tel":"031-479-0303","addr":"경기도 군포시 당정동 324-7번지 1층","category":"건축자재 - 페인트"}]},{"lat":"37.357723477","long":"126.95531678","items":[{"name":"주식회사퍼슨메디칼","tel":"031-459-7152","addr":"경기도 군포시 당정동 181-49번지","category":"보건위생 - 의료용품"}]},{"lat":"37.357527345","long":"126.96083643","items":[{"name":"주식회사한성GT","tel":"031-428-8200","addr":"경기도 군포시 당정동 91-10번지 한성상사(주)","category":"기타 - 기계공구"},{"name":"한성","tel":"031-428-8241","addr":"경기도 군포시 당정동 91-10번지","category":"기타 - 기타 전문점"},{"name":"한성/원격지","tel":"031-428-8210","addr":"경기도 군포시 당정동 91-10번지","category":"기타 - 기타 전문점"}]},{"lat":"37.354229662","long":"126.96092857","items":[{"name":"진미각","tel":"031-453-4037","addr":"경기도 군포시 당정동 108-12 1층","category":"일반휴게음식 - 중국식"}]},{"lat":"37.348729051","long":"126.94992771","items":[{"name":"진미슈퍼","tel":"031-452-6481","addr":"경기도 군포시 당정동 630-1번지","category":"유통업 영리 - 슈퍼마켓"}]},{"lat":"37.348864138","long":"126.9497809","items":[{"name":"진성","tel":"031-427-5001","addr":"경기도 군포시 당정동 631번지","category":"건축자재 - 기타건축자재"}]},{"lat":"37.349921296","long":"126.95686792","items":[{"name":"집밥셀프식당","tel":"031-429-9510","addr":"경기도 군포시 당정동 437-7번지 2층","category":"일반휴게음식 - 일반한식"},{"name":"하영종합상사","tel":"031-477-3507","addr":"경기도 군포시 당정동 437-7","category":"유통업 영리 - 기타유통업"},{"name":"한세마트","tel":"031-455-0708","addr":"경기도 군포시 당정동 437-7번지 1층","category":"유통업 영리 - 슈퍼마켓"}]},{"lat":"37.354563201","long":"126.96139115","items":[{"name":"청계상공사","tel":"031-429-5978","addr":"경기도 군포시 당정동 103-2번지","category":"기타 - 기타 전문점"}]},{"lat":"37.341980009","long":"126.9489845","items":[{"name":"초록환경개발","tel":"031-427-0181","addr":"경기도 군포시 당정동 1017-10번지","category":"용역 서비스 - 종합용역"}]},{"lat":"37.353751448","long":"126.95906651","items":[{"name":"카나인자동차공업사","tel":"031-456-6400","addr":"경기도 군포시 당정동 122번지","category":"자동차정비 유지 - 자동차정비"}]},{"lat":"37.347694854","long":"126.95453309","items":[{"name":"카페샵","tel":"031-226-4025","addr":"경기도 군포시 당정동 968-4번지 그린빌 101호","category":"일반휴게음식 - 서양음식"},{"name":"토리키즈","tel":"","addr":"경기도 군포시 당정동 968-4번지 그린빌 404호","category":"학원 - 기타 교육기관"}]},{"lat":"37.347200631","long":"126.95791916","items":[{"name":"카프로샵","tel":"031-427-5788","addr":"경기도 군포시 당정동 986-8번지","category":"자동차정비 유지 - 자동차정비"}]},{"lat":"37.344594098","long":"126.95154443","items":[{"name":"케이케어","tel":"070-8744-8864","addr":"경기도 군포시 당정동 998-2번지 당정동동도센트리움 102동 1406호","category":"보건위생 - 화장품"}]},{"lat":"37.345173176","long":"126.95748023","items":[{"name":"케피코늘푸른어린이집[아이행복]","tel":"031-452-5054","addr":"경기도 군포시 당정동 989-5번지","category":"학원 - 유아원"}]},{"lat":"37.348587344","long":"126.95572884","items":[{"name":"크린토피아군포당정엘지점","tel":"031-456-5680","addr":"경기도 군포시 당정동 975-5번지 태영프라자 109호 외1필지","category":"수리서비스 - 세탁소"}]},{"lat":"37.344370943","long":"126.95663431","items":[{"name":"클라라음악라보떼","tel":"031-477-8859","addr":"경기도 군포시 당정동 973-1번지 당정마을엘지아파트","category":"학원 - 기타 교육기관"}]},{"lat":"37.341196124","long":"126.94898506","items":[{"name":"키즈랜드어린이집[아이행복]","tel":"031-472-1908","addr":"경기도 군포시 당정동 1018-7번지","category":"학원 - 유아원"}]},{"lat":"37.356201277","long":"126.95661576","items":[{"name":"태산상사","tel":"031-455-5545","addr":"경기도 군포시 당정동 169번지","category":"유통업 영리 - 기타유통업"}]},{"lat":"37.345586596","long":"126.95482787","items":[{"name":"태양어린이집[아이행복]","tel":"031-346-1346","addr":"경기도 군포시 당정동 973-1번지 당정마을엘지아파트","category":"학원 - 유아원"}]},{"lat":"37.350306852","long":"126.95226287","items":[{"name":"태영도서","tel":"031-458-8303","addr":"경기도 군포시 당정동 508-10번지 지층","category":"회원제형태 - 서적"}]},{"lat":"37.356507635","long":"126.95664944","items":[{"name":"태영와이어","tel":"031-459-0901","addr":"경기도 군포시 당정동 150-19번지 1층","category":"기타 - 기타 전문점"},{"name":"행복식당","tel":"031-455-9333","addr":"경기도 군포시 당정동 150-19번지","category":"일반휴게음식 - 일반한식"},{"name":"행복식당","tel":"031-455-9333","addr":"경기도 군포시 당정동 150-19번지 3층","category":"일반휴게음식 - 일반한식"}]},{"lat":"37.350146245","long":"126.95608903","items":[{"name":"태현우드","tel":"031-451-7968","addr":"경기도 군포시 당정동 437-8번지 1층","category":"건축자재 - 목재·석재·철물"}]},{"lat":"37.358589878","long":"126.95900726","items":[{"name":"테림정공","tel":"","addr":"경기도 군포시 당정동 59-26번지","category":"기타 - 기타 전문점"}]},{"lat":"37.354281418","long":"126.95486747","items":[{"name":"토농이","tel":"031-427-7434","addr":"경기도 군포시 당정동 343-13번지 2층","category":"음료식품 - 기타음료식품"}]},{"lat":"37.34164654","long":"126.94878161","items":[{"name":"티센크루프엘리베이터코리아(주)경기","tel":"031-459-8415","addr":"경기도 군포시 당정동 1018-1번지 네이처빌 2층","category":"용역 서비스 - 기타용역서비스"}]},{"lat":"37.35353482","long":"126.95803954","items":[{"name":"티앤씨일렉트로닉스주식회사","tel":"031-427-1975","addr":"경기도 군포시 당정동 364-8번지 (1층일부,2층,3층,4층)","category":"음료식품 - 기타음료식품"}]},{"lat":"37.347091746","long":"126.95595549","items":[{"name":"파리바게뜨군포당정점","tel":"031-427-8246","addr":"경기도 군포시 당정동 980-2번지 1층","category":"음료식품 - 제과점"}]},{"lat":"37.354586758","long":"126.95245187","items":[{"name":"파크애드","tel":"031-427-6606","addr":"경기도 군포시 당정동 321-7번지 1층","category":"건축자재 - 인테리어전문"}]},{"lat":"37.354452688","long":"126.95505924","items":[{"name":"풍미식당","tel":"031-458-6915","addr":"경기도 군포시 당정동 343-11번지 2층","category":"일반휴게음식 - 일반한식"}]},{"lat":"37.347756493","long":"126.95114727","items":[{"name":"한국강화프라스틱","tel":"031-452-5575","addr":"경기도 군포시 당정동 627-1번지","category":"기타 - 기타 전문점"}]},{"lat":"37.34947956","long":"126.95625873","items":[{"name":"한라나이스테크","tel":"031-455-3184","addr":"경기도 군포시 당정동 438외2필지","category":"기타 - 기계공구"}]},{"lat":"37.357418964","long":"126.9601141","items":[{"name":"한라정밀주식회사","tel":"031-452-9104","addr":"경기도 군포시 당정동 91-8번지","category":"전기제품 - 기타전기제품"}]},{"lat":"37.348116716","long":"126.95072944","items":[{"name":"한솔데이타(주)","tel":"031-427-0377","addr":"경기도 군포시 당정동 630-9번지","category":"사무통신 - 컴퓨터"}]},{"lat":"37.352083659","long":"126.95667472","items":[{"name":"한신기계","tel":"031-452-9504","addr":"경기도 군포시 당정동 415-6번지","category":"기타 - 기타 전문점"}]},{"lat":"37.353533349","long":"126.9543149","items":[{"name":"한진시험사출","tel":"031-857-6284","addr":"경기도 군포시 당정동 325-39번지","category":"기타 - 기타 전문점"}]},{"lat":"37.347947217","long":"126.95472479","items":[{"name":"할매냉면","tel":"031-454-6663","addr":"경기도 군포시 당정동 970-2번지 1층","category":"일반휴게음식 - 일반한식"}]},{"lat":"37.35447176","long":"126.95773423","items":[{"name":"해피마트","tel":"02-2201-6373","addr":"경기도 군포시 당정동 126-13번지","category":"유통업 영리 - 슈퍼마켓"}]},{"lat":"37.349695584","long":"126.95570557","items":[{"name":"핸섬가이","tel":"031-427-7853","addr":"경기도 군포시 당정동 448-11번지 102호","category":"보건위생 - 미용원"}]},{"lat":"37.343612411","long":"126.95252692","items":[{"name":"행복가득한어린이집[아이행복]","tel":"031-427-0527","addr":"경기도 군포시 당정동 997-1번지 청천마을성원아파트","category":"학원 - 유아원"}]},{"lat":"37.34600181","long":"126.95670102","items":[{"name":"현대카손세차장","tel":"031-477-9887","addr":"경기도 군포시 당정동 988-3번지","category":"자동차정비 유지 - 세차장"}]},{"lat":"37.354535995","long":"126.96089454","items":[{"name":"현대페인트","tel":"031-455-4343","addr":"경기도 군포시 당정동 108-9번지 1층","category":"건축자재 - 페인트"}]},{"lat":"37.365228288","long":"126.95375422","items":[{"name":"화성공업","tel":"031-458-1727","addr":"경기도 군포시 당정동 231-40번지","category":"기타 - 기타 전문점"}]},{"lat":"37.364777341","long":"126.95270469","items":[{"name":"휠고남","tel":"031-0000-0000","addr":"경기도 군포시 당정동 236-6번지 1층","category":"자동차정비 유지 - 자동차시트·타이어"}]},{"lat":"37.354091223","long":"126.95250864","items":[{"name":"희성전자","tel":"031-455-4701","addr":"경기도 군포시 당정동 321-2","category":"전기제품 - 기타전기제품"}]},{"lat":"37.3636986707","long":"126.9591171667","items":[{"name":"애니카랜드 의왕점","tel":"031-456-0842","addr":"경기도 군포시 당정동 13번지","category":"자동차정비 유지 - 자동차정비"}]}]