[{"lat":"37.411727182","long":"127.4513241","items":[{"name":"SOOM (숨)","tel":"031-000-0000","addr":"경기도 여주시 산북면 명품리 90-2번지 1층","category":"일반휴게음식 - 서양음식"}]},{"lat":"37.406730388","long":"127.44554533","items":[{"name":"광수네밥상","tel":"031-883-3792","addr":"경기도 여주시 산북면 명품리 185-2번지","category":"일반휴게음식 - 일반한식"}]},{"lat":"37.406669728","long":"127.44490117","items":[{"name":"그때그집","tel":"031-881-2951","addr":"경기도 여주시 산북면 명품리 184-1번지","category":"일반휴게음식 - 일반한식"}]},{"lat":"37.408316156","long":"127.44554336","items":[{"name":"농업회사법인 주식회사 품실안","tel":"","addr":"경기도 여주시 산북면 명품리 246-1번지 1층","category":"음료식품 - 기타음료식품"},{"name":"품실안 밥상/품실영농조합법인","tel":"070-7716-9290","addr":"경기도 여주시 산북면 명품리 246-1번지 1층","category":"일반휴게음식 - 일반한식"},{"name":"품실안 찻집/품실영농조합법인","tel":"031-7716-9290","addr":"경기도 여주시 산북면 명품리 246-1번지 1층","category":"일반휴게음식 - 서양음식"}]},{"lat":"37.410561255","long":"127.44990524","items":[{"name":"동부타일도기","tel":"031-884-9532","addr":"경기도 여주시 산북면 명품리 119-5번지 1층","category":"건축자재 - 건축용 요업제품"},{"name":"양평해장국(양자산점)","tel":"031-883-2553","addr":"경기도 여주시 산북면 명품리 119-5번지","category":"일반휴게음식 - 일반한식"}]},{"lat":"37.417223755","long":"127.44881521","items":[{"name":"명품농원","tel":"02-453-2814","addr":"경기도 여주시 산북면 명품리 68번지 1층","category":"학원 - 기타 교육기관"}]},{"lat":"37.415785447","long":"127.45270382","items":[{"name":"품실안상회/품실영농조합법인","tel":"070-7716-9290","addr":"경기도 여주시 산북면 명품리 246-1번지","category":"음료식품 - 농·축·수산품"}]},{"lat":"37.412335715","long":"127.45004004","items":[{"name":"하나영농조합법인","tel":"000-0000-0000","addr":"경기도 여주시 산북면 명품리 93-5번지","category":"음료식품 - 농·축·수산품"}]}]