[{"lat":"37.034854045","long":"127.22488361","imageIndex":17,"items":[{"name":"(주)한얼","tel":"031-674-0541","addr":"경기도 안성시 대덕면 소내리 184-17번지","indutype":"농업 - 비료,사료,종자","category":"other"}]},{"lat":"37.033159563","long":"127.2299026","imageIndex":17,"items":[{"name":"SKDIAMOND","tel":"031-674-4086","addr":"경기도 안성시 대덕면 소내리 141-4번지","indutype":"기타 - 기계공구","category":"other"}]},{"lat":"37.034712057","long":"127.2237143","imageIndex":17,"items":[{"name":"대동아세아대리점","tel":"031-673-0242","addr":"경기도 안성시 대덕면 소내리 383-2번지","indutype":"농업 - 농기계","category":"other"}]},{"lat":"37.039549268","long":"127.22451512","imageIndex":17,"items":[{"name":"대성유통","tel":"031-674-8051","addr":"경기도 안성시 대덕면 소내리 245번지","indutype":"기타 - 기타 전문점","category":"other"},{"name":"대성유통","tel":"031-674-8051","addr":"경기도 안성시 대덕면 소내리 245번지","indutype":"기타 - 기타 전문점","category":"other"}]},{"lat":"37.037574946","long":"127.22018204","imageIndex":17,"items":[{"name":"리앤이필터(주)","tel":"031-673-0218","addr":"경기도 안성시 대덕면 소내리 324-2","indutype":"기타 - 기계공구","category":"other"},{"name":"주식회사우정공조냉열/원격지","tel":"031-427-9696","addr":"경기도 안성시 대덕면 소내리 324-2번지 2층","indutype":"기타 - 기타 전문점","category":"other"}]},{"lat":"37.042271712","long":"127.21895897","imageIndex":17,"items":[{"name":"새빛공조","tel":"031-677-3061","addr":"경기도 안성시 대덕면 소내리 297-1번지","indutype":"전기제품 - 냉열기기","category":"other"}]},{"lat":"37.034329197","long":"127.22607346","imageIndex":17,"items":[{"name":"세븐일레븐안성소내리점","tel":"","addr":"경기도 안성시 대덕면 소내리 185-1","indutype":"유통업 영리 - 편 의 점","category":"other"},{"name":"이마트24 안성소내리점","tel":"031-000-0000","addr":"경기도 안성시 대덕면 소내리 185-1번지","indutype":"유통업 영리 - 편 의 점","category":"other"},{"name":"이마트24 안성소리내점","tel":"031-000-0000","addr":"경기도 안성시 대덕면 소내리 185-1번지","indutype":"유통업 영리 - 편 의 점","category":"other"}]},{"lat":"37.030821741","long":"127.23201978","imageIndex":17,"items":[{"name":"주식회사대건산업","tel":"031-672-9780","addr":"경기도 안성시 대덕면 소내리 134-11","indutype":"건축자재 - 기타건축자재","category":"other"}]},{"lat":"37.038740726","long":"127.22801965","imageIndex":17,"items":[{"name":"주식회사아이벤처","tel":"031-673-4271","addr":"경기도 안성시 대덕면 소내리 97","indutype":"건축자재 - 인테리어전문","category":"other"}]},{"lat":"37.035349795","long":"127.22479514","imageIndex":17,"items":[{"name":"한결Plan","tel":"070-4012-3705","addr":"경기도 안성시 대덕면 소내리 195-7번지","indutype":"건축자재 - 인테리어전문","category":"other"}]},{"lat":"37.033212667","long":"127.22565434","imageIndex":0,"items":[{"name":"SM물류기계","tel":"031-671-4877","addr":"경기도 안성시 대덕면 소내리 169번지","indutype":"자동차판매 - 기타운송","category":"car"}]},{"lat":"37.035800263","long":"127.22959575","imageIndex":7,"items":[{"name":"그라비올라앤네이처주식회사","tel":"031-677-7480","addr":"경기도 안성시 대덕면 소내리 156-2번지 가동","indutype":"음료식품 - 기타음료식품","category":"food"}]},{"lat":"37.039549268","long":"127.22451512","imageIndex":7,"items":[{"name":"대성유통","tel":"031-674-8051","addr":"경기도 안성시 대덕면 소내리 245번지","indutype":"음료식품 - 기타음료식품","category":"food"}]},{"lat":"37.03665794","long":"127.21904422","imageIndex":7,"items":[{"name":"안성인삼협동조합 인삼가공공장","tel":"031-677-9353","addr":"경기도 안성시 대덕면 소내리 336번지","indutype":"건강식품 - 홍삼제품","category":"food"},{"name":"안성인삼협동조합인삼가공공장","tel":"031-677-9353","addr":"경기도 안성시 대덕면 소내리 336번지","indutype":"건강식품 - 인삼제품","category":"food"}]},{"lat":"37.035300163","long":"127.22241222","imageIndex":7,"items":[{"name":"태경F&B","tel":"","addr":"경기도 안성시 대덕면 소내리 375-1번지","indutype":"음료식품 - 기타음료식품","category":"food"}]},{"lat":"37.04055048","long":"127.23343156","imageIndex":16,"items":[{"name":"농업회사법인주식회사유별난마을밀","tel":"031-672-8600","addr":"경기도 안성시 대덕면 소내리 64번지","indutype":"학원 - 기타 교육기관","category":"study"}]},{"lat":"37.042432127","long":"127.2295705","imageIndex":4,"items":[{"name":"도토리 서말","tel":"031-673-5933","addr":"경기도 안성시 대덕면 소내리 7,8","indutype":"일반휴게음식 - 일반한식","category":"restaurant"}]},{"lat":"37.037351099","long":"127.21940586","imageIndex":4,"items":[{"name":"밥이랑국이랑","tel":"031-674-0789","addr":"경기도 안성시 대덕면 소내리 333-7","indutype":"일반휴게음식 - 일반한식","category":"restaurant"}]},{"lat":"37.041884175","long":"127.22868088","imageIndex":4,"items":[{"name":"샛골손두부","tel":"031-673-4776","addr":"경기도 안성시 대덕면 소내리 19번지","indutype":"일반휴게음식 - 일반한식","category":"restaurant"}]},{"lat":"37.039905315","long":"127.22202083","imageIndex":4,"items":[{"name":"소사골","tel":"031-677-0334","addr":"경기도 안성시 대덕면 소내리 237번지","indutype":"일반휴게음식 - 일반한식","category":"restaurant"}]},{"lat":"37.034329197","long":"127.22607346","imageIndex":9,"items":[{"name":"성신주유소","tel":"031-674-7730","addr":"경기도 안성시 대덕면 소내리 185-1","indutype":"연료판매점 - SK주유소","category":"oil"}]}]