[{"lat":"37.170497189","long":"126.89734657","items":[{"name":"(주) 한국프라스틱","tel":"031-366-2595","addr":"경기도 화성시 팔탄면 구장리 35-10번지","category":"유통업 영리 - 기타유통업"}]},{"lat":"37.169053269","long":"126.89484902","items":[{"name":"(주)경기에프앤에스","tel":"031-8059-3911","addr":"경기도 화성시 팔탄면 구장리 38-36번지 130호","category":"기타 - 기계공구"},{"name":"스타이용원","tel":"031-352-1601","addr":"경기도 화성시 팔탄면 구장리 38-36번지","category":"보건위생 - 이용원"}]},{"lat":"37.164384201","long":"126.89304303","items":[{"name":"(주)더원세이프폴딩도어","tel":"031-353-4466","addr":"경기도 화성시 팔탄면 구장리 127-89번지 2동 1,2층","category":"건축자재 - 기타건축자재"},{"name":"재활용센타캡씨(KFCC)","tel":"031-354-7284","addr":"경기도 화성시 팔탄면 구장리 127-89","category":"신변잡화 - 기타잡화"}]},{"lat":"37.172215422","long":"126.89429279","items":[{"name":"(주)미성유리","tel":"031-8059-2083","addr":"경기도 화성시 팔탄면 구장리 2-27번지","category":"건축자재 - 유리"}]},{"lat":"37.154634743","long":"126.9144007","items":[{"name":"(주)범호","tel":"031-8059-5919","addr":"경기도 화성시 팔탄면 구장리 953","category":"기타 - 기계공구"}]},{"lat":"37.16114044","long":"126.90323632","items":[{"name":"(주)요리에 지혜를 담다","tel":"070-8236-5296","addr":"경기도 화성시 팔탄면 구장리 530-1번지","category":"학원 - 기타 교육기관"},{"name":"호기심연구소협동조합","tel":"031-000-0000","addr":"경기도 화성시 팔탄면 구장리 530-1번지","category":"서적문구 - 기타서적문구"},{"name":"화성시리더연합협동조합","tel":"031-221-8886","addr":"경기도 화성시 팔탄면 구장리 530-1번지","category":"용역 서비스 - 사무서비스"},{"name":"화성지역자활센터토리빈","tel":"031-8047-0333","addr":"경기도 화성시 팔탄면 구장리 530-1번지 다동 1층","category":"일반휴게음식 - 서양음식"}]},{"lat":"37.159081063","long":"126.89746377","items":[{"name":"(주)일호아이씨에스","tel":"031-352-6421","addr":"경기도 화성시 팔탄면 구장리 176번지","category":"전기제품 - 기타전기제품"}]},{"lat":"37.167692144","long":"126.90456755","items":[{"name":"(주)청량종합목재","tel":"070-4411-1664","addr":"경기도 화성시 팔탄면 구장리 613-13","category":"건축자재 - 기타건축자재"}]},{"lat":"37.159024628","long":"126.89482952","items":[{"name":"(주)케이원","tel":"031-356-8055","addr":"경기도 화성시 팔탄면 구장리 170-8번지","category":"기타 - 기계공구"}]},{"lat":"37.155141619","long":"126.89537539","items":[{"name":"(주)탑레인지코리아","tel":"070-4820-1440","addr":"경기도 화성시 팔탄면 구장리 212-2번지 장안환경","category":"레져용품 - 골프용품 전문점"}]},{"lat":"37.170277291","long":"126.89332725","items":[{"name":"(주)태양엠알오","tel":"031-1899-0942","addr":"경기도 화성시 팔탄면 구장리 2-3번지","category":"기타 - 기계공구"},{"name":"대영특수강정밀","tel":"031-8059-8120","addr":"경기도 화성시 팔탄면 구장리 2-3번지","category":"기타 - 기계공구"}]},{"lat":"37.16866302","long":"126.89182084","items":[{"name":"(주)태진이앤티","tel":"031-353-0874","addr":"경기도 화성시 팔탄면 구장리 127-81번지 우리들유통타운 110호","category":"기타 - 기계공구"}]},{"lat":"37.169827764","long":"126.8944088","items":[{"name":"(주)한맥","tel":"031-354-7696","addr":"경기도 화성시 팔탄면 구장리 38-28번지 105호 율암실업","category":"기타 - 기계공구"},{"name":"노루페인트 화성점","tel":"031-366-3950","addr":"경기도 화성시 팔탄면 구장리 38-28번지 105호","category":"건축자재 - 페인트"}]},{"lat":"37.169390359","long":"126.89899198","items":[{"name":"1004번길 빵집","tel":"031-8059-1378","addr":"경기도 화성시 팔탄면 구장리 90번지 101동 1층 1호","category":"음료식품 - 제과점"}]},{"lat":"37.167967606","long":"126.90001851","items":[{"name":"A-TECH(에이텍)","tel":"031-355-9226","addr":"경기도 화성시 팔탄면 구장리 106-8번지","category":"기타 - 기계공구"}]},{"lat":"37.167664797","long":"126.89390523","items":[{"name":"G mart","tel":"031-366-2685","addr":"경기도 화성시 팔탄면 구장리 127-38번지 1층","category":"유통업 영리 - 슈퍼마켓"},{"name":"교류전기","tel":"031-354-2541","addr":"경기도 화성시 팔탄면 구장리 127-38번지","category":"전기제품 - 기타전기제품"},{"name":"화승산업","tel":"031-352-4180","addr":"경기도 화성시 팔탄면 구장리 127-38번지","category":"기타 - 기타 전문점"}]},{"lat":"37.171330474","long":"126.89221102","items":[{"name":"GS25구장사거리점","tel":"","addr":"경기도 화성시 팔탄면 구장리 3-1번지 L층 5호","category":"유통업 영리 - 편 의 점"},{"name":"골프존파크","tel":"031-366-3120","addr":"경기도 화성시 팔탄면 구장리 3-1번지 DCT-MALL 101호","category":"레저업소 - 스크린골프"},{"name":"디씨티 커피 (DCT COFFEE)","tel":"031-111-1111","addr":"경기도 화성시 팔탄면 구장리 3-1번지 로비층 1호","category":"일반휴게음식 - 서양음식"},{"name":"서촌숯불직화구이","tel":"031-354-4000","addr":"경기도 화성시 팔탄면 구장리 3-1번지 로비층 6호","category":"일반휴게음식 - 일반한식"},{"name":"한방전주콩나물국밥/주식회사 드림즈컴트루","tel":"031-366-2206","addr":"경기도 화성시 팔탄면 구장리 3-1번지 로비층 1호,2호,3호,9호 (DCT-MALL)","category":"일반휴게음식 - 일반한식"}]},{"lat":"37.160522772","long":"126.90817941","items":[{"name":"GS25팔탄구장점","tel":"","addr":"경기도 화성시 팔탄면 구장리 825-17번지 외4필지 명성로즈빌1동 103호,104호","category":"유통업 영리 - 편 의 점"}]},{"lat":"37.160855743","long":"126.90766112","items":[{"name":"GS25화성구장점","tel":"","addr":"경기도 화성시 팔탄면 구장리 811-23번지 명성로즈빌 1층","category":"유통업 영리 - 편 의 점"}]},{"lat":"37.163414066","long":"126.89632064","items":[{"name":"HK산업기계","tel":"031-366-3360","addr":"경기도 화성시 팔탄면 구장리 124","category":"기타 - 기계공구"},{"name":"세기유체","tel":"031-353-3066","addr":"경기도 화성시 팔탄면 구장리 124","category":"기타 - 기계공구"}]},{"lat":"37.169134033","long":"126.89448861","items":[{"name":"LK호이스트화성센타","tel":"031-353-7754","addr":"경기도 화성시 팔탄면 구장리 38-33","category":"기타 - 기타 전문점"},{"name":"알뜰종합광고","tel":"031-366-1140","addr":"경기도 화성시 팔탄면 구장리 38-33번지 동화프라자 108호","category":"용역 서비스 - 종합용역"},{"name":"윌로이엔지","tel":"031-353-9222","addr":"경기도 화성시 팔탄면 구장리 38-33번지 107호","category":"기타 - 기계공구"}]},{"lat":"37.16844737","long":"126.89246293","items":[{"name":"S.R쎄니타리","tel":"031-354-0512","addr":"경기도 화성시 팔탄면 구장리 127-83번지 우리들유통상가 B동 102호","category":"건축자재 - 기타건축자재"},{"name":"동인볼트","tel":"031-352-3005","addr":"경기도 화성시 팔탄면 구장리 127-83번지 B동106,111호","category":"기타 - 기계공구"},{"name":"유신조각","tel":"031-8059-3068","addr":"경기도 화성시 팔탄면 구장리 127-83번지 우리들유통타운 B동 112호","category":"신변잡화 - 기타잡화"},{"name":"태양볼트","tel":"031-366-4291","addr":"경기도 화성시 팔탄면 구장리 127-83번지 우리들유통타운 B동 101호","category":"기타 - 기계공구"}]},{"lat":"37.167306155","long":"126.89585356","items":[{"name":"SBS당구장","tel":"070-8947-4490","addr":"경기도 화성시 팔탄면 구장리 23-6번지 2층","category":"레저업소 - 당 구 장"},{"name":"신촌설렁탕","tel":"031-366-0760","addr":"경기도 화성시 팔탄면 구장리 23-6번지","category":"일반휴게음식 - 일반한식"},{"name":"오피스디포화성서부점","tel":"031-8059-4388","addr":"경기도 화성시 팔탄면 구장리 23-6","category":"서적문구 - 문구용품"}]},{"lat":"37.168026357","long":"126.89515448","items":[{"name":"S노래연습장","tel":"031-366-2923","addr":"경기도 화성시 팔탄면 구장리 23-1번지 2층","category":"레저업소 - 노 래 방"},{"name":"준남성컷트전문점","tel":"","addr":"경기도 화성시 팔탄면 구장리 23-1번지","category":"보건위생 - 미용원"},{"name":"참사랑의원","tel":"031-352-7760","addr":"경기도 화성시 팔탄면 구장리 23-1번지 2층","category":"의원 - 의원"}]},{"lat":"37.16913785","long":"126.89874462","items":[{"name":"가본한식부페","tel":"031-353-5374","addr":"경기도 화성시 팔탄면 구장리 91번지","category":"일반휴게음식 - 일반한식"}]},{"lat":"37.17016813","long":"126.89221272","items":[{"name":"가진ENG","tel":"031-354-5577","addr":"경기도 화성시 팔탄면 구장리 3-25번지","category":"건축자재 - 보일러·펌프·샷시"},{"name":"신아전기모타","tel":"031-354-7574","addr":"경기도 화성시 팔탄면 구장리 3-25번지 가동","category":"수리서비스 - 기타수리서비스"}]},{"lat":"37.167666267","long":"126.89551528","items":[{"name":"간지","tel":"070-8947-4490","addr":"경기도 화성시 팔탄면 구장리 23-4번지 2층","category":"일반휴게음식 - 일반한식"},{"name":"간지노래연습장","tel":"070-8947-4490","addr":"경기도 화성시 팔탄면 구장리 23-4번지 2층","category":"레저업소 - 노 래 방"}]},{"lat":"37.170889791","long":"126.89310117","items":[{"name":"강현정밀","tel":"031-353-4198","addr":"경기도 화성시 팔탄면 구장리 3번지","category":"기타 - 기계공구"}]},{"lat":"37.158084247","long":"126.90129276","items":[{"name":"건영합판상사","tel":"031-354-9961","addr":"경기도 화성시 팔탄면 구장리 381-1번지","category":"건축자재 - 기타건축자재"}]},{"lat":"37.16969107","long":"126.89274261","items":[{"name":"건우상사","tel":"031-430-0193","addr":"경기도 화성시 팔탄면 구장리 10-7번지 105호","category":"기타 - 기계공구"},{"name":"동현상사","tel":"031-366-3555","addr":"경기도 화성시 팔탄면 구장리 10-7","category":"건축자재 - 목재·석재·철물"}]},{"lat":"37.17074446","long":"126.89185157","items":[{"name":"경기상사","tel":"","addr":"경기도 화성시 팔탄면 구장리 3-19번지 1층","category":"자동차정비 유지 - 자동차정비"},{"name":"미래테크","tel":"031-352-7919","addr":"경기도 화성시 팔탄면 구장리 3-19번지","category":"회원제형태 - 기타4"},{"name":"종일마대무역상사","tel":"031-8059-8898","addr":"경기도 화성시 팔탄면 구장리 3-19번지","category":"신변잡화 - 기타잡화"}]},{"lat":"37.169330988","long":"126.89310343","items":[{"name":"경기소방안전공사","tel":"031-355-9511","addr":"경기도 화성시 팔탄면 구장리 10-5번지 106호","category":"기타 - 기계공구"},{"name":"삼진볼트","tel":"031-354-0217","addr":"경기도 화성시 팔탄면 구장리 10-5번지 연번지 103호","category":"기타 - 기계공구"},{"name":"서비즈(SUBIZ)","tel":"031-352-5505","addr":"경기도 화성시 팔탄면 구장리 10-5번지 율암산업빌딩 202호","category":"사무통신 - 컴퓨터"},{"name":"태성아크릴","tel":"031-352-6778","addr":"경기도 화성시 팔탄면 구장리 10-5번지 104호","category":"건축자재 - 기타건축자재"},{"name":"테진전열","tel":"031-000-0000","addr":"경기도 화성시 팔탄면 구장리 10-5번지","category":"전기제품 - 냉열기기"}]},{"lat":"37.169357653","long":"126.89270931","items":[{"name":"경기천막앵글공사","tel":"031-354-2210","addr":"경기도 화성시 팔탄면 구장리 10-1번지","category":"직물 - 카페트,커튼,천막,지물"},{"name":"대성종합배관","tel":"031-354-2109","addr":"경기도 화성시 팔탄면 구장리 10-1번지 팔탄공구유통상가 1동 7호","category":"건축자재 - 기타건축자재"},{"name":"대한산업안전사","tel":"031-354-3042","addr":"경기도 화성시 팔탄면 구장리 10-1번지 팔탄공구유통상가 101호","category":"기타 - 기타 전문점"},{"name":"삼익공구","tel":"031-366-5845","addr":"경기도 화성시 팔탄면 구장리 10-1번지 팔탄공구유통상가 2동 105호","category":"기타 - 기계공구"},{"name":"세기웰","tel":"031-353-7119","addr":"경기도 화성시 팔탄면 구장리 10-1","category":"기타 - 기계공구"},{"name":"영득공구철물","tel":"031-366-3410","addr":"경기도 화성시 팔탄면 구장리 10-1번지 팔탄공구유통상가 1동 104호","category":"기타 - 기계공구"},{"name":"인캔페인트","tel":"031-354-9561","addr":"경기도 화성시 팔탄면 구장리 10-1번지 팔탄공구유통상가 A동 105호","category":"건축자재 - 페인트"},{"name":"주식회사 혜성금속볼트","tel":"031-353-8895","addr":"경기도 화성시 팔탄면 구장리 10-1번지 팔탄공구유통상가 A동 6호","category":"기타 - 기계공구"},{"name":"혜성종합공구, 바퀴","tel":"031-353-9049","addr":"경기도 화성시 팔탄면 구장리 10-1번지 팔탄공구유통상가 A동 104호","category":"기타 - 기계공구"},{"name":"힐링","tel":"070-9144-2513","addr":"경기도 화성시 팔탄면 구장리 10-1번지 팔탄공구유통상가 A동 2층","category":"레저업소 - 헬스클럽"},{"name":"힘찬풍력","tel":"031-3527-7074","addr":"경기도 화성시 팔탄면 구장리 10-1번지 팔탄공구유통상가 2동 103호","category":"전기제품 - 기타전기제품"}]},{"lat":"37.168276549","long":"126.89286851","items":[{"name":"경원AIRTECH","tel":"031-352-6743","addr":"경기도 화성시 팔탄면 구장리 127-84번지 우리들유통타운 A동 102호","category":"기타 - 기계공구"},{"name":"부영산업","tel":"","addr":"경기도 화성시 팔탄면 구장리 127-84번지 우리들유통타운 A동 104호","category":"기타 - 기계공구"},{"name":"에스앤에스","tel":"031-8047-4995","addr":"경기도 화성시 팔탄면 구장리 127-84번지 우리들유통타운 A동 104호","category":"기타 - 기계공구"},{"name":"파란툴링","tel":"031-8059-0963","addr":"경기도 화성시 팔탄면 구장리 127-84 우리들유통타운A동102호,111호","category":"기타 - 기계공구"}]},{"lat":"37.169473885","long":"126.89174084","items":[{"name":"경원유공압배관","tel":"031-366-6852","addr":"경기도 화성시 팔탄면 구장리 7-2번지 1층","category":"건축자재 - 기타건축자재"}]},{"lat":"37.15855061","long":"126.90960034","items":[{"name":"고참들마당","tel":"031-000-0000","addr":"경기도 화성시 팔탄면 구장리 868번지 2동","category":"음료식품 - 기타음료식품"}]},{"lat":"37.167916757","long":"126.89354458","items":[{"name":"공단종합상사","tel":"031-8059-6622","addr":"경기도 화성시 팔탄면 구장리 127-43번지 103호","category":"기타 - 기계공구"},{"name":"종합계전","tel":"031-354-1566","addr":"경기도 화성시 팔탄면 구장리 127-43번지 104호","category":"전기제품 - 기타전기제품"}]},{"lat":"37.168027739","long":"126.89668572","items":[{"name":"광릉숯불고기","tel":"031-353-3257","addr":"경기도 화성시 팔탄면 구장리 28-3번지 28-3번지,29-8번지","category":"일반휴게음식 - 일반한식"},{"name":"디오커피","tel":"031-352-5160","addr":"경기도 화성시 팔탄면 구장리 28-3번지","category":"일반휴게음식 - 서양음식"},{"name":"세븐일레븐화성팔탄점","tel":"","addr":"경기도 화성시 팔탄면 구장리 28-3번지 1층 104호","category":"유통업 영리 - 편 의 점"}]},{"lat":"37.169332797","long":"126.89507381","items":[{"name":"광명오토","tel":"031-352-4829","addr":"경기도 화성시 팔탄면 구장리 38-35번지","category":"자동차정비 유지 - 자동차부품"}]},{"lat":"37.1681949","long":"126.89227189","items":[{"name":"광일시스템","tel":"070-8862-1157","addr":"경기도 화성시 팔탄면 구장리 127-83번지 우리들유통타운 E동 204호","category":"사무통신 - 통신기기"},{"name":"광일테크","tel":"031-354-1958","addr":"경기도 화성시 팔탄면 구장리 127-83번지 우리들유통타운 E동 205호","category":"기타 - 기계공구"},{"name":"금화산전","tel":"031-366-0079","addr":"경기도 화성시 팔탄면 구장리 127-83번지 우리들유통타운 E동 201호","category":"전기제품 - 기타전기제품"},{"name":"대상앵글","tel":"031-354-6421","addr":"경기도 화성시 팔탄면 구장리 127-83번지 우리들유통타운 E동 105호","category":"건축자재 - 기타건축자재"},{"name":"대웅상사","tel":"031-366-4970","addr":"경기도 화성시 팔탄면 구장리 127-83번지 우리들유통타운 E동 202호","category":"신변잡화 - 기타잡화"},{"name":"드림종합상사","tel":"031-8059-5750","addr":"경기도 화성시 팔탄면 구장리 127-83번지 우리들유통타운 E동 108호","category":"기타 - 기계공구"},{"name":"에이치케이상사","tel":"031-8059-1667","addr":"경기도 화성시 팔탄면 구장리 127-83번지 우리들유통상가 E동 102호","category":"기타 - 기계공구"},{"name":"우리명판","tel":"031-354-6852","addr":"경기도 화성시 팔탄면 구장리 127-83 E-101","category":"서적문구 - 출판 및 인쇄물"},{"name":"판다 마그네트","tel":"031-8059-8201","addr":"경기도 화성시 팔탄면 구장리 127-83번지 우리들유통타운 E동 204호","category":"신변잡화 - 기타잡화"}]},{"lat":"37.169637956","long":"126.89376729","items":[{"name":"구장24","tel":"","addr":"경기도 화성시 팔탄면 구장리 38-63번지 101동 114호","category":"음료식품 - 기타음료식품"},{"name":"동일종합배관","tel":"031-352-1880","addr":"경기도 화성시 팔탄면 구장리 38-63번지 103호,203호","category":"건축자재 - 기타건축자재"}]},{"lat":"37.168882347","long":"126.89515326","items":[{"name":"구장노래연습장","tel":"031-353-7345","addr":"경기도 화성시 팔탄면 구장리 38-44번지 2층","category":"레저업소 - 노 래 방"},{"name":"신라 스트레칭","tel":"070-8946-1279","addr":"경기도 화성시 팔탄면 구장리 38-44번지 203,204,205호","category":"레저업소 - 헬스클럽"},{"name":"태양호스","tel":"031-8047-6208","addr":"경기도 화성시 팔탄면 구장리 38-44번지 105,106호","category":"기타 - 기계공구"}]},{"lat":"37.167890595","long":"126.89449038","items":[{"name":"구장치과의원","tel":"031-8059-2872","addr":"경기도 화성시 팔탄면 구장리 21-5번지 2층","category":"의원 - 치과의원"},{"name":"모든상사","tel":"031-366-3994","addr":"경기도 화성시 팔탄면 구장리 21-5번지 1층 2,3호","category":"기타 - 기계공구"}]},{"lat":"37.163584695","long":"126.89568993","items":[{"name":"구장한식부페","tel":"031-354-0858","addr":"경기도 화성시 팔탄면 구장리 125-5번지","category":"일반휴게음식 - 일반한식"},{"name":"알천한식마을","tel":"031-354-0858","addr":"경기도 화성시 팔탄면 구장리 125-5번지","category":"일반휴게음식 - 일반한식"}]},{"lat":"37.153775549","long":"126.89932854","items":[{"name":"굴삭기부품센타","tel":"031-354-3396","addr":"경기도 화성시 팔탄면 구장리 395-9","category":"기타 - 기계공구"},{"name":"기흥천막판넬공사","tel":"031-354-4186","addr":"경기도 화성시 팔탄면 구장리 395-9","category":"직물 - 카페트,커튼,천막,지물"},{"name":"동주건축","tel":"031-353-8058","addr":"경기도 화성시 팔탄면 구장리 395-9번지","category":"직물 - 카페트,커튼,천막,지물"},{"name":"우명냉동기","tel":"031-354-6359","addr":"경기도 화성시 팔탄면 구장리 395-9번지 1층 1호","category":"수리서비스 - 가정용품수리"},{"name":"카코디샵","tel":"031-354-1464","addr":"경기도 화성시 팔탄면 구장리 395-9번지 1층 2호","category":"자동차정비 유지 - 자동차부품"}]},{"lat":"37.158108574","long":"126.89818561","items":[{"name":"굿마트화성팔탄점","tel":"031-8059-5865","addr":"경기도 화성시 팔탄면 구장리 415-15 103호,104호","category":"유통업 영리 - 슈퍼마켓"},{"name":"세븐일레븐화성푸른점","tel":"031-1577-0711","addr":"경기도 화성시 팔탄면 구장리 415-15번지 (103호,104호)","category":"유통업 영리 - 편 의 점"}]},{"lat":"37.165467119","long":"126.89485412","items":[{"name":"그린엘이디타이링","tel":"032-228-0320","addr":"경기도 화성시 팔탄면 구장리 113-12번지","category":"건축자재 - 조명기구"}]},{"lat":"37.168033079","long":"126.8926662","items":[{"name":"극동케이블","tel":"031-8059-4081","addr":"경기도 화성시 팔탄면 구장리 127-84번지 우리들유통타운 F동 104호","category":"전기제품 - 기타전기제품"},{"name":"덕성상사","tel":"031-8059-1199","addr":"경기도 화성시 팔탄면 구장리 127-84번지 우리들유통타운 F동 B108호","category":"기타 - 기계공구"},{"name":"용아정밀","tel":"031-366-4228","addr":"경기도 화성시 팔탄면 구장리 127-84번지 우리들유통타운 F동 101호","category":"기타 - 기계공구"}]},{"lat":"37.168133619","long":"126.89420856","items":[{"name":"김밥나라","tel":"031-354-7429","addr":"경기도 화성시 팔탄면 구장리 21-4","category":"일반휴게음식 - 스넥"},{"name":"다이넥스 화성점","tel":"031-366-0360","addr":"경기도 화성시 팔탄면 구장리 21-4번지 102호","category":"직물 - 기타직물"},{"name":"대동스프링","tel":"031-354-0160","addr":"경기도 화성시 팔탄면 구장리 21-4번지 104호","category":"기타 - 기계공구"},{"name":"모두코리아","tel":"070-7634-4867","addr":"경기도 화성시 팔탄면 구장리 21-4번지 102호","category":"기타 - 기계공구"},{"name":"부킹노래연습장","tel":"031-223-5214","addr":"경기도 화성시 팔탄면 구장리 21-4번지 지하1층","category":"레저업소 - 노 래 방"},{"name":"히타와센서","tel":"031-8077-9109","addr":"경기도 화성시 팔탄면 구장리 21-4번지 101호","category":"전기제품 - 냉열기기"}]},{"lat":"37.167719633","long":"126.89474959","items":[{"name":"까페 CAFE102","tel":"070-8947-4490","addr":"경기도 화성시 팔탄면 구장리 21번지 가동 102호","category":"일반휴게음식 - 서양음식"},{"name":"망향비빔국수","tel":"031-366-3738","addr":"경기도 화성시 팔탄면 구장리 21번지 가동 1층","category":"일반휴게음식 - 일반한식"}]},{"lat":"37.17032771","long":"126.8992947","items":[{"name":"나라공구바퀴상사","tel":"031-352-1357","addr":"경기도 화성시 팔탄면 구장리 63번지 C동 103호","category":"기타 - 기계공구"},{"name":"이마트24 화성구장점","tel":"031-000-0000","addr":"경기도 화성시 팔탄면 구장리 63번지 C동 109,110호","category":"유통업 영리 - 편 의 점"},{"name":"이마트24 화성구장점","tel":"","addr":"경기도 화성시 팔탄면 구장리 63번지 C동 109,110호","category":"유통업 영리 - 편 의 점"}]},{"lat":"37.167663285","long":"126.89227267","items":[{"name":"나래종합상사","tel":"031-8059-6436","addr":"경기도 화성시 팔탄면 구장리 127-87번지 우리들유통타운 H동 113호","category":"유통업 영리 - 기타유통업"},{"name":"대명시스템","tel":"031-354-2567","addr":"경기도 화성시 팔탄면 구장리 127-87번지 H동 106호","category":"기타 - 기계공구"},{"name":"우경테크","tel":"","addr":"경기도 화성시 팔탄면 구장리 127-87번지 H동 1층 107호","category":"기타 - 기계공구"},{"name":"주식회사 우리호스","tel":"031-8059-3214","addr":"경기도 화성시 팔탄면 구장리 127-87번지 우리들유통타운 에이치동 109호,110호,111호","category":"기타 - 기계공구"},{"name":"한국종합상사","tel":"031-353-2388","addr":"경기도 화성시 팔탄면 구장리 127-87번지 우리들유통타운 H동 106호","category":"기타 - 기계공구"}]},{"lat":"37.166918054","long":"126.89513353","items":[{"name":"남원추어탕","tel":"031-352-5749","addr":"경기도 화성시 팔탄면 구장리 113-9번지","category":"일반휴게음식 - 일반한식"},{"name":"퀸당구클럽","tel":"031-352-8947","addr":"경기도 화성시 팔탄면 구장리 113-9번지 2층","category":"레저업소 - 당 구 장"},{"name":"화성그린","tel":"031-352-9295","addr":"경기도 화성시 팔탄면 구장리 113-9번지 B-1호","category":"신변잡화 - 기타잡화"}]},{"lat":"37.168993455","long":"126.89848585","items":[{"name":"논뚜렁 미꾸라지 매운탕","tel":"031-354-5292","addr":"경기도 화성시 팔탄면 구장리 91-2번지","category":"일반휴게음식 - 일반한식"}]},{"lat":"37.165800734","long":"126.90551574","items":[{"name":"다감","tel":"031-354-9282","addr":"경기도 화성시 팔탄면 구장리 701번지","category":"일반휴게음식 - 일반한식"}]},{"lat":"37.158362082","long":"126.89956996","items":[{"name":"달구지","tel":"031-354-9267","addr":"경기도 화성시 팔탄면 구장리 514번지","category":"일반휴게음식 - 일반한식"}]},{"lat":"37.170418686","long":"126.90029667","items":[{"name":"대가한식부페","tel":"031-366-0636","addr":"경기도 화성시 팔탄면 구장리 67번지","category":"일반휴게음식 - 일반한식"},{"name":"웰빙한식부페","tel":"031-366-0636","addr":"경기도 화성시 팔탄면 구장리 67번지","category":"일반휴게음식 - 일반한식"},{"name":"정산기공사","tel":"031-366-4921","addr":"경기도 화성시 팔탄면 구장리 67번지","category":"기타 - 기계공구"}]},{"lat":"37.168356508","long":"126.8916524","items":[{"name":"대룡기계","tel":"031-8056-6650","addr":"경기도 화성시 팔탄면 구장리 127-82번지 디-202,우리들유통타운상가","category":"기타 - 기계공구"}]},{"lat":"37.154445691","long":"126.91462607","items":[{"name":"대림중기","tel":"031-366-4035","addr":"경기도 화성시 팔탄면 구장리 953-2번지","category":"기타 - 기계공구"}]},{"lat":"37.168997446","long":"126.89293502","items":[{"name":"대박툴링중고공구","tel":"031-8059-2409","addr":"경기도 화성시 팔탄면 구장리 12-9번지 102호","category":"기타 - 기계공구"},{"name":"우성페인트","tel":"031-354-4704","addr":"경기도 화성시 팔탄면 구장리 12-9번지 103호","category":"건축자재 - 페인트"},{"name":"한양종합공구","tel":"031-354-1054","addr":"경기도 화성시 팔탄면 구장리 12-9번지 연번지 104동 105호","category":"기타 - 기계공구"}]},{"lat":"37.168245352","long":"126.89821666","items":[{"name":"대성골재","tel":"031-366-3458","addr":"경기도 화성시 팔탄면 구장리 100-1","category":"건축자재 - 기타건축자재"}]},{"lat":"37.16996969","long":"126.89198782","items":[{"name":"대신유화","tel":"031-8059-5152","addr":"경기도 화성시 팔탄면 구장리 7-1번지 1층","category":"자동차정비 유지 - 윤활유 전문 판매"},{"name":"성진식자재","tel":"031-353-8185","addr":"경기도 화성시 팔탄면 구장리 7-1번지","category":"유통업 영리 - 슈퍼마켓"},{"name":"주식회사 성진식자재","tel":"031-353-8185","addr":"경기도 화성시 팔탄면 구장리 7-1번지 1,2층","category":"유통업 영리 - 슈퍼마켓"},{"name":"팔탄식자재마트","tel":"","addr":"경기도 화성시 팔탄면 구장리 7-1번지","category":"유통업 영리 - 슈퍼마켓"},{"name":"팔탄정육점","tel":"031-352-8144","addr":"경기도 화성시 팔탄면 구장리 7-1번지","category":"음료식품 - 정육점"}]},{"lat":"37.169024759","long":"126.89323898","items":[{"name":"대영물산","tel":"031-8059-5757","addr":"경기도 화성시 팔탄면 구장리 12-1번지","category":"직물 - 기타직물"},{"name":"성일케미칼상사","tel":"031-352-4081","addr":"경기도 화성시 팔탄면 구장리 12-1번지 104호","category":"서적문구 - 과학기자재"},{"name":"주식회사 대화포장산업","tel":"031-366-5595","addr":"경기도 화성시 팔탄면 구장리 12-1번지 102호","category":"유통업 영리 - 기타유통업"},{"name":"하나페인트","tel":"031-352-9744","addr":"경기도 화성시 팔탄면 구장리 12-1번지 103호","category":"건축자재 - 페인트"}]},{"lat":"37.165855662","long":"126.906574","items":[{"name":"대원렌탈","tel":"031-359-8488","addr":"경기도 화성시 팔탄면 구장리 703-1","category":"기타 - 기계공구"},{"name":"평강렌탈","tel":"031-298-3955","addr":"경기도 화성시 팔탄면 구장리 703-1","category":"기타 - 기계공구"}]},{"lat":"37.16069346","long":"126.8969324","items":[{"name":"대일레이저","tel":"031-351-7879","addr":"경기도 화성시 팔탄면 구장리 165-3번지","category":"기타 - 기계공구"},{"name":"태영정밀조각","tel":"031-353-8385","addr":"경기도 화성시 팔탄면 구장리 165-3번지","category":"기타 - 기계공구"}]},{"lat":"37.168672073","long":"126.89186586","items":[{"name":"대일산업","tel":"031-366-3875","addr":"경기도 화성시 팔탄면 구장리 127-81번지 우리들유통타운 C동 123호","category":"기타 - 기계공구"},{"name":"성신철물","tel":"031-353-8956","addr":"경기도 화성시 팔탄면 구장리 127-81번지 우리들유통단지 C동 105호","category":"기타 - 기계공구"},{"name":"세종종합배관","tel":"031-352-0855","addr":"경기도 화성시 팔탄면 구장리 127-81번지 우리들유통타운 C동 109호, 116호","category":"건축자재 - 기타건축자재"},{"name":"유경베어링","tel":"031-352-2871","addr":"경기도 화성시 팔탄면 구장리 127-81번지 우리들유통타운 C동 103호","category":"전기제품 - 기타전기제품"},{"name":"유성유공압배관","tel":"031-354-4641","addr":"경기도 화성시 팔탄면 구장리 127-81번지 우리들유통타운 C동 118호 107호","category":"건축자재 - 기타건축자재"}]},{"lat":"37.161000037","long":"126.90781855","items":[{"name":"대진이엔지(ENG)","tel":"031-366-0997","addr":"경기도 화성시 팔탄면 구장리 828-1번지","category":"건축자재 - 기타건축자재"}]},{"lat":"37.170501305","long":"126.89198704","items":[{"name":"대한냉동","tel":"031-353-7784","addr":"경기도 화성시 팔탄면 구장리 3-20번지 1층 106호","category":"용역 서비스 - 기타용역서비스"},{"name":"대한냉열","tel":"031-353-7784","addr":"경기도 화성시 팔탄면 구장리 3-20번지 105호","category":"전기제품 - 냉열기기"},{"name":"쌍용드림상사","tel":"031-352-4826","addr":"경기도 화성시 팔탄면 구장리 3-20번지 103,104호","category":"신변잡화 - 기타잡화"}]},{"lat":"37.170330988","long":"126.89293309","items":[{"name":"대한타이어판매카써비스(한국타이어타운)","tel":"031-366-6690","addr":"경기도 화성시 팔탄면 구장리 5번지","category":"자동차정비 유지 - 자동차시트·타이어"}]},{"lat":"37.167638529","long":"126.89473844","items":[{"name":"댄디스타일","tel":"031-1111-1111","addr":"경기도 화성시 팔탄면 구장리 21번지 다동 1층","category":"보건위생 - 미용원"},{"name":"동태매운탕전문점","tel":"031-111-1111","addr":"경기도 화성시 팔탄면 구장리 21번지 2층 202호","category":"일반휴게음식 - 일반한식"},{"name":"송탄","tel":"031-351-5777","addr":"경기도 화성시 팔탄면 구장리 21번지","category":"음료식품 - 기타음료식품"},{"name":"양평해장국","tel":"031-353-5303","addr":"경기도 화성시 팔탄면 구장리 21번지","category":"일반휴게음식 - 일반한식"}]},{"lat":"37.16158247","long":"126.90385494","items":[{"name":"덕이네분식","tel":"031-354-5043","addr":"경기도 화성시 팔탄면 구장리 555-1번지","category":"일반휴게음식 - 스넥"},{"name":"옥천왕족발","tel":"031-359-8365","addr":"경기도 화성시 팔탄면 구장리 555-1번지","category":"일반휴게음식 - 일반한식"},{"name":"태원경락샵","tel":"031-353-4392","addr":"경기도 화성시 팔탄면 구장리 555-1번지","category":"보건위생 - 피부미용실"}]},{"lat":"37.161888891","long":"126.90393335","items":[{"name":"돈이랑해물이랑","tel":"031-235-3994","addr":"경기도 화성시 팔탄면 구장리 564-3번지 1층","category":"일반휴게음식 - 일반한식"},{"name":"복돼지생삽겹살","tel":"031-352-6940","addr":"경기도 화성시 팔탄면 구장리 564-3번지 문영빌딩","category":"일반휴게음식 - 일반한식"},{"name":"씨유화성팔탄점","tel":"031-352-7239","addr":"경기도 화성시 팔탄면 구장리 564-3","category":"유통업 영리 - 편 의 점"},{"name":"오니오니","tel":"031-8059-0401","addr":"경기도 화성시 팔탄면 구장리 564-3번지","category":"일반휴게음식 - 일반한식"},{"name":"참살이","tel":"031-239-0368","addr":"경기도 화성시 팔탄면 구장리 564-3번지","category":"음료식품 - 농·축·수산품"}]},{"lat":"37.169384349","long":"126.89234897","items":[{"name":"동남종합상사 주식회사","tel":"031-352-9209","addr":"경기도 화성시 팔탄면 구장리 10-8번지","category":"기타 - 기계공구"},{"name":"주식회사 중앙전기","tel":"031-354-8181","addr":"경기도 화성시 팔탄면 구장리 10-8번지 101호","category":"전기제품 - 기타전기제품"},{"name":"참텍","tel":"031-359-9726","addr":"경기도 화성시 팔탄면 구장리 10-8번지","category":"전기제품 - 기타전기제품"}]},{"lat":"37.170688392","long":"126.89959822","items":[{"name":"동원테크","tel":"031-353-2325","addr":"경기도 화성시 팔탄면 구장리 62번지 B동 10호,11호","category":"기타 - 기계공구"},{"name":"우리철망타공","tel":"031-366-5572","addr":"경기도 화성시 팔탄면 구장리 62번지 ,63,64-3","category":"건축자재 - 기타건축자재"},{"name":"주식회사 비엔금속볼트","tel":"031-352-8249","addr":"경기도 화성시 팔탄면 구장리 62번지 A동 102호","category":"기타 - 기계공구"}]},{"lat":"37.168276015","long":"126.89229429","items":[{"name":"동인볼트기공","tel":"031-352-3005","addr":"경기도 화성시 팔탄면 구장리 127-83 우리들유통타운 B동106,206","category":"기타 - 기타 전문점"},{"name":"세광전기","tel":"031-354-2212","addr":"경기도 화성시 팔탄면 구장리 127-83 우리들유통타운 2-107","category":"건축자재 - 보일러·펌프·샷시"},{"name":"아트컴퓨터조각","tel":"031-353-3802","addr":"경기도 화성시 팔탄면 구장리 127-83번지 우리들유통상가이층 2동 207호","category":"신변잡화 - 기타잡화"},{"name":"주식회사 우성커넥터","tel":"031-366-5002","addr":"경기도 화성시 팔탄면 구장리 127-83번지 우리들유통타운 104호","category":"기타 - 기계공구"}]},{"lat":"37.16655087","long":"126.90831825","items":[{"name":"동촌","tel":"031-352-3575","addr":"경기도 화성시 팔탄면 구장리 711-1번지","category":"일반휴게음식 - 일반한식"}]},{"lat":"37.163610278","long":"126.90440396","items":[{"name":"동화공업사","tel":"031-366-7833","addr":"경기도 화성시 팔탄면 구장리 696-1번지","category":"자동차정비 유지 - 자동차정비"},{"name":"동화상사","tel":"031-354-8673","addr":"경기도 화성시 팔탄면 구장리 696-1번지 1층","category":"자동차정비 유지 - 자동차부품"},{"name":"매일공업사","tel":"031-473-7879","addr":"경기도 화성시 팔탄면 구장리 696-1번지","category":"기타 - 기계공구"}]},{"lat":"37.170304727","long":"126.89376633","items":[{"name":"디즈텍","tel":"031-357-9498","addr":"경기도 화성시 팔탄면 구장리 5-2번지","category":"전기제품 - 기타전기제품"},{"name":"영승기어","tel":"031-354-4442","addr":"경기도 화성시 팔탄면 구장리 5-2번지","category":"기타 - 기계공구"},{"name":"황금정밀","tel":"031-000-0000","addr":"경기도 화성시 팔탄면 구장리 5-2번지 3동 황금정밀","category":"기타 - 기계공구"}]},{"lat":"37.171195204","long":"126.90218724","items":[{"name":"디케이(DK)","tel":"070-8252-2889","addr":"경기도 화성시 팔탄면 구장리 74-7번지","category":"자동차정비 유지 - 카인테리어"},{"name":"주식회사 차넥스","tel":"070-8849-1332","addr":"경기도 화성시 팔탄면 구장리 74-7번지","category":"건축자재 - 기타건축자재"},{"name":"풀잎식품","tel":"031-8059-8114","addr":"경기도 화성시 팔탄면 구장리 74-7번지","category":"유통업 영리 - 기타유통업"}]},{"lat":"37.168666097","long":"126.89515357","items":[{"name":"라성종합전기","tel":"031-354-0151","addr":"경기도 화성시 팔탄면 구장리 38-40","category":"전기제품 - 기타전기제품"}]},{"lat":"37.16935884","long":"126.89399287","items":[{"name":"류가네고기부페","tel":"031-8059-9991","addr":"경기도 화성시 팔탄면 구장리 38-31번지 2층","category":"일반휴게음식 - 일반한식"},{"name":"신신볼트","tel":"031-366-0371","addr":"경기도 화성시 팔탄면 구장리 38-31번지 102호","category":"건축자재 - 목재·석재·철물"},{"name":"화성명판조각","tel":"031-354-6301","addr":"경기도 화성시 팔탄면 구장리 38-31번지 104호","category":"건축자재 - 목재·석재·철물"},{"name":"화성종합철물","tel":"031-354-1691","addr":"경기도 화성시 팔탄면 구장리 38-31번지 1동 103호","category":"건축자재 - 목재·석재·철물"}]},{"lat":"37.161384494","long":"126.90415917","items":[{"name":"마루한식","tel":"031-8059-7799","addr":"경기도 화성시 팔탄면 구장리 564-2번지","category":"일반휴게음식 - 일반한식"}]},{"lat":"37.17061029","long":"126.89291016","items":[{"name":"맛깔한식부페","tel":"031-352-3477","addr":"경기도 화성시 팔탄면 구장리 4번지 C동 1층","category":"일반휴게음식 - 일반한식"}]},{"lat":"37.160554837","long":"126.90332716","items":[{"name":"명보미용실","tel":"031-352-5497","addr":"경기도 화성시 팔탄면 구장리 529-17","category":"보건위생 - 미용원"}]},{"lat":"37.162997821","long":"126.90470873","items":[{"name":"명성산업","tel":"031-353-6781","addr":"경기도 화성시 팔탄면 구장리 567-8","category":"기타 - 기계공구"}]},{"lat":"37.162387381","long":"126.896885","items":[{"name":"명품한식부페","tel":"031-366-5113","addr":"경기도 화성시 팔탄면 구장리 143번지","category":"일반휴게음식 - 일반한식"}]},{"lat":"37.161085546","long":"126.91349254","items":[{"name":"목포식당","tel":"031-366-0275","addr":"경기도 화성시 팔탄면 구장리 917-9번지","category":"일반휴게음식 - 일반한식"},{"name":"화성명가","tel":"031-353-7867","addr":"경기도 화성시 팔탄면 구장리 917-9번지","category":"일반휴게음식 - 일반한식"}]},{"lat":"37.166864084","long":"126.89523494","items":[{"name":"무림오피스웨이팔탄점","tel":"031-352-0616","addr":"경기도 화성시 팔탄면 구장리 113-9번지 B동 102호","category":"서적문구 - 문구용품"}]},{"lat":"37.170694126","long":"126.89590508","items":[{"name":"무호산업","tel":"031-8059-5261","addr":"경기도 화성시 팔탄면 구장리 38-27","category":"신변잡화 - 기타잡화"}]},{"lat":"37.163874525","long":"126.89735578","items":[{"name":"미건상사","tel":"031-8047-6200","addr":"경기도 화성시 팔탄면 구장리 146-1번지 8동 106호","category":"건축자재 - 페인트"},{"name":"썬텍웰딩","tel":"031-353-8954","addr":"경기도 화성시 팔탄면 구장리 146-1 8-102","category":"기타 - 기계공구"},{"name":"지성종합상사","tel":"031-359-9211","addr":"경기도 화성시 팔탄면 구장리 146-1번지 8동 110호","category":"기타 - 기계공구"}]},{"lat":"37.167747238","long":"126.89538006","items":[{"name":"미니스톱화성구장점","tel":"031-1577-9621","addr":"경기도 화성시 팔탄면 구장리 23-3번지","category":"유통업 영리 - 편 의 점"},{"name":"미앤미치과의원","tel":"031-354-7537","addr":"경기도 화성시 팔탄면 구장리 23-3번지 2층","category":"의원 - 치과의원"},{"name":"주식회사한승산업자재","tel":"031-366-0981","addr":"경기도 화성시 팔탄면 구장리 23-3번지","category":"기타 - 기타 전문점"}]},{"lat":"37.170446205","long":"126.89088369","items":[{"name":"미래에프에이","tel":"070-7736-0150","addr":"경기도 화성시 팔탄면 구장리 3-16번지","category":"전기제품 - 기타전기제품"},{"name":"주식회사 미래종합알미늄","tel":"031-8055-8300","addr":"경기도 화성시 팔탄면 구장리 3-16번지","category":"건축자재 - 기타건축자재"}]},{"lat":"37.16819037","long":"126.89718089","items":[{"name":"밀알왕순대 ( 팔탄점)","tel":"031-352-0484","addr":"경기도 화성시 팔탄면 구장리 28-1번지 2동 4,5호","category":"일반휴게음식 - 일반한식"},{"name":"심봤다 두루치기","tel":"031-366-5778","addr":"경기도 화성시 팔탄면 구장리 28-1번지","category":"일반휴게음식 - 일반한식"},{"name":"영우툴링","tel":"031-353-9291","addr":"경기도 화성시 팔탄면 구장리 28-1번지 2동 1호","category":"기타 - 기계공구"},{"name":"크라운종합상사","tel":"031-8059-1614","addr":"경기도 화성시 팔탄면 구장리 28-1번지 1동 1호","category":"유통업 영리 - 기타유통업"},{"name":"한성전열","tel":"031-353-3205","addr":"경기도 화성시 팔탄면 구장리 28-1번지","category":"전기제품 - 기타전기제품"}]},{"lat":"37.16760258","long":"126.89483982","items":[{"name":"베이크스토리 화성팔탄점","tel":"031-353-1202","addr":"경기도 화성시 팔탄면 구장리 21번지 나동 2층","category":"일반휴게음식 - 서양음식"},{"name":"육수당 화성팔탄점","tel":"031-3535-1412","addr":"경기도 화성시 팔탄면 구장리 21번지 나동 1층","category":"일반휴게음식 - 일반한식"}]},{"lat":"37.161222765","long":"126.90471103","items":[{"name":"부가네의정부부대찌개","tel":"070-0000-0000","addr":"경기도 화성시 팔탄면 구장리 556-4번지","category":"일반휴게음식 - 일반한식"}]},{"lat":"37.159585918","long":"126.89776703","items":[{"name":"부강산업","tel":"031-354-7336","addr":"경기도 화성시 팔탄면 구장리 164번지","category":"수리서비스 - 기타수리서비스"}]},{"lat":"37.165918397","long":"126.89568663","items":[{"name":"부안낙지마당","tel":"031-8059-0608","addr":"경기도 화성시 팔탄면 구장리 113-11번지 2층 202호","category":"일반휴게음식 - 일반한식"},{"name":"의정부부대찌개","tel":"031-352-2505","addr":"경기도 화성시 팔탄면 구장리 113-11번지","category":"일반휴게음식 - 일반한식"},{"name":"탄불이한우국밥","tel":"031-354-3021","addr":"경기도 화성시 팔탄면 구장리 113-11번지 1층","category":"일반휴게음식 - 일반한식"}]},{"lat":"37.16122309","long":"126.90510506","items":[{"name":"비비오토서비스","tel":"031-354-5152","addr":"경기도 화성시 팔탄면 구장리 560번지","category":"자동차정비 유지 - 자동차정비"},{"name":"칼스(KARS)","tel":"070-7405-0533","addr":"경기도 화성시 팔탄면 구장리 560번지","category":"서적문구 - 완구점"}]},{"lat":"37.161022702","long":"126.91379658","items":[{"name":"산모롱이","tel":"031-354-5022","addr":"경기도 화성시 팔탄면 구장리 917-11번지","category":"일반휴게음식 - 일반한식"}]},{"lat":"37.16786104","long":"126.89176572","items":[{"name":"삼성리데나","tel":"031-8047-4970","addr":"경기도 화성시 팔탄면 구장리 127-86번지 G동 105호","category":"기타 - 기타 전문점"},{"name":"삼성아크릴","tel":"031-8059-2137","addr":"경기도 화성시 팔탄면 구장리 127-86번지 우리들유통타운 G동 107호","category":"기타 - 기타 전문점"},{"name":"스마트용접기","tel":"031-353-0487","addr":"경기도 화성시 팔탄면 구장리 127-86번지 우리들유통타운 G동 109호","category":"기타 - 기계공구"},{"name":"주식회사 태영종합상사","tel":"031-354-7213","addr":"경기도 화성시 팔탄면 구장리 127-86번지 G동 102호 ,103,208호","category":"기타 - 기계공구"},{"name":"태진이앤티","tel":"031-353-0874","addr":"경기도 화성시 팔탄면 구장리 127-86번지 G동 110호 109호","category":"기타 - 기계공구"}]},{"lat":"37.169968854","long":"126.9010967","items":[{"name":"삼성산업","tel":"031-352-5475","addr":"경기도 화성시 팔탄면 구장리 77번지","category":"기타 - 기계공구"}]},{"lat":"37.16027591","long":"126.90380036","items":[{"name":"삼일송풍기","tel":"031-8059-6365","addr":"경기도 화성시 팔탄면 구장리 527-11번지 1층 104호","category":"전기제품 - 기타전기제품"}]},{"lat":"37.170997508","long":"126.89266189","items":[{"name":"상진레이저","tel":"031-354-1955","addr":"경기도 화성시 팔탄면 구장리 3-10번지","category":"자동차정비 유지 - 자동차부품"}]},{"lat":"37.155024717","long":"126.89563447","items":[{"name":"서해정","tel":"031-366-2664","addr":"경기도 화성시 팔탄면 구장리 208-1번지 1층","category":"일반휴게음식 - 일반한식"}]},{"lat":"37.168079329","long":"126.89396093","items":[{"name":"서해카센타","tel":"031-52-0068","addr":"경기도 화성시 팔탄면 구장리 18번지","category":"자동차정비 유지 - 자동차정비"},{"name":"성진로프산업","tel":"031-366-5725","addr":"경기도 화성시 팔탄면 구장리 18번지","category":"기타 - 기계공구"}]},{"lat":"37.169027075","long":"126.89577232","items":[{"name":"선진월드텍","tel":"031-352-2870","addr":"경기도 화성시 팔탄면 구장리 33-2번지 A동","category":"용역 서비스 - 기타용역서비스"}]},{"lat":"37.170833903","long":"126.90115184","items":[{"name":"성심산업","tel":"031-354-2919","addr":"경기도 화성시 팔탄면 구장리 70-3","category":"건축자재 - 기타건축자재"}]},{"lat":"37.166828572","long":"126.89582046","items":[{"name":"세븐일레븐화성구장점","tel":"031-1577-0711","addr":"경기도 화성시 팔탄면 구장리 23-21번지","category":"유통업 영리 - 편 의 점"}]},{"lat":"37.158108355","long":"126.89793794","items":[{"name":"세화모형","tel":"031-353-9776","addr":"경기도 화성시 팔탄면 구장리 415-14번지","category":"건축자재 - 기타건축자재"}]},{"lat":"37.16025245","long":"126.89749591","items":[{"name":"세화샤링","tel":"031-353-9815","addr":"경기도 화성시 팔탄면 구장리 160-2","category":"건축자재 - 기타건축자재"}]},{"lat":"37.168401655","long":"126.89175367","items":[{"name":"소망전열","tel":"070-7726-2290","addr":"경기도 화성시 팔탄면 구장리 127-82번지 우리들유통타운 D동 110호","category":"기타 - 기타 전문점"},{"name":"연우FA","tel":"031-8059-3650","addr":"경기도 화성시 팔탄면 구장리 127-82번지 우리들유통타운 D동 201호","category":"전기제품 - 기타전기제품"},{"name":"오피스큐","tel":"070-4649-1103","addr":"경기도 화성시 팔탄면 구장리 127-82번지 D동 103,104호","category":"서적문구 - 문구용품"},{"name":"티엠툴스","tel":"031-8059-3521","addr":"경기도 화성시 팔탄면 구장리 127-82번지 우리들유통타운 D동 308호","category":"기타 - 기계공구"},{"name":"현성페인트","tel":"031-352-3590","addr":"경기도 화성시 팔탄면 구장리 127-82번지 우리들유통타운 D동 206호","category":"건축자재 - 페인트"}]},{"lat":"37.168910316","long":"126.89618908","items":[{"name":"소하한식부페","tel":"031-353-8706","addr":"경기도 화성시 팔탄면 구장리 32-1번지","category":"일반휴게음식 - 일반한식"}]},{"lat":"37.161609172","long":"126.90346087","items":[{"name":"수정축산","tel":"031-352-4402","addr":"경기도 화성시 팔탄면 구장리 554-2번지","category":"음료식품 - 정육점"},{"name":"이동빵구","tel":"070-4755-4786","addr":"경기도 화성시 팔탄면 구장리 554-2번지 201호","category":"자동차정비 유지 - 자동차정비"}]},{"lat":"37.161384193","long":"126.90379891","items":[{"name":"술이있어서카.이야기가있어서톡","tel":"031-354-7371","addr":"경기도 화성시 팔탄면 구장리 555-4","category":"일반휴게음식 - 스넥"},{"name":"은하미용실","tel":"031-353-1449","addr":"경기도 화성시 팔탄면 구장리 555-4번지","category":"보건위생 - 미용원"}]},{"lat":"37.170021138","long":"126.89904741","items":[{"name":"신성씨엔씨조각","tel":"031-297-6669","addr":"경기도 화성시 팔탄면 구장리 64번지 107호","category":"기타 - 기계공구"},{"name":"정원상사","tel":"031-353-5514","addr":"경기도 화성시 팔탄면 구장리 64번지 106호 나무상가","category":"유통업 영리 - 기타유통업"},{"name":"정인앵글","tel":"031-336-4313","addr":"경기도 화성시 팔탄면 구장리 64번지 104호,105호(나무상가)","category":"건축자재 - 목재·석재·철물"}]},{"lat":"37.163667705","long":"126.89782893","items":[{"name":"신진열기밸브상사","tel":"031-366-5418","addr":"경기도 화성시 팔탄면 구장리 146-1번지 모이지오유통상가 A동 101호","category":"건축자재 - 기타건축자재"},{"name":"현대기계공구","tel":"031-356-0944","addr":"경기도 화성시 팔탄면 구장리 146-1번지 B동 101호","category":"기타 - 기계공구"}]},{"lat":"37.171306509","long":"126.89554391","items":[{"name":"신현대특장","tel":"031-8059-0616","addr":"경기도 화성시 팔탄면 구장리 40","category":"자동차판매 - 기타운송"},{"name":"오륜종합특장","tel":"031-8059-0616","addr":"경기도 화성시 팔탄면 구장리 40","category":"자동차판매 - 기타운송"}]},{"lat":"37.158558997","long":"126.89807241","items":[{"name":"신흥자동화","tel":"031-354-0553","addr":"경기도 화성시 팔탄면 구장리 179-1번지","category":"전기제품 - 기타전기제품"},{"name":"전라도부페","tel":"031-8059-6116","addr":"경기도 화성시 팔탄면 구장리 179-1번지","category":"일반휴게음식 - 일반한식"}]},{"lat":"37.172276426","long":"126.90215202","items":[{"name":"씨유화성두림점","tel":"080-080-3663","addr":"경기도 화성시 팔탄면 구장리 75-29번지","category":"유통업 영리 - 편 의 점"}]},{"lat":"37.15861284","long":"126.89782466","items":[{"name":"아주전기온돌판넬","tel":"031-366-0486","addr":"경기도 화성시 팔탄면 구장리 179-4번지","category":"건축자재 - 기타건축자재"}]},{"lat":"37.169414869","long":"126.89615459","items":[{"name":"애드맥스","tel":"070-7008-4110","addr":"경기도 화성시 팔탄면 구장리 36-3번지 1층","category":"용역 서비스 - 종합용역"}]},{"lat":"37.160975054","long":"126.91040795","items":[{"name":"어구이","tel":"031-352-2760","addr":"경기도 화성시 팔탄면 구장리 888번지 1층","category":"일반휴게음식 - 일반한식"}]},{"lat":"37.161584008","long":"126.90571254","items":[{"name":"어울마당","tel":"031-352-1340","addr":"경기도 화성시 팔탄면 구장리 785번지","category":"일반휴게음식 - 일반한식"}]},{"lat":"37.167801607","long":"126.89571775","items":[{"name":"에버트레이드(주)","tel":"031-352-8554","addr":"경기도 화성시 팔탄면 구장리 25-1","category":"기타 - 기타 전문점"}]},{"lat":"37.156110573","long":"126.9119111","items":[{"name":"에스오에스화성","tel":"070-8947-4490","addr":"경기도 화성시 팔탄면 구장리 957-10번지 3층","category":"자동차정비 유지 - 견인서비스"},{"name":"에스오에스화성","tel":"031-352-1673","addr":"경기도 화성시 팔탄면 구장리 957-10번지 3층","category":"자동차정비 유지 - 자동차부품"}]},{"lat":"37.170915584","long":"126.8917725","items":[{"name":"에이케이(AK)툴마트","tel":"031-357-3981","addr":"경기도 화성시 팔탄면 구장리 3-27번지 3호","category":"자동차정비 유지 - 자동차부품"},{"name":"유일종합공구,델코밧데리직영점","tel":"031-366-6054","addr":"경기도 화성시 팔탄면 구장리 3-27","category":"기타 - 기계공구"},{"name":"주식회사 유일종합공구","tel":"031-366-6054","addr":"경기도 화성시 팔탄면 구장리 3-27번지","category":"기타 - 기계공구"},{"name":"플러스로또","tel":"031-359-8312","addr":"경기도 화성시 팔탄면 구장리 3-27번지","category":"신변잡화 - 기타잡화"}]},{"lat":"37.1633611","long":"126.89754789","items":[{"name":"엘케이호이스트","tel":"031-8059-5755","addr":"경기도 화성시 팔탄면 구장리 146-1번지 7동 110호","category":"기타 - 기계공구"}]},{"lat":"37.162890475","long":"126.90565458","items":[{"name":"여울농산","tel":"031-111-1111","addr":"경기도 화성시 팔탄면 구장리 780번지","category":"음료식품 - 농·축·수산품"}]},{"lat":"37.166611792","long":"126.8952353","items":[{"name":"연평도아구,꽃게","tel":"031-366-2528","addr":"경기도 화성시 팔탄면 구장리 113-15","category":"일반휴게음식 - 일반한식"}]},{"lat":"37.164248427","long":"126.89237897","items":[{"name":"열린컨테이너","tel":"031-352-6198","addr":"경기도 화성시 팔탄면 구장리 127-90번지","category":"건축자재 - 기타건축자재"}]},{"lat":"37.162384258","long":"126.90368502","items":[{"name":"영신약국","tel":"031-353-5816","addr":"경기도 화성시 팔탄면 구장리 572-2번지","category":"약국 - 약국"}]},{"lat":"37.160414728","long":"126.89759701","items":[{"name":"영풍종합상사","tel":"031-352-8441","addr":"경기도 화성시 팔탄면 구장리 159-2번지","category":"기타 - 기계공구"}]},{"lat":"37.167305092","long":"126.89468262","items":[{"name":"옛날김치돼지찌개","tel":"031-354-0183","addr":"경기도 화성시 팔탄면 구장리 113-6번지 1층","category":"일반휴게음식 - 일반한식"}]},{"lat":"37.149532097","long":"126.89987464","items":[{"name":"옛날서서갈비","tel":"031-352-9332","addr":"경기도 화성시 팔탄면 구장리 1014-8번지 1층","category":"일반휴게음식 - 일반한식"}]},{"lat":"37.161222353","long":"126.90421567","items":[{"name":"오토플러스카","tel":"031-352-5580","addr":"경기도 화성시 팔탄면 구장리 556-7번지","category":"자동차정비 유지 - 자동차정비"}]},{"lat":"37.169026246","long":"126.90524138","items":[{"name":"오피스RC퍼니처","tel":"031-366-4963","addr":"경기도 화성시 팔탄면 구장리 675-3번지","category":"가구 - 일반가구"}]},{"lat":"37.16985643","long":"126.89621026","items":[{"name":"완리타이어코리아","tel":"031-405-1152","addr":"경기도 화성시 팔탄면 구장리 37-1번지 B동","category":"자동차정비 유지 - 자동차시트·타이어"}]},{"lat":"37.1621576","long":"126.90203035","items":[{"name":"우리렌탈(개별)","tel":"031-226-6404","addr":"경기도 화성시 팔탄면 구장리 584번지 거림빌라 102동 402호","category":"용역 서비스 - 종합용역"}]},{"lat":"37.158805352","long":"126.90160701","items":[{"name":"우미1등한우식당","tel":"031-8059-2901","addr":"경기도 화성시 팔탄면 구장리 521-3번지 1층","category":"일반휴게음식 - 일반한식"},{"name":"우미한우정육점","tel":"070-8947-4490","addr":"경기도 화성시 팔탄면 구장리 521-3번지","category":"음료식품 - 정육점"},{"name":"태준용접기","tel":"031-353-9525","addr":"경기도 화성시 팔탄면 구장리 521-3번지","category":"기타 - 기계공구"}]},{"lat":"37.162023774","long":"126.90360669","items":[{"name":"워시프렌즈","tel":"","addr":"경기도 화성시 팔탄면 구장리 553-11번지 타임캐슬 B동 101호","category":"수리서비스 - 세탁소"}]},{"lat":"37.161556179","long":"126.90474437","items":[{"name":"원풍낙지","tel":"031-354-2555","addr":"경기도 화성시 팔탄면 구장리 556-1번지","category":"일반휴게음식 - 일반한식"}]},{"lat":"37.165744525","long":"126.89277085","items":[{"name":"위니드푸드","tel":"031-354-7275","addr":"경기도 화성시 팔탄면 구장리 127-2번지 3동 1층","category":"일반휴게음식 - 일반한식"}]},{"lat":"37.167831427","long":"126.89884774","items":[{"name":"유퍼스(U-FURS)","tel":"031-359-8800","addr":"경기도 화성시 팔탄면 구장리 106-4번지","category":"주방용구 - 주방용구"}]},{"lat":"37.171270843","long":"126.89596056","items":[{"name":"이레호이스트","tel":"031-366-5783","addr":"경기도 화성시 팔탄면 구장리 39-2","category":"건축자재 - 기타건축자재"}]},{"lat":"37.161662672","long":"126.9140998","items":[{"name":"인정가마솥옻닭","tel":"031-353-4593","addr":"경기도 화성시 팔탄면 구장리 917-14번지","category":"일반휴게음식 - 일반한식"}]},{"lat":"37.161024236","long":"126.90435103","items":[{"name":"자금성","tel":"031-353-5782","addr":"경기도 화성시 팔탄면 구장리 556-2번지","category":"일반휴게음식 - 중국식"}]},{"lat":"37.160834481","long":"126.90370956","items":[{"name":"장미영베이커리","tel":"031-353-3544","addr":"경기도 화성시 팔탄면 구장리 527-14","category":"음료식품 - 제과점"}]},{"lat":"37.169805351","long":"126.8995769","items":[{"name":"장연기공","tel":"02-1111-1111","addr":"경기도 화성시 팔탄면 구장리 86번지 1층 103호","category":"기타 - 기계공구"},{"name":"주식회사 유수하이텍","tel":"031-427-8858","addr":"경기도 화성시 팔탄면 구장리 86번지 101호","category":"건축자재 - 기타건축자재"},{"name":"코코왕돈가스","tel":"","addr":"경기도 화성시 팔탄면 구장리 86번지 1층 5호","category":"일반휴게음식 - 서양음식"}]},{"lat":"37.172474694","long":"126.9021968","items":[{"name":"재영정밀","tel":"031-359-8945","addr":"경기도 화성시 팔탄면 구장리 75-29번지 A동 5호","category":"기타 - 기계공구"},{"name":"차이홍","tel":"031-354-2624","addr":"경기도 화성시 팔탄면 구장리 75-29번지 A동 8호","category":"일반휴게음식 - 중국식"}]},{"lat":"37.16746817","long":"126.89566193","items":[{"name":"전주콩나물국밥","tel":"031-354-9971","addr":"경기도 화성시 팔탄면 구장리 23-8번지","category":"일반휴게음식 - 일반한식"},{"name":"추오정남원추어탕","tel":"031-353-7925","addr":"경기도 화성시 팔탄면 구장리 23-8번지","category":"일반휴게음식 - 일반한식"}]},{"lat":"37.168051633","long":"126.89324039","items":[{"name":"정수기계","tel":"031-354-0967","addr":"경기도 화성시 팔탄면 구장리 127-15","category":"기타 - 기계공구"},{"name":"주식회사 영화유공압","tel":"031-354-6944","addr":"경기도 화성시 팔탄면 구장리 127-15번지","category":"기타 - 기계공구"}]},{"lat":"37.160474045","long":"126.90368752","items":[{"name":"정원식당","tel":"031-352-6400","addr":"경기도 화성시 팔탄면 구장리 527-33번지","category":"일반휴게음식 - 일반한식"}]},{"lat":"37.172718433","long":"126.90273695","items":[{"name":"제일로링","tel":"031-366-2917","addr":"경기도 화성시 팔탄면 구장리 75-14번지","category":"자동차정비 유지 - 자동차부품"}]},{"lat":"37.159915228","long":"126.90348561","items":[{"name":"족보있는송가네","tel":"031-354-0558","addr":"경기도 화성시 팔탄면 구장리 526-8번지","category":"일반휴게음식 - 일반한식"}]},{"lat":"37.164054533","long":"126.89713036","items":[{"name":"좋은날","tel":"031-883-3401","addr":"경기도 화성시 팔탄면 구장리 146-4번지","category":"일반휴게음식 - 서양음식"},{"name":"주식회사에이치앤에스두리반","tel":"031-354-6090","addr":"경기도 화성시 팔탄면 구장리 146-4","category":"음료식품 - 제과점"}]},{"lat":"37.172240174","long":"126.90190436","items":[{"name":"주식회사 내차애모터스","tel":"031-8059-7797","addr":"경기도 화성시 팔탄면 구장리 75-29번지 C동 202호","category":"자동차판매 - 중고자동차판매"}]},{"lat":"37.157585799","long":"126.89799495","items":[{"name":"주식회사 대원미네랄판넬","tel":"031-352-9611","addr":"경기도 화성시 팔탄면 구장리 415-21번지","category":"건축자재 - 기타건축자재"}]},{"lat":"37.170188386","long":"126.90499218","items":[{"name":"주식회사 동일에스틱","tel":"031-366-1157","addr":"경기도 화성시 팔탄면 구장리 673-7번지 2동","category":"건축자재 - 기타건축자재"}]},{"lat":"37.164446394","long":"126.89209722","items":[{"name":"주식회사 삼성테크","tel":"031-354-3932","addr":"경기도 화성시 팔탄면 구장리 127-89번지 2동 2층","category":"기타 - 기계공구"}]},{"lat":"37.157780321","long":"126.89388565","items":[{"name":"주식회사 스튜디오미콘","tel":"031-831-3620","addr":"경기도 화성시 팔탄면 구장리 194-9번지 1동","category":"가구 - 일반가구"}]},{"lat":"37.16113635","long":"126.8984854","items":[{"name":"주식회사 아이엠티","tel":"031-8059-5022","addr":"경기도 화성시 팔탄면 구장리 158번지 1동","category":"기타 - 기계공구"}]},{"lat":"37.169965974","long":"126.89779769","items":[{"name":"주식회사성진테크","tel":"031-354-4167","addr":"경기도 화성시 팔탄면 구장리 35-4번지","category":"자동차판매 - 기타운송"}]},{"lat":"37.168105236","long":"126.89274491","items":[{"name":"진수성찬","tel":"031-353-2761","addr":"경기도 화성시 팔탄면 구장리 127-84번지 F동 2층 201호,202호,203호","category":"일반휴게음식 - 일반한식"},{"name":"한솔에스알(SR)","tel":"031-352-9995","addr":"경기도 화성시 팔탄면 구장리 127-84번지 우리들유통상가제에프동1층205,206호","category":"신변잡화 - 기타잡화"}]},{"lat":"37.164302151","long":"126.90210631","items":[{"name":"진호식품","tel":"031-111-1111","addr":"경기도 화성시 팔탄면 구장리 607-1번지","category":"음료식품 - 제과점"}]},{"lat":"37.160717346","long":"126.90370972","items":[{"name":"처갓집양념치킨팔탄점","tel":"031-352-6787","addr":"경기도 화성시 팔탄면 구장리 527-30번지 1층","category":"일반휴게음식 - 스넥"},{"name":"팔탄노래연습장","tel":"031-353-2518","addr":"경기도 화성시 팔탄면 구장리 527-30번지","category":"레저업소 - 노 래 방"},{"name":"팔탄열쇠도장","tel":"031-354-0188","addr":"경기도 화성시 팔탄면 구장리 527-30","category":"기타 - 기계공구"}]},{"lat":"37.162690979","long":"126.9041237","items":[{"name":"천궁노래연습장","tel":"070-8947-4490","addr":"경기도 화성시 팔탄면 구장리 567-5번지 2층","category":"레저업소 - 노 래 방"},{"name":"팔탄오토바이","tel":"070-4686-9412","addr":"경기도 화성시 팔탄면 구장리 567-5번지","category":"자동차판매 - 이륜차판매"}]},{"lat":"37.163833013","long":"126.91254359","items":[{"name":"청호인재개발원매점","tel":"031-354-0489","addr":"경기도 화성시 팔탄면 구장리 914-2번지","category":"음료식품 - 기타음료식품"}]},{"lat":"37.160940111","long":"126.91182651","items":[{"name":"케이투에이치","tel":"031-354-6676","addr":"경기도 화성시 팔탄면 구장리 893번지 (1층 일부 (104호) 2층 일부 (202호))","category":"일반휴게음식 - 서양음식"}]},{"lat":"37.160023079","long":"126.90315898","items":[{"name":"큐아이텍 (QI Tech)","tel":"031-354-9270","addr":"경기도 화성시 팔탄면 구장리 524-1번지","category":"기타 - 기계공구"},{"name":"혜민한의원","tel":"031-366-0278","addr":"경기도 화성시 팔탄면 구장리 524-1","category":"의원 - 한의원"}]},{"lat":"37.157800107","long":"126.89582193","items":[{"name":"클레버솔루션","tel":"070-8616-7569","addr":"경기도 화성시 팔탄면 구장리 194-1번지","category":"기타 - 기계공구"}]},{"lat":"37.16216211","long":"126.89687406","items":[{"name":"타이어아울렛 팔탄점","tel":"031-352-1819","addr":"경기도 화성시 팔탄면 구장리 142-4번지","category":"자동차정비 유지 - 자동차시트·타이어"},{"name":"타이어아울렛 팔탄점","tel":"031-352-1819","addr":"경기도 화성시 팔탄면 구장리 142-4번지 1층","category":"자동차정비 유지 - 자동차시트·타이어"}]},{"lat":"37.169247642","long":"126.90065855","items":[{"name":"태호 MCT","tel":"031-352-5380","addr":"경기도 화성시 팔탄면 구장리 76-6번지","category":"기타 - 기계공구"}]},{"lat":"37.170437873","long":"126.89160431","items":[{"name":"팀탑라인모터스(TEAM TOP LINE MOTORS)","tel":"031-352-3529","addr":"경기도 화성시 팔탄면 구장리 3-42번지","category":"자동차정비 유지 - 자동차시트·타이어"}]},{"lat":"37.163446293","long":"126.90226507","items":[{"name":"팔탄가든","tel":"031-354-5780","addr":"경기도 화성시 팔탄면 구장리 607-5번지","category":"일반휴게음식 - 일반한식"}]},{"lat":"37.161445247","long":"126.9014121","items":[{"name":"팔탄가스뱅크","tel":"031-352-8789","addr":"경기도 화성시 팔탄면 구장리 591-3번지","category":"연료판매점 - LPG 취급점"}]},{"lat":"37.170140688","long":"126.89177364","items":[{"name":"팔탄반점","tel":"031-354-5282","addr":"경기도 화성시 팔탄면 구장리 3-22번지 1층","category":"일반휴게음식 - 중국식"}]},{"lat":"37.161663329","long":"126.90357338","items":[{"name":"팔탄세탁소","tel":"031-353-4948","addr":"경기도 화성시 팔탄면 구장리 553-7","category":"수리서비스 - 세탁소"}]},{"lat":"37.161055256","long":"126.90927078","items":[{"name":"팔탄손세차","tel":"031-1577-0000","addr":"경기도 화성시 팔탄면 구장리 849-2번지","category":"자동차정비 유지 - 세차장"}]},{"lat":"37.161801924","long":"126.8971335","items":[{"name":"팔탄슈퍼","tel":"031-354-6690","addr":"경기도 화성시 팔탄면 구장리 141번지","category":"유통업 영리 - 슈퍼마켓"}]},{"lat":"37.160807224","long":"126.90343941","items":[{"name":"팔탄정보통신","tel":"031-354-0525","addr":"경기도 화성시 팔탄면 구장리 529-12번지","category":"사무통신 - 통신기기"}]},{"lat":"37.166414225","long":"126.89596741","items":[{"name":"팔탄천막종합공사","tel":"031-352-7335","addr":"경기도 화성시 팔탄면 구장리 112-7번지","category":"건축자재 - 기타건축자재"}]},{"lat":"37.159328686","long":"126.90246191","items":[{"name":"팔탄초병설유치원[아이행복]","tel":"031-353-2503","addr":"경기도 화성시 팔탄면 구장리 522-1번지","category":"학원 - 유치원"}]},{"lat":"37.161244608","long":"126.90943942","items":[{"name":"팔탄카센타","tel":"031-353-5100","addr":"경기도 화성시 팔탄면 구장리 846-3번지","category":"자동차정비 유지 - 자동차정비"}]},{"lat":"37.167639612","long":"126.8959319","items":[{"name":"페인트월마트팔탄점","tel":"031-352-7853","addr":"경기도 화성시 팔탄면 구장리 23-23번지","category":"건축자재 - 페인트"}]},{"lat":"37.1498923","long":"126.89962651","items":[{"name":"평산건업","tel":"031-353-0465","addr":"경기도 화성시 팔탄면 구장리 1010-14번지","category":"직물 - 카페트,커튼,천막,지물"}]},{"lat":"37.149081457","long":"126.89974017","items":[{"name":"풍년순대국족발","tel":"031-8059-0898","addr":"경기도 화성시 팔탄면 구장리 1015-24번지","category":"일반휴게음식 - 일반한식"}]},{"lat":"37.155336328","long":"126.91276758","items":[{"name":"한샘한식뷔페","tel":"031-352-6512","addr":"경기도 화성시 팔탄면 구장리 957번지","category":"일반휴게음식 - 일반한식"}]},{"lat":"37.160834604","long":"126.90385592","items":[{"name":"한울농기계설비","tel":"031-353-6595","addr":"경기도 화성시 팔탄면 구장리 527-29번지","category":"농업 - 농기계"}]},{"lat":"37.155915484","long":"126.91609907","items":[{"name":"행복한밥상","tel":"031-352-7136","addr":"경기도 화성시 팔탄면 구장리 949-18번지","category":"일반휴게음식 - 위탁급식업"}]},{"lat":"37.162000845","long":"126.89791004","items":[{"name":"현대부란자","tel":"031-352-6774","addr":"경기도 화성시 팔탄면 구장리 158-8","category":"건축자재 - 보일러·펌프·샷시"}]},{"lat":"37.148865059","long":"126.89957162","items":[{"name":"현성모터스","tel":"031-366-4544","addr":"경기도 화성시 팔탄면 구장리 1015-2","category":"자동차정비 유지 - 자동차정비"}]},{"lat":"37.162333762","long":"126.90804205","items":[{"name":"현양정밀","tel":"031-353-2857","addr":"경기도 화성시 팔탄면 구장리 748-1번지","category":"기타 - 기계공구"}]},{"lat":"37.168354623","long":"126.89952258","items":[{"name":"혜림정밀","tel":"031-8059-5636","addr":"경기도 화성시 팔탄면 구장리 106-10번지","category":"기타 - 기계공구"}]},{"lat":"37.167523779","long":"126.89738449","items":[{"name":"화성LPG충전소","tel":"031-354-6610","addr":"경기도 화성시 팔탄면 구장리 103번지","category":"연료판매점 - E1가스충전소"}]},{"lat":"37.161970705","long":"126.90480013","items":[{"name":"화성시니어클럽 노노카페 (팔탄면사무소점)","tel":"031-8059-4349","addr":"경기도 화성시 팔탄면 구장리 563번지","category":"일반휴게음식 - 서양음식"}]},{"lat":"37.159801114","long":"126.90715584","items":[{"name":"화성시햇살사과농원","tel":"070-1111-1111","addr":"경기도 화성시 팔탄면 구장리 254-1번지","category":"음료식품 - 농·축·수산품"}]},{"lat":"37.169413583","long":"126.89473591","items":[{"name":"화성연마","tel":"031-353-7336","addr":"경기도 화성시 팔탄면 구장리 38-42번지 상일프라자 101호","category":"기타 - 기계공구"}]},{"lat":"37.162550111","long":"126.89749272","items":[{"name":"화성종합파렛트","tel":"070-2699-0807","addr":"경기도 화성시 팔탄면 구장리 147번지","category":"건축자재 - 기타건축자재"}]},{"lat":"37.158280308","long":"126.89879329","items":[{"name":"효건강원","tel":"031-352-9998","addr":"경기도 화성시 팔탄면 구장리 180-4번지 1층","category":"건강식품 - 기타건강식품"},{"name":"효낚피싱마트","tel":"031-352-9998","addr":"경기도 화성시 팔탄면 구장리 180-4번지","category":"레져용품 - 스포츠·레져용품"}]}]