[{"lat":"37.510633027","long":"127.63385214","imageIndex":17,"items":[{"name":"GS25양평광탄리점","tel":"","addr":"경기도 양평군 용문면 광탄리 182-5번지","indutype":"유통업 영리 - 편 의 점","category":"other"}]},{"lat":"37.507387584","long":"127.63252421","imageIndex":17,"items":[{"name":"강바다낚시","tel":"031-771-4672","addr":"경기도 양평군 용문면 광탄리 165-5번지 1층 103호","indutype":"레져용품 - 스포츠·레져용품","category":"other"}]},{"lat":"37.511776584","long":"127.63901931","imageIndex":17,"items":[{"name":"경기도청/해양수산자원연구소","tel":"031-8008-6507","addr":"경기도 양평군 용문면 광탄리 235-1번지 해양수산자원연구소","indutype":"용역 서비스 - 사무서비스","category":"other"}]},{"lat":"37.515828951","long":"127.62587638","imageIndex":17,"items":[{"name":"고풍가구","tel":"031-772-6985","addr":"경기도 양평군 용문면 광탄리 389번지","indutype":"수리서비스 - 가정용품수리","category":"other"}]},{"lat":"37.510913229","long":"127.62519084","imageIndex":17,"items":[{"name":"광이쉼터","tel":"031-774-0173","addr":"경기도 양평군 용문면 광탄리 434-5","indutype":"유통업 영리 - 편 의 점","category":"other"},{"name":"용문장례식장","tel":"031-773-4321","addr":"경기도 양평군 용문면 광탄리 434-5번지 외2필지","indutype":"용역 서비스 - 가례서비스업","category":"other"}]},{"lat":"37.507743708","long":"127.63163373","imageIndex":17,"items":[{"name":"광창샤시","tel":"031-773-3959","addr":"경기도 양평군 용문면 광탄리 162-2번지","indutype":"용역 서비스 - 기타용역서비스","category":"other"}]},{"lat":"37.507749345","long":"127.63226712","imageIndex":17,"items":[{"name":"광탄낚시","tel":"031-772-2869","addr":"경기도 양평군 용문면 광탄리 175-4번지","indutype":"레져용품 - 스포츠·레져용품","category":"other"}]},{"lat":"37.512246096","long":"127.63715707","imageIndex":17,"items":[{"name":"구내매점","tel":"070-4194-6194","addr":"경기도 양평군 용문면 광탄리 235-8번지","indutype":"신변잡화 - 기타잡화","category":"other"}]},{"lat":"37.507191728","long":"127.63208149","imageIndex":17,"items":[{"name":"금호철물","tel":"031-774-4804","addr":"경기도 양평군 용문면 광탄리 73-2","indutype":"기타 - 기계공구","category":"other"}]},{"lat":"37.508224009","long":"127.63280267","imageIndex":17,"items":[{"name":"씨유양평광탄리점","tel":"031-772-7488","addr":"경기도 양평군 용문면 광탄리 175-8번지","indutype":"유통업 영리 - 편 의 점","category":"other"}]},{"lat":"37.511332914","long":"127.62590687","imageIndex":17,"items":[{"name":"중앙리빙샷시","tel":"031-775-2822","addr":"경기도 양평군 용문면 광탄리 433번지","indutype":"건축자재 - 기타건축자재","category":"other"}]},{"lat":"37.510055789","long":"127.63733081","imageIndex":17,"items":[{"name":"평창당","tel":"031-774-5370","addr":"경기도 양평군 용문면 광탄리 216번지","indutype":"문화.취미 - 민예·공예품","category":"other"}]}]