[{"lat":"37.274315833","long":"127.0152506","imageIndex":7,"items":[{"name":"(사)한국식생활문화협회","tel":"031-254-7730","addr":"경기도 수원시 팔달구 교동 4-2번지 남문타워 901호","indutype":"음료식품 - 농·축·수산품","category":"food"}]},{"lat":"37.272567898","long":"127.01467531","imageIndex":7,"items":[{"name":"마포축산유통","tel":"031-255-1264","addr":"경기도 수원시 팔달구 교동 93-3번지","indutype":"음료식품 - 정육점","category":"food"}]},{"lat":"37.269820031","long":"127.01156317","imageIndex":7,"items":[{"name":"멜로잉","tel":"070-7646-6946","addr":"경기도 수원시 팔달구 교동 178번지 로얄팰리스 801호","indutype":"음료식품 - 기타음료식품","category":"food"}]},{"lat":"37.270288565","long":"127.01156323","imageIndex":7,"items":[{"name":"믿음의기업 영광상회","tel":"031-235-1500","addr":"경기도 수원시 팔달구 교동 196-2번지 1층","indutype":"음료식품 - 농·축·수산품","category":"food"}]},{"lat":"37.26992818","long":"127.01120241","imageIndex":7,"items":[{"name":"신앙촌상회","tel":"031-223-2273","addr":"경기도 수원시 팔달구 교동 176번지 외1필지 101호","indutype":"음료식품 - 기타음료식품","category":"food"}]},{"lat":"37.269297479","long":"127.01092048","imageIndex":7,"items":[{"name":"우리건강원","tel":"031-233-1951","addr":"경기도 수원시 팔달구 교동 164-5번지","indutype":"건강식품 - 기타건강식품","category":"food"}]},{"lat":"37.271820105","long":"127.01405509","imageIndex":7,"items":[{"name":"유니베라","tel":"031-246-3730","addr":"경기도 수원시 팔달구 교동 84-1번지 경화빌딩 2층","indutype":"건강식품 - 기타건강식품","category":"food"}]},{"lat":"37.273712119","long":"127.01549855","imageIndex":7,"items":[{"name":"이에우","tel":"","addr":"경기도 수원시 팔달구 교동 103-1번지 신안빌딩 1층 106호","indutype":"음료식품 - 기타음료식품","category":"food"}]},{"lat":"37.27068502","long":"127.01152945","imageIndex":7,"items":[{"name":"파리바게트 교동점","tel":"031-243-6045","addr":"경기도 수원시 팔달구 교동 201-1번지","indutype":"음료식품 - 제과점","category":"food"}]},{"lat":"37.272594795","long":"127.01594935","imageIndex":7,"items":[{"name":"홍성광천","tel":"070-4334-7094","addr":"경기도 수원시 팔달구 교동 124-1번지 1층","indutype":"음료식품 - 정육점","category":"food"}]}]