[{"lat":"37.123459873","long":"127.61525348","imageIndex":9,"items":[{"name":"(주)승우상사","tel":"031-642-1888","addr":"경기도 이천시 장호원읍 장호원리 327-20번지","indutype":"연료판매점 - SK주유소","category":"oil"}]},{"lat":"37.123713315","long":"127.61503048","imageIndex":9,"items":[{"name":"장호원LPG충전소","tel":"031-642-4982","addr":"경기도 이천시 장호원읍 장호원리 327-13번지 장호원LPG충전소 (327-16)","indutype":"연료판매점 - LPG 취급점","category":"oil"}]},{"lat":"37.116100972","long":"127.63366881","imageIndex":9,"items":[{"name":"주식회사 유만에너지","tel":"042-826-7448","addr":"경기도 이천시 장호원읍 장호원리 77-9번지 1동","indutype":"연료판매점 - 유류판매","category":"oil"}]},{"lat":"37.116097702","long":"127.61364151","imageIndex":4,"items":[{"name":"100년 황태","tel":"","addr":"경기도 이천시 장호원읍 장호원리 340-1번지","indutype":"일반휴게음식 - 일반한식","category":"restaurant"},{"name":"밤도깨비","tel":"031-641-9992","addr":"경기도 이천시 장호원읍 장호원리 340-1번지","indutype":"일반휴게음식 - 주점","category":"restaurant"},{"name":"한맛","tel":"031-641-5400","addr":"경기도 이천시 장호원읍 장호원리 340-1번지","indutype":"일반휴게음식 - 일반한식","category":"restaurant"}]},{"lat":"37.116679536","long":"127.63161461","imageIndex":4,"items":[{"name":"2080","tel":"031-641-6421","addr":"경기도 이천시 장호원읍 장호원리 57-38","indutype":"일반휴게음식 - 일반한식","category":"restaurant"}]},{"lat":"37.11754509","long":"127.63150925","imageIndex":4,"items":[{"name":"59쌀피자(장호원점)","tel":"031-641-5919","addr":"경기도 이천시 장호원읍 장호원리 39-3번지","indutype":"일반휴게음식 - 서양음식","category":"restaurant"}]},{"lat":"37.116575575","long":"127.627417","imageIndex":4,"items":[{"name":"852패밀리카페","tel":"031-642-0082","addr":"경기도 이천시 장호원읍 장호원리 110-2번지 이기쁨음악학원 1동 1층","indutype":"일반휴게음식 - 일반한식","category":"restaurant"},{"name":"소담돈까스","tel":"031-641-8402","addr":"경기도 이천시 장호원읍 장호원리 110-2번지","indutype":"일반휴게음식 - 서양음식","category":"restaurant"}]},{"lat":"37.118045024","long":"127.62898178","imageIndex":4,"items":[{"name":"BBQ(장호원행복점)","tel":"031-641-9282","addr":"경기도 이천시 장호원읍 장호원리 140-14번지","indutype":"일반휴게음식 - 스넥","category":"restaurant"}]},{"lat":"37.118072557","long":"127.63059098","imageIndex":4,"items":[{"name":"BHC장호원점","tel":"031-642-8292","addr":"경기도 이천시 장호원읍 장호원리 142-17번지","indutype":"일반휴게음식 - 스넥","category":"restaurant"},{"name":"웅's 포차","tel":"031-641-2228","addr":"경기도 이천시 장호원읍 장호원리 142-17번지","indutype":"일반휴게음식 - 일반한식","category":"restaurant"}]},{"lat":"37.118043003","long":"127.62936432","imageIndex":4,"items":[{"name":"강태공","tel":"031-642-8253","addr":"경기도 이천시 장호원읍 장호원리 140-8번지 1층","indutype":"일반휴게음식 - 일반한식","category":"restaurant"}]},{"lat":"37.122623739","long":"127.61664203","imageIndex":4,"items":[{"name":"공주얼큰이칼국수쭈꾸미","tel":"031-642-8876","addr":"경기도 이천시 장호원읍 장호원리 314-6번지 공주얼큰이칼국수쭈꾸미","indutype":"일반휴게음식 - 일반한식","category":"restaurant"}]},{"lat":"37.117159327","long":"127.62778184","imageIndex":4,"items":[{"name":"교동짬뽕","tel":"031-641-0118","addr":"경기도 이천시 장호원읍 장호원리 112-22번지","indutype":"일반휴게음식 - 중국식","category":"restaurant"}]},{"lat":"37.1184092","long":"127.62997492","imageIndex":4,"items":[{"name":"구노포차","tel":"031-641-7881","addr":"경기도 이천시 장호원읍 장호원리 141-8번지","indutype":"일반휴게음식 - 일반한식","category":"restaurant"},{"name":"벌떼호프","tel":"031-642-3448","addr":"경기도 이천시 장호원읍 장호원리 141-8번지 1층","indutype":"일반휴게음식 - 주점","category":"restaurant"},{"name":"정석통바베큐족구이 장호원점","tel":"031-641-7792","addr":"경기도 이천시 장호원읍 장호원리 141-8번지","indutype":"일반휴게음식 - 일반한식","category":"restaurant"},{"name":"최가네양꼬치","tel":"031-641-5888","addr":"경기도 이천시 장호원읍 장호원리 141-8번지 1층","indutype":"일반휴게음식 - 일반한식","category":"restaurant"}]},{"lat":"37.115770274","long":"127.61597914","imageIndex":4,"items":[{"name":"그라치아","tel":"","addr":"경기도 이천시 장호원읍 장호원리 404번지","indutype":"일반휴게음식 - 서양음식","category":"restaurant"}]},{"lat":"37.123707675","long":"127.61612191","imageIndex":4,"items":[{"name":"그램그램 장호원점","tel":"031-642-9392","addr":"경기도 이천시 장호원읍 장호원리 317-22번지","indutype":"일반휴게음식 - 일반한식","category":"restaurant"},{"name":"김길자진곰탕","tel":"031-642-8113","addr":"경기도 이천시 장호원읍 장호원리 317-22번지 1층","indutype":"일반휴게음식 - 일반한식","category":"restaurant"}]},{"lat":"37.117209028","long":"127.63031382","imageIndex":4,"items":[{"name":"금싸리호프","tel":"031-641-5660","addr":"경기도 이천시 장호원읍 장호원리 114-12번지","indutype":"일반휴게음식 - 주점","category":"restaurant"}]},{"lat":"37.11713081","long":"127.63147207","imageIndex":4,"items":[{"name":"김밥천국장호원점","tel":"031-641-4556","addr":"경기도 이천시 장호원읍 장호원리 45-7번지","indutype":"일반휴게음식 - 일반한식","category":"restaurant"}]},{"lat":"37.118350555","long":"127.63084081","imageIndex":4,"items":[{"name":"김성래피자,하나로치킨","tel":"031-642-0857","addr":"경기도 이천시 장호원읍 장호원리 142-7번지 B동","indutype":"일반휴게음식 - 서양음식","category":"restaurant"},{"name":"명가 92","tel":"031-642-6592","addr":"경기도 이천시 장호원읍 장호원리 142-7번지","indutype":"일반휴게음식 - 일반한식","category":"restaurant"}]},{"lat":"37.114435336","long":"127.63173107","imageIndex":4,"items":[{"name":"꼴갑야식","tel":"031-643-0624","addr":"경기도 이천시 장호원읍 장호원리 87번지","indutype":"일반휴게음식 - 일반한식","category":"restaurant"}]},{"lat":"37.116741159","long":"127.63358411","imageIndex":4,"items":[{"name":"꿀꿀고깃집","tel":"031-641-0720","addr":"경기도 이천시 장호원읍 장호원리 68-4번지","indutype":"일반휴게음식 - 일반한식","category":"restaurant"}]},{"lat":"37.118097382","long":"127.6310075","imageIndex":4,"items":[{"name":"난이네삼겹살","tel":"031-641-1997","addr":"경기도 이천시 장호원읍 장호원리 142-6번지","indutype":"일반휴게음식 - 일반한식","category":"restaurant"},{"name":"원샷","tel":"031-643-8078","addr":"경기도 이천시 장호원읍 장호원리 142-6번지","indutype":"일반휴게음식 - 일반한식","category":"restaurant"}]},{"lat":"37.117437075","long":"127.62978688","imageIndex":4,"items":[{"name":"누드만두(장호원점)","tel":"031-641-0110","addr":"경기도 이천시 장호원읍 장호원리 117-8번지","indutype":"일반휴게음식 - 일반한식","category":"restaurant"}]},{"lat":"37.11896371","long":"127.63075586","imageIndex":4,"items":[{"name":"다정오리","tel":"031-643-5288","addr":"경기도 이천시 장호원읍 장호원리 144번지","indutype":"일반휴게음식 - 일반한식","category":"restaurant"}]},{"lat":"37.117742781","long":"127.62820294","imageIndex":4,"items":[{"name":"달라스햄버거","tel":"031-641-5479","addr":"경기도 이천시 장호원읍 장호원리 112-12","indutype":"일반휴게음식 - 스넥","category":"restaurant"}]},{"lat":"37.118378452","long":"127.62897328","imageIndex":4,"items":[{"name":"닭바리","tel":"00-000-000","addr":"경기도 이천시 장호원읍 장호원리 140-18번지","indutype":"일반휴게음식 - 일반한식","category":"restaurant"}]},{"lat":"37.118790733","long":"127.63109199","imageIndex":4,"items":[{"name":"대구이모막창","tel":"031-642-2559","addr":"경기도 이천시 장호원읍 장호원리 31-6번지 1층","indutype":"일반휴게음식 - 일반한식","category":"restaurant"}]},{"lat":"37.118575804","long":"127.63084267","imageIndex":4,"items":[{"name":"덕성옥","tel":"031-641-2143","addr":"경기도 이천시 장호원읍 장호원리 143-4번지","indutype":"일반휴게음식 - 중국식","category":"restaurant"}]},{"lat":"37.11712901","long":"127.63011063","imageIndex":4,"items":[{"name":"도깨비왕만두","tel":"031-000-0000","addr":"경기도 이천시 장호원읍 장호원리 114-15번지 1층","indutype":"일반휴게음식 - 일반한식","category":"restaurant"},{"name":"토마토아저씨","tel":"031-642-9068","addr":"경기도 이천시 장호원읍 장호원리 114-15번지 2층","indutype":"일반휴게음식 - 서양음식","category":"restaurant"}]},{"lat":"37.117264754","long":"127.63339717","imageIndex":4,"items":[{"name":"돈탑","tel":"031-642-9090","addr":"경기도 이천시 장호원읍 장호원리 66-7번지 2층","indutype":"일반휴게음식 - 일반한식","category":"restaurant"}]},{"lat":"37.116157479","long":"127.62981009","imageIndex":4,"items":[{"name":"동경반점","tel":"031-642-4758","addr":"경기도 이천시 장호원읍 장호원리 100-10번지","indutype":"일반휴게음식 - 중국식","category":"restaurant"}]},{"lat":"37.120541203","long":"127.62892358","imageIndex":4,"items":[{"name":"동그라미통닭","tel":"031-643-2279","addr":"경기도 이천시 장호원읍 장호원리 181-102번지 영보상가주택 109호","indutype":"일반휴게음식 - 서양음식","category":"restaurant"},{"name":"하루이야기","tel":"031-641-3399","addr":"경기도 이천시 장호원읍 장호원리 181-102번지 영보상가주택 104호","indutype":"일반휴게음식 - 일반한식","category":"restaurant"}]},{"lat":"37.115905715","long":"127.61592398","imageIndex":4,"items":[{"name":"동락원","tel":"031-643-5054","addr":"경기도 이천시 장호원읍 장호원리 400-2","indutype":"일반휴게음식 - 중국식","category":"restaurant"},{"name":"세부(cebu)","tel":"031-641-5256","addr":"경기도 이천시 장호원읍 장호원리 400-2번지","indutype":"일반휴게음식 - 주점","category":"restaurant"}]},{"lat":"37.115743818","long":"127.61412247","imageIndex":4,"items":[{"name":"동신참치","tel":"031-643-0033","addr":"경기도 이천시 장호원읍 장호원리 394번지 1층","indutype":"일반휴게음식 - 일식·회집","category":"restaurant"},{"name":"채선당 장호원점","tel":"031-643-0088","addr":"경기도 이천시 장호원읍 장호원리 394","indutype":"일반휴게음식 - 일반한식","category":"restaurant"}]},{"lat":"37.118238686","long":"127.62813951","imageIndex":4,"items":[{"name":"동진양꼬치","tel":"070-8872-0168","addr":"경기도 이천시 장호원읍 장호원리 135-11번지 2층","indutype":"일반휴게음식 - 중국식","category":"restaurant"}]},{"lat":"37.118403006","long":"127.63114504","imageIndex":4,"items":[{"name":"동태먹자","tel":"031-642-1423","addr":"경기도 이천시 장호원읍 장호원리 35-4번지","indutype":"일반휴게음식 - 일반한식","category":"restaurant"}]},{"lat":"37.119184653","long":"127.6298688","imageIndex":4,"items":[{"name":"돼지살류","tel":"031-643-7500","addr":"경기도 이천시 장호원읍 장호원리 145-19","indutype":"일반휴게음식 - 일반한식","category":"restaurant"},{"name":"맨발의청춘","tel":"031-641-4855","addr":"경기도 이천시 장호원읍 장호원리 145-19번지","indutype":"일반휴게음식 - 일반한식","category":"restaurant"},{"name":"오오이오","tel":"031-643-5525","addr":"경기도 이천시 장호원읍 장호원리 145-19번지","indutype":"일반휴게음식 - 일반한식","category":"restaurant"}]},{"lat":"37.116074926","long":"127.61456394","imageIndex":4,"items":[{"name":"돼지한마리","tel":"031-638-4482","addr":"경기도 이천시 장호원읍 장호원리 392-3번지","indutype":"일반휴게음식 - 일반한식","category":"restaurant"}]},{"lat":"37.119961593","long":"127.62948139","imageIndex":4,"items":[{"name":"드소소","tel":"031-642-6304","addr":"경기도 이천시 장호원읍 장호원리 149-14번지","indutype":"일반휴게음식 - 일반한식","category":"restaurant"}]},{"lat":"37.116793349","long":"127.62883646","imageIndex":4,"items":[{"name":"디디치킨(장호원점)","tel":"031-642-0555","addr":"경기도 이천시 장호원읍 장호원리 111-8번지","indutype":"일반휴게음식 - 일반한식","category":"restaurant"},{"name":"부산아지매","tel":"031-641-1757","addr":"경기도 이천시 장호원읍 장호원리 111-8번지 외1필지","indutype":"일반휴게음식 - 주점","category":"restaurant"}]},{"lat":"37.118016983","long":"127.62917283","imageIndex":4,"items":[{"name":"딱한잔만","tel":"031-641-9117","addr":"경기도 이천시 장호원읍 장호원리 140-12번지 1층","indutype":"일반휴게음식 - 주점","category":"restaurant"}]},{"lat":"37.117211721","long":"127.63150649","imageIndex":4,"items":[{"name":"롯데리아장호원점","tel":"031-641-0451","addr":"경기도 이천시 장호원읍 장호원리 45-13번지","indutype":"일반휴게음식 - 서양음식","category":"restaurant"}]},{"lat":"37.118988634","long":"127.62945087","imageIndex":4,"items":[{"name":"마산아구찜","tel":"031-642-0479","addr":"경기도 이천시 장호원읍 장호원리 148-7번지","indutype":"일반휴게음식 - 일반한식","category":"restaurant"}]},{"lat":"37.117327229","long":"127.63011227","imageIndex":4,"items":[{"name":"마초떡볶이","tel":"031-643-0407","addr":"경기도 이천시 장호원읍 장호원리 116-7번지","indutype":"일반휴게음식 - 일반한식","category":"restaurant"},{"name":"만리장","tel":"031-642-7233","addr":"경기도 이천시 장호원읍 장호원리 116-7번지","indutype":"일반휴게음식 - 중국식","category":"restaurant"},{"name":"카페하루","tel":"031-642-9173","addr":"경기도 이천시 장호원읍 장호원리 116-7번지","indutype":"일반휴게음식 - 서양음식","category":"restaurant"}]},{"lat":"37.117129605","long":"127.63339605","imageIndex":4,"items":[{"name":"만사성","tel":"031-642-9002","addr":"경기도 이천시 장호원읍 장호원리 67-3번지 2층","indutype":"일반휴게음식 - 일반한식","category":"restaurant"}]},{"lat":"37.116791044","long":"127.62756504","imageIndex":4,"items":[{"name":"맘마분식","tel":"043-882-5543","addr":"경기도 이천시 장호원읍 장호원리 110-3번지 2동 1층","indutype":"일반휴게음식 - 일반한식","category":"restaurant"},{"name":"오봉도시락","tel":"031-641-5050","addr":"경기도 이천시 장호원읍 장호원리 110-3번지 2동","indutype":"일반휴게음식 - 일반한식","category":"restaurant"}]},{"lat":"37.117827083","long":"127.63100526","imageIndex":4,"items":[{"name":"몽마르죠","tel":"031-642-7177","addr":"경기도 이천시 장호원읍 장호원리 115-1번지 1층","indutype":"일반휴게음식 - 주점","category":"restaurant"}]},{"lat":"37.118047399","long":"127.62853174","imageIndex":4,"items":[{"name":"미쳐버린파닭","tel":"031-643-9977","addr":"경기도 이천시 장호원읍 장호원리 138-5번지 1층","indutype":"일반휴게음식 - 일반한식","category":"restaurant"},{"name":"원가네할매보쌈","tel":"031-641-4489","addr":"경기도 이천시 장호원읍 장호원리 138-5번지","indutype":"일반휴게음식 - 일반한식","category":"restaurant"}]},{"lat":"37.117269894","long":"127.63073063","imageIndex":4,"items":[{"name":"버블캔(Bubble Can)","tel":"031-0000-0000","addr":"경기도 이천시 장호원읍 장호원리 114-27번지","indutype":"일반휴게음식 - 서양음식","category":"restaurant"},{"name":"천차지우","tel":"031-0000-0000","addr":"경기도 이천시 장호원읍 장호원리 114-27번지 1층","indutype":"일반휴게음식 - 서양음식","category":"restaurant"}]},{"lat":"37.115907519","long":"127.62936923","imageIndex":4,"items":[{"name":"병천토종순대국","tel":"031-643-3335","addr":"경기도 이천시 장호원읍 장호원리 102-10번지","indutype":"일반휴게음식 - 일반한식","category":"restaurant"}]},{"lat":"37.116882467","long":"127.63242639","imageIndex":4,"items":[{"name":"보리마당","tel":"031-642-1941","addr":"경기도 이천시 장호원읍 장호원리 62-17번지","indutype":"일반휴게음식 - 일반한식","category":"restaurant"}]},{"lat":"37.118708314","long":"127.62963984","imageIndex":4,"items":[{"name":"보리밥이랑","tel":"031-641-0328","addr":"경기도 이천시 장호원읍 장호원리 141-5번지 외2필지","indutype":"일반휴게음식 - 일반한식","category":"restaurant"},{"name":"풍류포차","tel":"031-641-1115","addr":"경기도 이천시 장호원읍 장호원리 141-5번지","indutype":"일반휴게음식 - 일반한식","category":"restaurant"},{"name":"한잔의추억","tel":"031-641-4058","addr":"경기도 이천시 장호원읍 장호원리 141-5번지 1층","indutype":"일반휴게음식 - 일반한식","category":"restaurant"}]},{"lat":"37.11598541","long":"127.63167638","imageIndex":4,"items":[{"name":"복돼지뼈해장국","tel":"031-641-6851","addr":"경기도 이천시 장호원읍 장호원리 57-21번지","indutype":"일반휴게음식 - 일반한식","category":"restaurant"}]},{"lat":"37.115548214","long":"127.63256161","imageIndex":4,"items":[{"name":"복명가함흥냉면","tel":"031-642-6550","addr":"경기도 이천시 장호원읍 장호원리 72-11번지","indutype":"일반휴게음식 - 일반한식","category":"restaurant"}]},{"lat":"37.116548179","long":"127.62919449","imageIndex":4,"items":[{"name":"본죽(장호원점)","tel":"031-642-6288","addr":"경기도 이천시 장호원읍 장호원리 101-11번지","indutype":"일반휴게음식 - 일반한식","category":"restaurant"}]},{"lat":"37.116934022","long":"127.63120041","imageIndex":4,"items":[{"name":"봉구스밥버거장호원점","tel":"031-643-1005","addr":"경기도 이천시 장호원읍 장호원리 46-4번지","indutype":"일반휴게음식 - 스넥","category":"restaurant"}]},{"lat":"37.117824563","long":"127.62977883","imageIndex":4,"items":[{"name":"부부스넥","tel":"031-641-4144","addr":"경기도 이천시 장호원읍 장호원리 117-5번지 1층 지상 1층","indutype":"일반휴게음식 - 일반한식","category":"restaurant"}]},{"lat":"37.118792223","long":"127.63081071","imageIndex":4,"items":[{"name":"불꽃마루동동주","tel":"031-642-1998","addr":"경기도 이천시 장호원읍 장호원리 143-1","indutype":"일반휴게음식 - 일반한식","category":"restaurant"},{"name":"어부김씨","tel":"031-641-9059","addr":"경기도 이천시 장호원읍 장호원리 143-1번지 1층 1호","indutype":"일반휴게음식 - 일반한식","category":"restaurant"}]},{"lat":"37.11826516","long":"127.62995123","imageIndex":4,"items":[{"name":"불닭발","tel":"031-641-0888","addr":"경기도 이천시 장호원읍 장호원리 141-32번지","indutype":"일반휴게음식 - 일반한식","category":"restaurant"}]},{"lat":"37.119017745","long":"127.6290573","imageIndex":4,"items":[{"name":"사계절식당","tel":"031-642-2044","addr":"경기도 이천시 장호원읍 장호원리 162-7번지","indutype":"일반휴게음식 - 일반한식","category":"restaurant"}]},{"lat":"37.117266956","long":"127.62958295","imageIndex":4,"items":[{"name":"사신떡볶이","tel":"02-1234-1234","addr":"경기도 이천시 장호원읍 장호원리 118-8번지 경안빌딩","indutype":"일반휴게음식 - 스넥","category":"restaurant"},{"name":"스마일명품꽈배기","tel":"031-641-3588","addr":"경기도 이천시 장호원읍 장호원리 118-8번지 경안빌딩 101호","indutype":"일반휴게음식 - 스넥","category":"restaurant"}]},{"lat":"37.119070021","long":"127.62939529","imageIndex":4,"items":[{"name":"삼성식당","tel":"031-642-2534","addr":"경기도 이천시 장호원읍 장호원리 148-9번지","indutype":"일반휴게음식 - 일반한식","category":"restaurant"}]},{"lat":"37.117207897","long":"127.63052759","imageIndex":4,"items":[{"name":"새벽닭옛날통닭","tel":"031-642-9291","addr":"경기도 이천시 장호원읍 장호원리 114-11번지 1층","indutype":"일반휴게음식 - 스넥","category":"restaurant"}]},{"lat":"37.124152247","long":"127.61552912","imageIndex":4,"items":[{"name":"샘재로밥상","tel":"031-643-8882","addr":"경기도 이천시 장호원읍 장호원리 327번지","indutype":"일반휴게음식 - 일반한식","category":"restaurant"}]},{"lat":"37.116353551","long":"127.63361465","imageIndex":4,"items":[{"name":"생극해장국 이천장호원점","tel":"031-642-1989","addr":"경기도 이천시 장호원읍 장호원리 77-10번지 201호","indutype":"일반휴게음식 - 일반한식","category":"restaurant"}]},{"lat":"37.117292796","long":"127.6298082","imageIndex":4,"items":[{"name":"소문난청담김밥","tel":"031-642-3335","addr":"경기도 이천시 장호원읍 장호원리 113-1번지 1층","indutype":"일반휴게음식 - 일반한식","category":"restaurant"}]},{"lat":"37.116707198","long":"127.6160092","imageIndex":4,"items":[{"name":"쉘위커피","tel":"031-643-3792","addr":"경기도 이천시 장호원읍 장호원리 380번지","indutype":"일반휴게음식 - 서양음식","category":"restaurant"}]},{"lat":"37.117124223","long":"127.62931174","imageIndex":4,"items":[{"name":"스시이시","tel":"031-643-1933","addr":"경기도 이천시 장호원읍 장호원리 112-13번지","indutype":"일반휴게음식 - 일식·회집","category":"restaurant"}]},{"lat":"37.118738851","long":"127.62897624","imageIndex":4,"items":[{"name":"스타호프","tel":"031-642-9233","addr":"경기도 이천시 장호원읍 장호원리 138-2번지 1층","indutype":"일반휴게음식 - 주점","category":"restaurant"}]},{"lat":"37.114993238","long":"127.63187069","imageIndex":4,"items":[{"name":"시장정육식당","tel":"031-641-4035","addr":"경기도 이천시 장호원읍 장호원리 52-34번지 1층","indutype":"일반휴게음식 - 일반한식","category":"restaurant"}]},{"lat":"37.117211771","long":"127.63319421","imageIndex":4,"items":[{"name":"아날로그카페","tel":"031-642-3342","addr":"경기도 이천시 장호원읍 장호원리 67-2번지","indutype":"일반휴게음식 - 일반한식","category":"restaurant"}]},{"lat":"37.116574436","long":"127.62934097","imageIndex":4,"items":[{"name":"아리랑집","tel":"031-641-2427","addr":"경기도 이천시 장호원읍 장호원리 101-2번지","indutype":"일반휴게음식 - 일반한식","category":"restaurant"},{"name":"아제비만두","tel":"031-641-6711","addr":"경기도 이천시 장호원읍 장호원리 101-2번지","indutype":"일반휴게음식 - 일반한식","category":"restaurant"}]},{"lat":"37.115130178","long":"127.63153429","imageIndex":4,"items":[{"name":"양평칼국수","tel":"031-642-4929","addr":"경기도 이천시 장호원읍 장호원리 50-9번지 1층","indutype":"일반휴게음식 - 일반한식","category":"restaurant"}]},{"lat":"37.117962708","long":"127.63261535","imageIndex":4,"items":[{"name":"엔분의일","tel":"031-641-9000","addr":"경기도 이천시 장호원읍 장호원리 64번지","indutype":"일반휴게음식 - 서양음식","category":"restaurant"}]},{"lat":"37.117375448","long":"127.62780612","imageIndex":4,"items":[{"name":"옛날전통추어탕","tel":"031-641-8181","addr":"경기도 이천시 장호원읍 장호원리 121-4번지","indutype":"일반휴게음식 - 일반한식","category":"restaurant"}]},{"lat":"37.117819146","long":"127.63250165","imageIndex":4,"items":[{"name":"옛맛","tel":"031-642-4547","addr":"경기도 이천시 장호원읍 장호원리 64-3번지 1층","indutype":"일반휴게음식 - 일반한식","category":"restaurant"}]},{"lat":"37.118074045","long":"127.63030971","imageIndex":4,"items":[{"name":"오꾸꼬","tel":"031-643-5992","addr":"경기도 이천시 장호원읍 장호원리 141-48","indutype":"일반휴게음식 - 스넥","category":"restaurant"}]},{"lat":"37.116855112","long":"127.6290845","imageIndex":4,"items":[{"name":"오니기리와이규동 (장호원점)","tel":"031-642-0290","addr":"경기도 이천시 장호원읍 장호원리 111-6번지","indutype":"일반휴게음식 - 스넥","category":"restaurant"},{"name":"일번지","tel":"031-641-5171","addr":"경기도 이천시 장호원읍 장호원리 111-6번지","indutype":"일반휴게음식 - 일반한식","category":"restaurant"}]},{"lat":"37.118270955","long":"127.63055887","imageIndex":4,"items":[{"name":"오뚱탕","tel":"031-641-6532","addr":"경기도 이천시 장호원읍 장호원리 142-9번지","indutype":"일반휴게음식 - 일반한식","category":"restaurant"}]},{"lat":"37.117069866","long":"127.62936755","imageIndex":4,"items":[{"name":"요거프레소(장호원점)","tel":"031-641-4866","addr":"경기도 이천시 장호원읍 장호원리 112-14번지","indutype":"일반휴게음식 - 서양음식","category":"restaurant"}]},{"lat":"37.118154605","long":"127.63211062","imageIndex":4,"items":[{"name":"용구비어장호원점","tel":"031-643-0990","addr":"경기도 이천시 장호원읍 장호원리 14-2번지","indutype":"일반휴게음식 - 주점","category":"restaurant"}]},{"lat":"37.118687795","long":"127.63011224","imageIndex":4,"items":[{"name":"우담","tel":"031-642-4408","addr":"경기도 이천시 장호원읍 장호원리 143-6번지 102호","indutype":"일반휴게음식 - 일반한식","category":"restaurant"}]},{"lat":"37.11820756","long":"127.62891561","imageIndex":4,"items":[{"name":"원가네할매보쌈","tel":"031-641-4489","addr":"경기도 이천시 장호원읍 장호원리 140-17번지","indutype":"일반휴게음식 - 일반한식","category":"restaurant"}]},{"lat":"37.117957809","long":"127.63013997","imageIndex":4,"items":[{"name":"위드치킨","tel":"031-641-9298","addr":"경기도 이천시 장호원읍 장호원리 117-24번지 1층","indutype":"일반휴게음식 - 일반한식","category":"restaurant"}]},{"lat":"37.117546638","long":"127.62780752","imageIndex":4,"items":[{"name":"응급실국물떡볶이 장호원점","tel":"031-643-0119","addr":"경기도 이천시 장호원읍 장호원리 120-24번지 1층","indutype":"일반휴게음식 - 스넥","category":"restaurant"}]},{"lat":"37.117076571","long":"127.63150538","imageIndex":4,"items":[{"name":"이가촌낙지쭈꾸미","tel":"031-642-6875","addr":"경기도 이천시 장호원읍 장호원리 45-8번지","indutype":"일반휴게음식 - 일반한식","category":"restaurant"}]},{"lat":"37.117630564","long":"127.62897837","imageIndex":4,"items":[{"name":"이삭토스트전문점(장호원점)","tel":"031-642-4123","addr":"경기도 이천시 장호원읍 장호원리 118-24번지","indutype":"일반휴게음식 - 스넥","category":"restaurant"}]},{"lat":"37.117738862","long":"127.62894551","imageIndex":4,"items":[{"name":"이치방","tel":"031-641-2064","addr":"경기도 이천시 장호원읍 장호원리 118-18번지","indutype":"일반휴게음식 - 일반한식","category":"restaurant"}]},{"lat":"37.117518164","long":"127.62978755","imageIndex":4,"items":[{"name":"인생술집","tel":"031-521-1492","addr":"경기도 이천시 장호원읍 장호원리 117-9번지 2층","indutype":"일반휴게음식 - 주점","category":"restaurant"},{"name":"치킨매니아장호원점","tel":"031-641-9277","addr":"경기도 이천시 장호원읍 장호원리 117-9번지 1층","indutype":"일반휴게음식 - 일반한식","category":"restaurant"}]},{"lat":"37.116410651","long":"127.6296434","imageIndex":4,"items":[{"name":"일순이네왕족발","tel":"","addr":"경기도 이천시 장호원읍 장호원리 100-11번지","indutype":"일반휴게음식 - 일반한식","category":"restaurant"}]},{"lat":"37.116906455","long":"127.62789227","imageIndex":4,"items":[{"name":"자매식당","tel":"031-643-9998","addr":"경기도 이천시 장호원읍 장호원리 110-16번지","indutype":"일반휴게음식 - 일반한식","category":"restaurant"}]},{"lat":"37.117235946","long":"127.63203551","imageIndex":4,"items":[{"name":"장원숯불갈비","tel":"031-641-9333","addr":"경기도 이천시 장호원읍 장호원리 43-1번지 1층","indutype":"일반휴게음식 - 일반한식","category":"restaurant"}]},{"lat":"37.119160121","long":"127.62939603","imageIndex":4,"items":[{"name":"장충동엄지왕족발보쌈","tel":"031-643-5554","addr":"경기도 이천시 장호원읍 장호원리 148-10번지","indutype":"일반휴게음식 - 일반한식","category":"restaurant"}]},{"lat":"37.116042669","long":"127.62937034","imageIndex":4,"items":[{"name":"장터팥죽","tel":"031-641-2762","addr":"경기도 이천시 장호원읍 장호원리 102-9번지","indutype":"일반휴게음식 - 일반한식","category":"restaurant"}]},{"lat":"37.118182252","long":"127.62858911","imageIndex":4,"items":[{"name":"장호원황소곱창","tel":"031-642-7292","addr":"경기도 이천시 장호원읍 장호원리 139-8번지 1층","indutype":"일반휴게음식 - 일반한식","category":"restaurant"}]},{"lat":"37.118937159","long":"127.63236464","imageIndex":4,"items":[{"name":"좋아서 하는 카페","tel":"070-4195-2345","addr":"경기도 이천시 장호원읍 장호원리 7-1번지 보광빌딩 2층","indutype":"일반휴게음식 - 서양음식","category":"restaurant"}]},{"lat":"37.116262681","long":"127.61659068","imageIndex":4,"items":[{"name":"준웨딩홀뷔페","tel":"031-643-7979","addr":"경기도 이천시 장호원읍 장호원리 272-1번지 2층 3층","indutype":"일반휴게음식 - 일반한식","category":"restaurant"}]},{"lat":"37.117518537","long":"127.63141902","imageIndex":4,"items":[{"name":"쥬시빈장호원점","tel":"070-5474-9619","addr":"경기도 이천시 장호원읍 장호원리 39-8번지 1,2층","indutype":"일반휴게음식 - 서양음식","category":"restaurant"}]},{"lat":"37.117688223","long":"127.63000273","imageIndex":4,"items":[{"name":"진미통닭","tel":"031-642-8492","addr":"경기도 이천시 장호원읍 장호원리 117-6번지","indutype":"일반휴게음식 - 주점","category":"restaurant"}]},{"lat":"37.117127938","long":"127.63031315","imageIndex":4,"items":[{"name":"째즈","tel":"031-643-1112","addr":"경기도 이천시 장호원읍 장호원리 114-14번지","indutype":"일반휴게음식 - 서양음식","category":"restaurant"}]},{"lat":"37.116408152","long":"127.63011594","imageIndex":4,"items":[{"name":"초원식당","tel":"031-641-9679","addr":"경기도 이천시 장호원읍 장호원리 100번지","indutype":"일반휴게음식 - 일반한식","category":"restaurant"}]},{"lat":"37.116159164","long":"127.63119401","imageIndex":4,"items":[{"name":"추씨네털보곱창전골","tel":"031-641-3729","addr":"경기도 이천시 장호원읍 장호원리 47-10번지","indutype":"일반휴게음식 - 일반한식","category":"restaurant"}]},{"lat":"37.117574502","long":"127.63275841","imageIndex":4,"items":[{"name":"충무수산","tel":"031-643-3928","addr":"경기도 이천시 장호원읍 장호원리 63-16번지","indutype":"일반휴게음식 - 일반한식","category":"restaurant"}]},{"lat":"37.117075568","long":"127.62828746","imageIndex":4,"items":[{"name":"커피마마","tel":"031-643-4748","addr":"경기도 이천시 장호원읍 장호원리 112-37번지","indutype":"일반휴게음식 - 서양음식","category":"restaurant"}]},{"lat":"37.11551811","long":"127.6159546","imageIndex":4,"items":[{"name":"크라운호프","tel":"02-1111-1111","addr":"경기도 이천시 장호원읍 장호원리 415번지 103호","indutype":"일반휴게음식 - 주점","category":"restaurant"}]},{"lat":"37.116208212","long":"127.63213952","imageIndex":4,"items":[{"name":"태흥칡냉면","tel":"031-642-5004","addr":"경기도 이천시 장호원읍 장호원리 54-16번지 1층","indutype":"일반휴게음식 - 일반한식","category":"restaurant"}]},{"lat":"37.117375789","long":"127.62944883","imageIndex":4,"items":[{"name":"테이스트(taste)","tel":"031-641-5874","addr":"경기도 이천시 장호원읍 장호원리 118-11번지 2층","indutype":"일반휴게음식 - 일반한식","category":"restaurant"}]},{"lat":"37.11815704","long":"127.62995034","imageIndex":4,"items":[{"name":"토담순대국","tel":"031-641-4947","addr":"경기도 이천시 장호원읍 장호원리 141-13번지 1층","indutype":"일반휴게음식 - 일반한식","category":"restaurant"}]},{"lat":"37.118293379","long":"127.62972643","imageIndex":4,"items":[{"name":"토대력(장호원점)","tel":"031-641-9792","addr":"경기도 이천시 장호원읍 장호원리 141-11번지","indutype":"일반휴게음식 - 주점","category":"restaurant"},{"name":"해오야","tel":"031-0000-0000","addr":"경기도 이천시 장호원읍 장호원리 141-11번지","indutype":"일반휴게음식 - 일반한식","category":"restaurant"}]},{"lat":"37.118044097","long":"127.63086079","imageIndex":4,"items":[{"name":"통채","tel":"031-641-2141","addr":"경기도 이천시 장호원읍 장호원리 142-8 (1층)","indutype":"일반휴게음식 - 일반한식","category":"restaurant"}]},{"lat":"37.117931374","long":"127.63002724","imageIndex":4,"items":[{"name":"페리카나치킨(장호원점)","tel":"031-641-4170","addr":"경기도 이천시 장호원읍 장호원리 117-1번지 3.15","indutype":"일반휴게음식 - 일반한식","category":"restaurant"}]},{"lat":"37.123906338","long":"127.61777762","imageIndex":4,"items":[{"name":"푸드숍캡틴","tel":"031-642-6858","addr":"경기도 이천시 장호원읍 장호원리 317-30번지 1층","indutype":"일반휴게음식 - 일반한식","category":"restaurant"}]},{"lat":"37.118074948","long":"127.63183993","imageIndex":4,"items":[{"name":"피자리노 씨케이파닭","tel":"031-642-3082","addr":"경기도 이천시 장호원읍 장호원리 8-8번지 금룡빌딩","indutype":"일반휴게음식 - 일반한식","category":"restaurant"}]},{"lat":"37.117712427","long":"127.62883277","imageIndex":4,"items":[{"name":"피자스쿨 장호원점","tel":"031-642-6600","addr":"경기도 이천시 장호원읍 장호원리 118-19번지 1층","indutype":"일반휴게음식 - 서양음식","category":"restaurant"},{"name":"허갈닭강정장호원점","tel":"031-642-6660","addr":"경기도 이천시 장호원읍 장호원리 118-19번지","indutype":"일반휴게음식 - 스넥","category":"restaurant"}]},{"lat":"37.117708217","long":"127.63302955","imageIndex":4,"items":[{"name":"한그릇뚝딱","tel":"031-642-2574","addr":"경기도 이천시 장호원읍 장호원리 65-5번지","indutype":"일반휴게음식 - 일반한식","category":"restaurant"}]},{"lat":"37.116186888","long":"127.62936028","imageIndex":4,"items":[{"name":"한아름","tel":"031-641-6844","addr":"경기도 이천시 장호원읍 장호원리 102-2번지","indutype":"일반휴게음식 - 스넥","category":"restaurant"}]},{"lat":"37.116903638","long":"127.6335292","imageIndex":4,"items":[{"name":"할매뽈해장국","tel":"031-642-5517","addr":"경기도 이천시 장호원읍 장호원리 68-2번지","indutype":"일반휴게음식 - 일반한식","category":"restaurant"}]},{"lat":"37.117351045","long":"127.63241901","imageIndex":4,"items":[{"name":"할매순대국","tel":"031-642-2726","addr":"경기도 이천시 장호원읍 장호원리 61번지 1동","indutype":"일반휴게음식 - 일반한식","category":"restaurant"}]},{"lat":"37.115327264","long":"127.63174969","imageIndex":4,"items":[{"name":"행복한식당","tel":"031-000-0000","addr":"경기도 이천시 장호원읍 장호원리 53-1번지","indutype":"일반휴게음식 - 일반한식","category":"restaurant"}]},{"lat":"37.121540034","long":"127.61711712","imageIndex":4,"items":[{"name":"현이네손만두","tel":"031-642-7759","addr":"경기도 이천시 장호원읍 장호원리 311번지 1동 1층","indutype":"일반휴게음식 - 일반한식","category":"restaurant"}]},{"lat":"37.118104765","long":"127.62961236","imageIndex":4,"items":[{"name":"호감","tel":"","addr":"경기도 이천시 장호원읍 장호원리 141-16번지","indutype":"일반휴게음식 - 주점","category":"restaurant"}]},{"lat":"37.117653492","long":"127.62975491","imageIndex":4,"items":[{"name":"훌랄라(장호원점)","tel":"031-641-0333","addr":"경기도 이천시 장호원읍 장호원리 117-10번지","indutype":"일반휴게음식 - 일반한식","category":"restaurant"}]},{"lat":"37.117572768","long":"127.63308469","imageIndex":4,"items":[{"name":"휘영청양평해장국","tel":"031-641-4111","addr":"경기도 이천시 장호원읍 장호원리 65-6번지 1층","indutype":"일반휴게음식 - 일반한식","category":"restaurant"}]},{"lat":"37.117243523","long":"127.63230561","imageIndex":4,"items":[{"name":"힛트각","tel":"031-641-1577","addr":"경기도 이천시 장호원읍 장호원리 61-11번지","indutype":"일반휴게음식 - 중국식","category":"restaurant"}]},{"lat":"37.116376514","long":"127.62928308","imageIndex":17,"items":[{"name":"11번가","tel":"031-641-4414","addr":"경기도 이천시 장호원읍 장호원리 101-8번지","indutype":"의류 - 정장","category":"other"}]},{"lat":"37.118485978","long":"127.62908668","imageIndex":17,"items":[{"name":"21세기종합광고간판","tel":"031-643-1543","addr":"경기도 이천시 장호원읍 장호원리 140-3번지","indutype":"용역 서비스 - 종합용역","category":"other"}]},{"lat":"37.116791044","long":"127.62756504","imageIndex":17,"items":[{"name":"AQUA J","tel":"031-642-3795","addr":"경기도 이천시 장호원읍 장호원리 110-3번지 1층","indutype":"문화.취미 - 수족관","category":"other"},{"name":"제일기계","tel":"031-641-2235","addr":"경기도 이천시 장호원읍 장호원리 110-3","indutype":"수리서비스 - 기타수리서비스","category":"other"},{"name":"컴센타119","tel":"031-643-5119","addr":"경기도 이천시 장호원읍 장호원리 110-3","indutype":"사무통신 - 컴퓨터","category":"other"}]},{"lat":"37.116100972","long":"127.63366881","imageIndex":17,"items":[{"name":"DoDo 2호점","tel":"","addr":"경기도 이천시 장호원읍 장호원리 77-9번지 1동 102호","indutype":"의류 - 정장","category":"other"},{"name":"DoDo2호점","tel":"","addr":"경기도 이천시 장호원읍 장호원리 77-9번지 1동 102호","indutype":"의류 - 정장","category":"other"},{"name":"도도","tel":"031-642-5356","addr":"경기도 이천시 장호원읍 장호원리 77-9번지","indutype":"의류 - 정장","category":"other"}]},{"lat":"37.118960312","long":"127.63139718","imageIndex":17,"items":[{"name":"JSK GLOBAL","tel":"031-8059-6878","addr":"경기도 이천시 장호원읍 장호원리 24-1번지","indutype":"문화.취미 - 애완동물","category":"other"}]},{"lat":"37.117688223","long":"127.63000273","imageIndex":17,"items":[{"name":"JY댄스스포츠","tel":"031-642-3448","addr":"경기도 이천시 장호원읍 장호원리 117-6번지","indutype":"회원제형태 - 레져업소","category":"other"}]},{"lat":"37.116936823","long":"127.63067162","imageIndex":17,"items":[{"name":"PAT장호원점","tel":"031-641-0344","addr":"경기도 이천시 장호원읍 장호원리 99-1번지","indutype":"레져용품 - 스포츠·레져용품","category":"other"}]},{"lat":"37.11712901","long":"127.63011063","imageIndex":17,"items":[{"name":"STE(장호원점)","tel":"031-642-099","addr":"경기도 이천시 장호원읍 장호원리 114-15번지 1층","indutype":"의류 - 정장","category":"other"}]},{"lat":"37.117991829","long":"127.63222179","imageIndex":17,"items":[{"name":"가람설비","tel":"070-4211-8003","addr":"경기도 이천시 장호원읍 장호원리 14번지 104동 403호","indutype":"용역 서비스 - 기타용역서비스","category":"other"}]},{"lat":"37.11693271","long":"127.63144793","imageIndex":17,"items":[{"name":"경전사","tel":"031-641-2766","addr":"경기도 이천시 장호원읍 장호원리 45-11번지 1층 101호","indutype":"주방용구 - 주방용식기","category":"other"}]},{"lat":"37.115436696","long":"127.63150307","imageIndex":17,"items":[{"name":"기라","tel":"02-384-2842","addr":"경기도 이천시 장호원읍 장호원리 49-9번지","indutype":"의류 - 정장","category":"other"}]},{"lat":"37.117103408","long":"127.62984039","imageIndex":17,"items":[{"name":"달의뒷편","tel":"031-642-0777","addr":"경기도 이천시 장호원읍 장호원리 113-2번지","indutype":"의류 - 정장","category":"other"},{"name":"판도라","tel":"031-642-5550","addr":"경기도 이천시 장호원읍 장호원리 113-2번지","indutype":"신변잡화 - 가방","category":"other"}]},{"lat":"37.116352573","long":"127.62869782","imageIndex":17,"items":[{"name":"대주사료","tel":"031-641-2797","addr":"경기도 이천시 장호원읍 장호원리 102-1","indutype":"농업 - 비료,사료,종자","category":"other"}]},{"lat":"37.116159164","long":"127.63119401","imageIndex":17,"items":[{"name":"대한불교법타종","tel":"031-643-9903","addr":"경기도 이천시 장호원읍 장호원리 47-10","indutype":"기타 - 비영리/대상","category":"other"},{"name":"장호원불교연합회유지재단","tel":"031-643-9901","addr":"경기도 이천시 장호원읍 장호원리 47-10번지","indutype":"기타 - 비영리/대상","category":"other"},{"name":"종명상회","tel":"031-641-2971","addr":"경기도 이천시 장호원읍 장호원리 47-10번지","indutype":"신변잡화 - 기타잡화","category":"other"}]},{"lat":"37.117933099","long":"127.62970096","imageIndex":17,"items":[{"name":"더뉴요커","tel":"031-643-1131","addr":"경기도 이천시 장호원읍 장호원리 140-10번지","indutype":"의류 - 정장","category":"other"}]},{"lat":"37.11551811","long":"127.6159546","imageIndex":17,"items":[{"name":"도깨비장난","tel":"031-641-8200","addr":"경기도 이천시 장호원읍 장호원리 415번지 2층 201호","indutype":"서적문구 - 일반서적","category":"other"},{"name":"세븐일레븐이천장호원진암점","tel":"031-1577-0711","addr":"경기도 이천시 장호원읍 장호원리 415번지","indutype":"유통업 영리 - 편 의 점","category":"other"}]},{"lat":"37.113378183","long":"127.63228487","imageIndex":17,"items":[{"name":"동양사료","tel":"031-642-8289","addr":"경기도 이천시 장호원읍 장호원리 89-3번지 B동","indutype":"농업 - 비료,사료,종자","category":"other"}]},{"lat":"37.11713081","long":"127.63147207","imageIndex":17,"items":[{"name":"드림오브","tel":"","addr":"경기도 이천시 장호원읍 장호원리 45-7번지 102호","indutype":"의류 - 정장","category":"other"}]},{"lat":"37.116741177","long":"127.62333411","imageIndex":17,"items":[{"name":"드림창호인테리어공사","tel":"031-641-8405","addr":"경기도 이천시 장호원읍 장호원리 245-4번지","indutype":"용역 서비스 - 기타용역서비스","category":"other"}]},{"lat":"37.123907931","long":"127.61572969","imageIndex":17,"items":[{"name":"디셀프","tel":"031-765-4777","addr":"경기도 이천시 장호원읍 장호원리 326번지","indutype":"전기제품 - 냉열기기","category":"other"}]},{"lat":"37.117653492","long":"127.62975491","imageIndex":17,"items":[{"name":"럭셔리","tel":"031-111-1111","addr":"경기도 이천시 장호원읍 장호원리 117-10번지","indutype":"의류 - 정장","category":"other"},{"name":"베스트라이프멀티샵","tel":"031-641-0855","addr":"경기도 이천시 장호원읍 장호원리 117-10번지 2층","indutype":"주방용구 - 주방용구","category":"other"}]},{"lat":"37.116382505","long":"127.6315559","imageIndex":17,"items":[{"name":"로얄장식","tel":"031-642-3398","addr":"경기도 이천시 장호원읍 장호원리 57-15번지","indutype":"직물 - 카페트,커튼,천막,지물","category":"other"},{"name":"토탈아웃도어","tel":"031-642-7272","addr":"경기도 이천시 장호원읍 장호원리 57-15번지","indutype":"의류 - 정장","category":"other"}]},{"lat":"37.118099974","long":"127.62881346","imageIndex":17,"items":[{"name":"로얄통신","tel":"031-641-3398","addr":"경기도 이천시 장호원읍 장호원리 140-16번지 1층 로얄통신","indutype":"사무통신 - 통신기기","category":"other"}]},{"lat":"37.116658857","long":"127.62700138","imageIndex":17,"items":[{"name":"롤롤문구","tel":"031-641-9654","addr":"경기도 이천시 장호원읍 장호원리 125-3번지","indutype":"서적문구 - 문구용품","category":"other"}]},{"lat":"37.114851338","long":"127.63314089","imageIndex":17,"items":[{"name":"모든건축","tel":"031-641-9732","addr":"경기도 이천시 장호원읍 장호원리 83-1번지","indutype":"용역 서비스 - 기타용역서비스","category":"other"},{"name":"모든건축","tel":"031-642-9732","addr":"경기도 이천시 장호원읍 장호원리 83-1번지","indutype":"용역 서비스 - 기타용역서비스","category":"other"}]},{"lat":"37.117827083","long":"127.63100526","imageIndex":17,"items":[{"name":"미나통신","tel":"031-881-6914","addr":"경기도 이천시 장호원읍 장호원리 115-1번지","indutype":"사무통신 - 통신기기","category":"other"}]},{"lat":"37.117766902","long":"127.62875446","imageIndex":17,"items":[{"name":"미래종합통신","tel":"031-641-7010","addr":"경기도 이천시 장호원읍 장호원리 118-21번지 1층","indutype":"사무통신 - 통신기기","category":"other"},{"name":"뷰티맥스","tel":"031-641-1138","addr":"경기도 이천시 장호원읍 장호원리 118-21번지 2층","indutype":"회원제형태 - 기타4","category":"other"},{"name":"우리통신","tel":"031-641-1500","addr":"경기도 이천시 장호원읍 장호원리 118-21번지","indutype":"사무통신 - 통신기기","category":"other"}]},{"lat":"37.119124281","long":"127.63106099","imageIndex":17,"items":[{"name":"민영전산","tel":"031-642-8272","addr":"경기도 이천시 장호원읍 장호원리 29-6번지","indutype":"사무통신 - 사무용 OA기기","category":"other"}]},{"lat":"37.11774324","long":"127.63322112","imageIndex":17,"items":[{"name":"믿음24시열쇠","tel":"031-641-0555","addr":"경기도 이천시 장호원읍 장호원리 66-9,66-2","indutype":"기타 - 기계공구","category":"other"}]},{"lat":"37.117493216","long":"127.62939354","imageIndex":17,"items":[{"name":"밀레 장호원점","tel":"031-641-4611","addr":"경기도 이천시 장호원읍 장호원리 118-4번지","indutype":"레져용품 - 스포츠·레져용품","category":"other"}]},{"lat":"37.117291797","long":"127.63169843","imageIndex":17,"items":[{"name":"보디가드","tel":"031-642-6373","addr":"경기도 이천시 장호원읍 장호원리 45","indutype":"의류 - 내의판매","category":"other"}]},{"lat":"37.116878352","long":"127.63150374","imageIndex":17,"items":[{"name":"보성상회","tel":"031-641-2137","addr":"경기도 이천시 장호원읍 장호원리 45-1번지","indutype":"신변잡화 - 신발","category":"other"}]},{"lat":"37.118097382","long":"127.6310075","imageIndex":17,"items":[{"name":"브이아이피 ( VIP)수리점","tel":"031-641-7717","addr":"경기도 이천시 장호원읍 장호원리 142-6번지 2층 2호","indutype":"수리서비스 - 사무·통신기기수리","category":"other"}]},{"lat":"37.119432705","long":"127.63066972","imageIndex":17,"items":[{"name":"비전 포장 용기","tel":"031-646-4568","addr":"경기도 이천시 장호원읍 장호원리 145-1번지 101호","indutype":"유통업 영리 - 기타유통업","category":"other"}]},{"lat":"37.115297897","long":"127.61323005","imageIndex":17,"items":[{"name":"삼보건재","tel":"031-642-5001","addr":"경기도 이천시 장호원읍 장호원리 340-4번지","indutype":"건축자재 - 건축용 요업제품","category":"other"},{"name":"삼보철강","tel":"031-642-5001","addr":"경기도 이천시 장호원읍 장호원리 340-4번지 1층","indutype":"건축자재 - 기타건축자재","category":"other"}]},{"lat":"37.117546638","long":"127.62780752","imageIndex":17,"items":[{"name":"삼천리자전거","tel":"031-641-8783","addr":"경기도 이천시 장호원읍 장호원리 120-24번지","indutype":"레져용품 - 스포츠·레져용품","category":"other"}]},{"lat":"37.116128521","long":"127.61639833","imageIndex":17,"items":[{"name":"세무사김성훈사무소","tel":"031-642-2110","addr":"경기도 이천시 장호원읍 장호원리 272-3번지 2층","indutype":"용역 서비스 - 법률회계서비스(개인)","category":"other"}]},{"lat":"37.120096802","long":"127.62947126","imageIndex":17,"items":[{"name":"세븐일레븐이천장호원성공점","tel":"","addr":"경기도 이천시 장호원읍 장호원리 161-3번지","indutype":"유통업 영리 - 편 의 점","category":"other"}]},{"lat":"37.117127938","long":"127.63031315","imageIndex":17,"items":[{"name":"순금당","tel":"031-641-2469","addr":"경기도 이천시 장호원읍 장호원리 114-14번지","indutype":"신변잡화 - 귀금속","category":"other"},{"name":"유진","tel":"031-641-5126","addr":"경기도 이천시 장호원읍 장호원리 114-14번지","indutype":"수리서비스 - 신변잡화수리","category":"other"}]},{"lat":"37.117880942","long":"127.62934048","imageIndex":17,"items":[{"name":"스마일크리닝","tel":"031-642-8285","addr":"경기도 이천시 장호원읍 장호원리 140-21","indutype":"수리서비스 - 세탁소","category":"other"}]},{"lat":"37.117521137","long":"127.629225","imageIndex":17,"items":[{"name":"스마일통신","tel":"031-643-7011","addr":"경기도 이천시 장호원읍 장호원리 118-14번지","indutype":"사무통신 - 통신기기","category":"other"}]},{"lat":"37.116934022","long":"127.63120041","imageIndex":17,"items":[{"name":"스타일","tel":"031-000-0000","addr":"경기도 이천시 장호원읍 장호원리 46-4번지","indutype":"의류 - 정장","category":"other"}]},{"lat":"37.11615827","long":"127.63136277","imageIndex":17,"items":[{"name":"신세계의류","tel":"031-641-3268","addr":"경기도 이천시 장호원읍 장호원리 48-21번지","indutype":"의류 - 정장","category":"other"}]},{"lat":"37.119184653","long":"127.6298688","imageIndex":17,"items":[{"name":"씨유이천장호원점","tel":"031-635-5576","addr":"경기도 이천시 장호원읍 장호원리 145-19번지","indutype":"유통업 영리 - 편 의 점","category":"other"}]},{"lat":"37.118041287","long":"127.63308857","imageIndex":17,"items":[{"name":"씨유장호원청미점","tel":"031-643-2021","addr":"경기도 이천시 장호원읍 장호원리 11-3번지","indutype":"유통업 영리 - 편 의 점","category":"other"},{"name":"프로스펙스","tel":"031-641-4197","addr":"경기도 이천시 장호원읍 장호원리 11-3번지","indutype":"레져용품 - 스포츠·레져용품","category":"other"}]},{"lat":"37.12479241","long":"127.61370011","imageIndex":17,"items":[{"name":"아이지에이마트 장호원점","tel":"02-3453-0708","addr":"경기도 이천시 장호원읍 장호원리 324-15번지 1층","indutype":"유통업 영리 - 편 의 점","category":"other"}]},{"lat":"37.116490958","long":"127.61600745","imageIndex":17,"items":[{"name":"아이지에이마트레포츠공원점","tel":"031-000-0000","addr":"경기도 이천시 장호원읍 장호원리 382번지","indutype":"유통업 영리 - 편 의 점","category":"other"}]},{"lat":"37.11815704","long":"127.62995034","imageIndex":17,"items":[{"name":"애플트리","tel":"031-641-6357","addr":"경기도 이천시 장호원읍 장호원리 141-13번지","indutype":"의류 - 정장","category":"other"}]},{"lat":"37.116768134","long":"127.63019767","imageIndex":17,"items":[{"name":"여우비","tel":"031-641-3200","addr":"경기도 이천시 장호원읍 장호원리 99-2","indutype":"의류 - 정장","category":"other"},{"name":"장호전자","tel":"031-642-3505","addr":"경기도 이천시 장호원읍 장호원리 99-2번지","indutype":"수리서비스 - 가정용품수리","category":"other"}]},{"lat":"37.11654379","long":"127.631726","imageIndex":17,"items":[{"name":"영신주단","tel":"031-641-8959","addr":"경기도 이천시 장호원읍 장호원리 57-27번지","indutype":"의류 - 맞춤복점","category":"other"}]},{"lat":"37.116796176","long":"127.63000663","imageIndex":17,"items":[{"name":"올리비안허슬러장호원점","tel":"031-643-0770","addr":"경기도 이천시 장호원읍 장호원리 99-7번지","indutype":"레져용품 - 스포츠·레져용품","category":"other"}]},{"lat":"37.116574436","long":"127.62934097","imageIndex":17,"items":[{"name":"완전당","tel":"031-641-2140","addr":"경기도 이천시 장호원읍 장호원리 101-2번지","indutype":"신변잡화 - 시계","category":"other"}]},{"lat":"37.118043003","long":"127.62936432","imageIndex":17,"items":[{"name":"운동화빨래방","tel":"031-641-4100","addr":"경기도 이천시 장호원읍 장호원리 140-8번지","indutype":"수리서비스 - 세탁소","category":"other"}]},{"lat":"37.115986782","long":"127.63141761","imageIndex":17,"items":[{"name":"윤 갤러리","tel":"","addr":"경기도 이천시 장호원읍 장호원리 48-24번지","indutype":"의류 - 정장","category":"other"}]},{"lat":"37.116353551","long":"127.63361465","imageIndex":17,"items":[{"name":"이브자리 장호원점","tel":"031-641-2323","addr":"경기도 이천시 장호원읍 장호원리 77-10번지 1동 2층 B동","indutype":"직물 - 침구·수예점","category":"other"}]},{"lat":"37.115990002","long":"127.63250901","imageIndex":17,"items":[{"name":"장미가구아울렛","tel":"031-641-6900","addr":"경기도 이천시 장호원읍 장호원리 71-11번지","indutype":"가구 - 일반가구","category":"other"}]},{"lat":"37.116764323","long":"127.63091772","imageIndex":17,"items":[{"name":"장원가구마트","tel":"031-641-2175","addr":"경기도 이천시 장호원읍 장호원리 46-9번지 (제1호)","indutype":"가구 - 일반가구","category":"other"}]},{"lat":"37.11754509","long":"127.63150925","imageIndex":17,"items":[{"name":"장호원로타리클럽","tel":"031-642-1212","addr":"경기도 이천시 장호원읍 장호원리 39-3번지","indutype":"기타 - 비영리/비대상","category":"other"}]},{"lat":"37.118764954","long":"127.63255449","imageIndex":17,"items":[{"name":"장호원삼화페인트","tel":"031-642-7232","addr":"경기도 이천시 장호원읍 장호원리 10-4번지","indutype":"건축자재 - 페인트","category":"other"}]},{"lat":"37.119406065","long":"127.62889172","imageIndex":17,"items":[{"name":"장호원요양병원장례식장","tel":"031-641-2660","addr":"경기도 이천시 장호원읍 장호원리 162-16번지","indutype":"용역 서비스 - 가례서비스업","category":"other"}]},{"lat":"37.115292622","long":"127.61425386","imageIndex":17,"items":[{"name":"장호원화환직매장","tel":"","addr":"경기도 이천시 장호원읍 장호원리 420번지","indutype":"문화.취미 - 화원","category":"other"}]},{"lat":"37.11659754","long":"127.63008375","imageIndex":17,"items":[{"name":"정통신","tel":"031-642-1100","addr":"경기도 이천시 장호원읍 장호원리 99-6","indutype":"사무통신 - 통신기기","category":"other"}]},{"lat":"37.115155597","long":"127.63183828","imageIndex":17,"items":[{"name":"제아나","tel":"031-641-0556","addr":"경기도 이천시 장호원읍 장호원리 52-24번지 2층","indutype":"신변잡화 - 기타잡화","category":"other"}]},{"lat":"37.116989095","long":"127.63100959","imageIndex":17,"items":[{"name":"조랑말","tel":"031-641-4132","addr":"경기도 이천시 장호원읍 장호원리 46-5번지","indutype":"신변잡화 - 신발","category":"other"}]},{"lat":"37.115932551","long":"127.61770189","imageIndex":17,"items":[{"name":"준스포츠센터","tel":"031-643-7777","addr":"경기도 이천시 장호원읍 장호원리 269-5번지","indutype":"회원제형태 - 레져업소","category":"other"}]},{"lat":"37.116262681","long":"127.61659068","imageIndex":17,"items":[{"name":"준웨딩홀","tel":"031-643-7979","addr":"경기도 이천시 장호원읍 장호원리 272-1 274-15,269-1,268-3","indutype":"용역 서비스 - 혼례서비스","category":"other"}]},{"lat":"37.117207897","long":"127.63052759","imageIndex":17,"items":[{"name":"지후","tel":"031-641-1739","addr":"경기도 이천시 장호원읍 장호원리 114-11","indutype":"의류 - 정장","category":"other"}]},{"lat":"37.116573146","long":"127.63128744","imageIndex":17,"items":[{"name":"청코너","tel":"031-641-5570","addr":"경기도 이천시 장호원읍 장호원리 48-12번지","indutype":"의류 - 정장","category":"other"}]},{"lat":"37.117406897","long":"127.63208193","imageIndex":17,"items":[{"name":"충주모터","tel":"031-641-2459","addr":"경기도 이천시 장호원읍 장호원리 43-7","indutype":"수리서비스 - 기타수리서비스","category":"other"}]},{"lat":"37.115599174","long":"127.63144816","imageIndex":17,"items":[{"name":"컴아저씨","tel":"031-642-0425","addr":"경기도 이천시 장호원읍 장호원리 49-6번지","indutype":"회원제형태 - 기타4","category":"other"},{"name":"태흥상회","tel":"031-641-2131","addr":"경기도 이천시 장호원읍 장호원리 49-6번지","indutype":"의류 - 정장","category":"other"}]},{"lat":"37.117075568","long":"127.62828746","imageIndex":17,"items":[{"name":"컴퓨터밸리","tel":"031-641-7751","addr":"경기도 이천시 장호원읍 장호원리 112-37번지","indutype":"사무통신 - 컴퓨터","category":"other"}]},{"lat":"37.11588138","long":"127.62920024","imageIndex":17,"items":[{"name":"크로바학생복","tel":"031-642-0180","addr":"경기도 이천시 장호원읍 장호원리 102-11번지","indutype":"의류 - 단체복","category":"other"}]},{"lat":"37.11826516","long":"127.62995123","imageIndex":17,"items":[{"name":"크로키","tel":"031-641-7331","addr":"경기도 이천시 장호원읍 장호원리 141-32번지","indutype":"의류 - 정장","category":"other"}]},{"lat":"37.117570509","long":"127.63181325","imageIndex":17,"items":[{"name":"페리미츠장호원점","tel":"031-641-7546","addr":"경기도 이천시 장호원읍 장호원리 40-3번지","indutype":"의류 - 아동의류","category":"other"},{"name":"페리미츠장호원점","tel":"031-641-7546","addr":"경기도 이천시 장호원읍 장호원리 40-3번지","indutype":"의류 - 내의판매","category":"other"}]},{"lat":"37.115465388","long":"127.6156954","imageIndex":17,"items":[{"name":"펫 플래닛","tel":"031-643-0506","addr":"경기도 이천시 장호원읍 장호원리 416번지","indutype":"문화.취미 - 애완동물","category":"other"}]},{"lat":"37.117936785","long":"127.6290034","imageIndex":17,"items":[{"name":"펭귄빨래방","tel":"031-642-0067","addr":"경기도 이천시 장호원읍 장호원리 140-13","indutype":"수리서비스 - 세탁소","category":"other"}]},{"lat":"37.116410651","long":"127.6296434","imageIndex":17,"items":[{"name":"포인트키드","tel":"031-642-0776","addr":"경기도 이천시 장호원읍 장호원리 100-11번지","indutype":"의류 - 아동의류","category":"other"}]},{"lat":"37.123211136","long":"127.6163092","imageIndex":17,"items":[{"name":"풍년주방","tel":"031-642-0871","addr":"경기도 이천시 장호원읍 장호원리 314-11번지","indutype":"주방용구 - 주방용구","category":"other"}]},{"lat":"37.11365797","long":"127.63219718","imageIndex":17,"items":[{"name":"한솔종합광고","tel":"031-643-0767","addr":"경기도 이천시 장호원읍 장호원리 89-2번지","indutype":"건축자재 - 인테리어전문","category":"other"}]},{"lat":"37.116793349","long":"127.62883646","imageIndex":17,"items":[{"name":"해성화원","tel":"031-641-1733","addr":"경기도 이천시 장호원읍 장호원리 111-8번지","indutype":"문화.취미 - 화원","category":"other"}]},{"lat":"37.118131021","long":"127.62975885","imageIndex":17,"items":[{"name":"행복한여우","tel":"031-643-8150","addr":"경기도 이천시 장호원읍 장호원리 141-14","indutype":"회원제형태 - 기타4","category":"other"}]},{"lat":"37.117824563","long":"127.62977883","imageIndex":17,"items":[{"name":"헬로주니","tel":"031-882-7316","addr":"경기도 이천시 장호원읍 장호원리 117-5번지 헬로주니","indutype":"의류 - 정장","category":"other"}]},{"lat":"37.116041063","long":"127.62967411","imageIndex":17,"items":[{"name":"혼수종합공판장","tel":"031-643-2800","addr":"경기도 이천시 장호원읍 장호원리 100-15번지","indutype":"직물 - 침구·수예점","category":"other"}]},{"lat":"37.117243162","long":"127.63067415","imageIndex":17,"items":[{"name":"휠라인티모","tel":"031-642-2011","addr":"경기도 이천시 장호원읍 장호원리 114-9번지","indutype":"의류 - 내의판매","category":"other"}]},{"lat":"37.118097382","long":"127.6310075","imageIndex":13,"items":[{"name":"EH팜","tel":"031-643-0704","addr":"경기도 이천시 장호원읍 장호원리 142-6번지 101호","indutype":"보건위생 - 의료용품","category":"beauty"}]},{"lat":"37.117292796","long":"127.6298082","imageIndex":13,"items":[{"name":"Nail art 윤슬","tel":"031-643-1009","addr":"경기도 이천시 장호원읍 장호원리 113-1번지 1층","indutype":"보건위생 - 피부미용실","category":"beauty"}]},{"lat":"37.11712901","long":"127.63011063","imageIndex":13,"items":[{"name":"OIC피부관리실","tel":"043-882-2976","addr":"경기도 이천시 장호원읍 장호원리 114-15번지 2층","indutype":"보건위생 - 피부미용실","category":"beauty"}]},{"lat":"37.117238154","long":"127.63161923","imageIndex":13,"items":[{"name":"TOP헤어스토리","tel":"031-642-3011","addr":"경기도 이천시 장호원읍 장호원리 45-2번지","indutype":"보건위생 - 미용원","category":"beauty"},{"name":"미샤화장품(장호원점)","tel":"031-762-6020","addr":"경기도 이천시 장호원읍 장호원리 45-2번지","indutype":"보건위생 - 화장품","category":"beauty"}]},{"lat":"37.118104765","long":"127.62961236","imageIndex":13,"items":[{"name":"lamuse (라뮤즈)","tel":"031-642-9256","addr":"경기도 이천시 장호원읍 장호원리 141-16번지 1층","indutype":"보건위생 - 미용원","category":"beauty"}]},{"lat":"37.116410651","long":"127.6296434","imageIndex":13,"items":[{"name":"가인헤어","tel":"031-641-8600","addr":"경기도 이천시 장호원읍 장호원리 100-11번지 가인헤어","indutype":"보건위생 - 미용원","category":"beauty"}]},{"lat":"37.117906961","long":"127.62953197","imageIndex":13,"items":[{"name":"고운네일","tel":"031-643-4402","addr":"경기도 이천시 장호원읍 장호원리 140-23번지 1층","indutype":"보건위생 - 피부미용실","category":"beauty"},{"name":"서은 메디 스킨케어","tel":"031-643-2545","addr":"경기도 이천시 장호원읍 장호원리 140-23번지 2층","indutype":"보건위생 - 피부미용실","category":"beauty"}]},{"lat":"37.117376584","long":"127.63100154","imageIndex":13,"items":[{"name":"글라스스토리(장호원점)","tel":"031-644-8518","addr":"경기도 이천시 장호원읍 장호원리 115-15번지 1층","indutype":"보건위생 - 안경","category":"beauty"}]},{"lat":"37.115409666","long":"127.63150285","imageIndex":13,"items":[{"name":"꽃농원","tel":"031-641-2306","addr":"경기도 이천시 장호원읍 장호원리 49-10번지","indutype":"보건위생 - 미용원","category":"beauty"}]},{"lat":"37.117598434","long":"127.63164471","imageIndex":13,"items":[{"name":"네이처컬렉션 장호원점","tel":"031-643-3044","addr":"경기도 이천시 장호원읍 장호원리 39-1번지 1층 상가 1층","indutype":"보건위생 - 화장품","category":"beauty"}]},{"lat":"37.117933099","long":"127.62970096","imageIndex":13,"items":[{"name":"누네띠네","tel":"031-642-2898","addr":"경기도 이천시 장호원읍 장호원리 140-10번지","indutype":"보건위생 - 화장품","category":"beauty"}]},{"lat":"37.116464907","long":"127.63130905","imageIndex":13,"items":[{"name":"뉴헤어갤러리","tel":"031-641-0387","addr":"경기도 이천시 장호원읍 장호원리 48-15","indutype":"보건위생 - 미용원","category":"beauty"}]},{"lat":"37.117069866","long":"127.62936755","imageIndex":13,"items":[{"name":"루이스헤어솔루션","tel":"031-642-5559","addr":"경기도 이천시 장호원읍 장호원리 112-14번지 외1필지 2층","indutype":"보건위생 - 미용원","category":"beauty"}]},{"lat":"37.117207897","long":"127.63052759","imageIndex":13,"items":[{"name":"리안헤어샵","tel":"031-641-4951","addr":"경기도 이천시 장호원읍 장호원리 114-11번지 외1필지","indutype":"보건위생 - 미용원","category":"beauty"}]},{"lat":"37.118348529","long":"127.63122335","imageIndex":13,"items":[{"name":"명보헤어리더","tel":"031-641-3438","addr":"경기도 이천시 장호원읍 장호원리 35-5번지","indutype":"보건위생 - 미용원","category":"beauty"}]},{"lat":"37.117517153","long":"127.62997882","imageIndex":13,"items":[{"name":"뮤즈미용실","tel":"031-648-8683","addr":"경기도 이천시 장호원읍 장호원리 117-19번지 2층","indutype":"보건위생 - 미용원","category":"beauty"}]},{"lat":"37.118041287","long":"127.63308857","imageIndex":13,"items":[{"name":"미&미 헤어","tel":"031-633-7975","addr":"경기도 이천시 장호원읍 장호원리 11-3번지","indutype":"보건위생 - 미용원","category":"beauty"}]},{"lat":"37.11679424","long":"127.6286677","imageIndex":13,"items":[{"name":"미나스킨","tel":"070-0000-0000","addr":"경기도 이천시 장호원읍 장호원리 111-9번지 2층","indutype":"보건위생 - 화장품","category":"beauty"}]},{"lat":"37.117742781","long":"127.62820294","imageIndex":13,"items":[{"name":"미모헤어샵","tel":"031-641-9577","addr":"경기도 이천시 장호원읍 장호원리 112-12번지","indutype":"보건위생 - 미용원","category":"beauty"}]},{"lat":"37.120541203","long":"127.62892358","imageIndex":13,"items":[{"name":"바이오스라이프","tel":"070-7755-1905","addr":"경기도 이천시 장호원읍 장호원리 181-102번지 영보상가주택 1층 107호","indutype":"보건위생 - 화장품","category":"beauty"}]},{"lat":"37.118935071","long":"127.63105942","imageIndex":13,"items":[{"name":"방실이토탈미용샵","tel":"031-634-7734","addr":"경기도 이천시 장호원읍 장호원리 31-1번지","indutype":"보건위생 - 미용원","category":"beauty"}]},{"lat":"37.117708217","long":"127.63302955","imageIndex":13,"items":[{"name":"베토벤보청기","tel":"031-642-0999","addr":"경기도 이천시 장호원읍 장호원리 65-5번지 베토벤보청기","indutype":"보건위생 - 의료용품","category":"beauty"}]},{"lat":"37.117124223","long":"127.62931174","imageIndex":13,"items":[{"name":"복음보청기 이천장호원센터","tel":"031-643-4866","addr":"경기도 이천시 장호원읍 장호원리 112-13번지 1층","indutype":"보건위생 - 의료용품","category":"beauty"}]},{"lat":"37.11671486","long":"127.63174992","imageIndex":13,"items":[{"name":"비겐의료기체온센터","tel":"031-643-5652","addr":"경기도 이천시 장호원읍 장호원리 57-36번지","indutype":"보건위생 - 의료용품","category":"beauty"},{"name":"이동련헤어공간","tel":"070-8883-7011","addr":"경기도 이천시 장호원읍 장호원리 57-36번지","indutype":"보건위생 - 미용원","category":"beauty"}]},{"lat":"37.115599174","long":"127.63144816","imageIndex":13,"items":[{"name":"선진메디칼","tel":"031-641-1171","addr":"경기도 이천시 장호원읍 장호원리 49-6번지 1층","indutype":"보건위생 - 의료용품","category":"beauty"}]},{"lat":"37.117710763","long":"127.6291478","imageIndex":13,"items":[{"name":"세종파크목욕탕","tel":"031-642-1118","addr":"경기도 이천시 장호원읍 장호원리 118-2번지 외1필지","indutype":"보건위생 - 사우나","category":"beauty"}]},{"lat":"37.117269179","long":"127.63086564","imageIndex":13,"items":[{"name":"손톱마녀","tel":"031-643-2704","addr":"경기도 이천시 장호원읍 장호원리 115-18","indutype":"보건위생 - 미용재료","category":"beauty"}]},{"lat":"37.117407136","long":"127.63203693","imageIndex":13,"items":[{"name":"아라리헤어샵","tel":"031-641-0989","addr":"경기도 이천시 장호원읍 장호원리 43-2번지","indutype":"보건위생 - 미용원","category":"beauty"}]},{"lat":"37.117265662","long":"127.63152944","imageIndex":13,"items":[{"name":"안경나라","tel":"031-641-2040","addr":"경기도 이천시 장호원읍 장호원리 45-3번지","indutype":"보건위생 - 안경","category":"beauty"}]},{"lat":"37.117243523","long":"127.63230561","imageIndex":13,"items":[{"name":"알로에마임장호원지사","tel":"031-643-4321","addr":"경기도 이천시 장호원읍 장호원리 61-11번지","indutype":"보건위생 - 화장품","category":"beauty"}]},{"lat":"37.117766818","long":"127.63217492","imageIndex":13,"items":[{"name":"애플","tel":"031-642-1852","addr":"경기도 이천시 장호원읍 장호원리 41-3번지 대동빌딩 4층","indutype":"보건위생 - 기타대인서비스","category":"beauty"}]},{"lat":"37.116548179","long":"127.62919449","imageIndex":13,"items":[{"name":"이니스프리 장호원점","tel":"031-642-3388","addr":"경기도 이천시 장호원읍 장호원리 101-11번지","indutype":"보건위생 - 화장품","category":"beauty"}]},{"lat":"37.119160121","long":"127.62939603","imageIndex":13,"items":[{"name":"이루다 스타일","tel":"031-641-8289","addr":"경기도 이천시 장호원읍 장호원리 148-10번지 1층","indutype":"보건위생 - 미용원","category":"beauty"}]},{"lat":"37.117430562","long":"127.62931427","imageIndex":13,"items":[{"name":"이원의료기","tel":"031-641-9587","addr":"경기도 이천시 장호원읍 장호원리 118-13","indutype":"보건위생 - 의료용품","category":"beauty"}]},{"lat":"37.117819146","long":"127.63250165","imageIndex":13,"items":[{"name":"조앤리헤어크럽","tel":"031-641-2686","addr":"경기도 이천시 장호원읍 장호원리 64-3번지","indutype":"보건위생 - 미용원","category":"beauty"}]},{"lat":"37.118131021","long":"127.62975885","imageIndex":13,"items":[{"name":"쥬얼리헤어샵","tel":"031-641-5691","addr":"경기도 이천시 장호원읍 장호원리 141-14번지 1층","indutype":"보건위생 - 미용원","category":"beauty"}]},{"lat":"37.117127938","long":"127.63031315","imageIndex":13,"items":[{"name":"진헤어 네일","tel":"031-642-7821","addr":"경기도 이천시 장호원읍 장호원리 114-14번지 2층","indutype":"보건위생 - 미용원","category":"beauty"}]},{"lat":"37.119153217","long":"127.63070117","imageIndex":13,"items":[{"name":"한국대리운전","tel":"031-643-8020","addr":"경기도 이천시 장호원읍 장호원리 145-6번지 102호","indutype":"보건위생 - 기타대인서비스","category":"beauty"}]},{"lat":"37.11815914","long":"127.63125554","imageIndex":13,"items":[{"name":"행복헤어크리닉","tel":"031-641-9687","addr":"경기도 이천시 장호원읍 장호원리 35-2번지 행복헤어클리닉","indutype":"보건위생 - 피부미용실","category":"beauty"}]},{"lat":"37.117712427","long":"127.62883277","imageIndex":13,"items":[{"name":"헤어프렌즈","tel":"031-642-5826","addr":"경기도 이천시 장호원읍 장호원리 118-19번지 외1필지 2층","indutype":"보건위생 - 미용원","category":"beauty"}]},{"lat":"37.117437075","long":"127.62978688","imageIndex":13,"items":[{"name":"황신혜미용실","tel":"031-642-5280","addr":"경기도 이천시 장호원읍 장호원리 117-8번지","indutype":"보건위생 - 미용원","category":"beauty"}]},{"lat":"37.117518537","long":"127.63141902","imageIndex":13,"items":[{"name":"황실미용실","tel":"031-641-3336","addr":"경기도 이천시 장호원읍 장호원리 39-8번지","indutype":"보건위생 - 미용원","category":"beauty"}]},{"lat":"37.117266956","long":"127.62958295","imageIndex":13,"items":[{"name":"황제","tel":"031-643-2988","addr":"경기도 이천시 장호원읍 장호원리 118-8번지 경안빌딩 4층","indutype":"보건위생 - 화장품","category":"beauty"}]},{"lat":"37.114685884","long":"127.63205942","imageIndex":13,"items":[{"name":"회화당","tel":"031-642-7570","addr":"경기도 이천시 장호원읍 장호원리 52-31번지","indutype":"보건위생 - 기타대인서비스","category":"beauty"}]},{"lat":"37.117625931","long":"127.6332539","imageIndex":7,"items":[{"name":"OK건강기능식품","tel":"031-643-5300","addr":"경기도 이천시 장호원읍 장호원리 66-19번지","indutype":"건강식품 - 기타건강식품","category":"food"}]},{"lat":"37.117237319","long":"127.63177674","imageIndex":7,"items":[{"name":"경기 장호원점","tel":"031-642-4266","addr":"경기도 이천시 장호원읍 장호원리 44-2번지","indutype":"건강식품 - 홍삼제품","category":"food"},{"name":"정관장 장호원점","tel":"","addr":"경기도 이천시 장호원읍 장호원리 44-2번지","indutype":"건강식품 - 홍삼제품","category":"food"}]},{"lat":"37.118764954","long":"127.63255449","imageIndex":7,"items":[{"name":"금자네반찬","tel":"","addr":"경기도 이천시 장호원읍 장호원리 10-4번지","indutype":"음료식품 - 기타음료식품","category":"food"}]},{"lat":"37.116574436","long":"127.62934097","imageIndex":7,"items":[{"name":"농가축산","tel":"031-642-8441","addr":"경기도 이천시 장호원읍 장호원리 101-2번지","indutype":"음료식품 - 정육점","category":"food"},{"name":"베스킨라빈스 장호원점","tel":"031-641-9988","addr":"경기도 이천시 장호원읍 장호원리 101-2번지","indutype":"음료식품 - 제과점","category":"food"},{"name":"풍년떡집","tel":"031-642-9700","addr":"경기도 이천시 장호원읍 장호원리 101-2번지","indutype":"음료식품 - 제과점","category":"food"}]},{"lat":"37.117185093","long":"127.62972855","imageIndex":7,"items":[{"name":"던킨도너츠이천장호원점","tel":"031-642-9606","addr":"경기도 이천시 장호원읍 장호원리 113-10번지 (1-2층)","indutype":"음료식품 - 제과점","category":"food"}]},{"lat":"37.117575399","long":"127.63258964","imageIndex":7,"items":[{"name":"도소매 직판장","tel":"031-643-3929","addr":"경기도 이천시 장호원읍 장호원리 63-24번지","indutype":"음료식품 - 농·축·수산품","category":"food"}]},{"lat":"37.11766031","long":"127.63187025","imageIndex":7,"items":[{"name":"뚜레쥬르장호원점","tel":"031-642-4848","addr":"경기도 이천시 장호원읍 장호원리 40-1번지 1층","indutype":"음료식품 - 제과점","category":"food"}]},{"lat":"37.114435336","long":"127.63173107","imageIndex":7,"items":[{"name":"바이오스라이프 장호원점","tel":"","addr":"경기도 이천시 장호원읍 장호원리 87번지 1층 27호","indutype":"건강식품 - 기타건강식품","category":"food"}]},{"lat":"37.116796176","long":"127.63000663","imageIndex":7,"items":[{"name":"반찬마당","tel":"031-883-4675","addr":"경기도 이천시 장호원읍 장호원리 99-7번지 1층","indutype":"음료식품 - 기타음료식품","category":"food"}]},{"lat":"37.116212253","long":"127.62967552","imageIndex":7,"items":[{"name":"백두정육점","tel":"031-642-2004","addr":"경기도 이천시 장호원읍 장호원리 100-12번지","indutype":"음료식품 - 정육점","category":"food"}]},{"lat":"37.117708217","long":"127.63302955","imageIndex":7,"items":[{"name":"베리 라이스 케이크","tel":"050-6618-1022","addr":"경기도 이천시 장호원읍 장호원리 65-5번지 1층","indutype":"음료식품 - 제과점","category":"food"}]},{"lat":"37.116882467","long":"127.63242639","imageIndex":7,"items":[{"name":"보명건강원","tel":"031-642-5986","addr":"경기도 이천시 장호원읍 장호원리 62-17번지","indutype":"건강식품 - 기타건강식품","category":"food"}]},{"lat":"37.117207897","long":"127.63052759","imageIndex":7,"items":[{"name":"빵마을","tel":"031-641-7587","addr":"경기도 이천시 장호원읍 장호원리 114-11번지","indutype":"음료식품 - 제과점","category":"food"}]},{"lat":"37.116042669","long":"127.62937034","imageIndex":7,"items":[{"name":"수입고기직매장(장호원점)","tel":"031-641-4035","addr":"경기도 이천시 장호원읍 장호원리 102-9번지","indutype":"음료식품 - 정육점","category":"food"}]},{"lat":"37.118547344","long":"127.63111248","imageIndex":7,"items":[{"name":"신라떡방앗간","tel":"031-643-7722","addr":"경기도 이천시 장호원읍 장호원리 35-1","indutype":"음료식품 - 제과점","category":"food"}]},{"lat":"37.117214917","long":"127.62919998","imageIndex":7,"items":[{"name":"아이스킹장호원점","tel":"031-643-0970","addr":"경기도 이천시 장호원읍 장호원리 112-3번지 1층","indutype":"음료식품 - 기타음료식품","category":"food"}]},{"lat":"37.118738851","long":"127.62897624","imageIndex":7,"items":[{"name":"어부김씨","tel":"031-641-9059","addr":"경기도 이천시 장호원읍 장호원리 138-2번지","indutype":"음료식품 - 농·축·수산품","category":"food"}]},{"lat":"37.114876108","long":"127.63186972","imageIndex":7,"items":[{"name":"와이에이치유통","tel":"031-643-1644","addr":"경기도 이천시 장호원읍 장호원리 52-40번지 1층","indutype":"음료식품 - 농·축·수산품","category":"food"}]},{"lat":"37.119432705","long":"127.63066972","imageIndex":7,"items":[{"name":"은혜청과","tel":"031-643-6093","addr":"경기도 이천시 장호원읍 장호원리 145-1번지","indutype":"음료식품 - 농·축·수산품","category":"food"}]},{"lat":"37.11598541","long":"127.63167638","imageIndex":7,"items":[{"name":"의성상회","tel":"031-642-8506","addr":"경기도 이천시 장호원읍 장호원리 57-21","indutype":"음료식품 - 농·축·수산품","category":"food"}]},{"lat":"37.116410651","long":"127.6296434","imageIndex":7,"items":[{"name":"이천떡집","tel":"031-642-4645","addr":"경기도 이천시 장호원읍 장호원리 100-11번지 외2필지","indutype":"음료식품 - 제과점","category":"food"}]},{"lat":"37.118575804","long":"127.63084267","imageIndex":7,"items":[{"name":"자연식건강원","tel":"031-643-3470","addr":"경기도 이천시 장호원읍 장호원리 143-4번지","indutype":"건강식품 - 기타건강식품","category":"food"}]},{"lat":"37.118378452","long":"127.62897328","imageIndex":7,"items":[{"name":"장호원건강원","tel":"031-641-3842","addr":"경기도 이천시 장호원읍 장호원리 140-18","indutype":"건강식품 - 기타건강식품","category":"food"}]},{"lat":"37.118736673","long":"127.63109154","imageIndex":7,"items":[{"name":"장호원떡방앗간","tel":"031-641-5417","addr":"경기도 이천시 장호원읍 장호원리 31-8번지","indutype":"음료식품 - 제과점","category":"food"}]},{"lat":"37.114823242","long":"127.63164426","imageIndex":7,"items":[{"name":"제일떡방앗간","tel":"031-643-0646","addr":"경기도 이천시 장호원읍 장호원리 51-8번지","indutype":"음료식품 - 기타음료식품","category":"food"}]},{"lat":"37.117847072","long":"127.63233311","imageIndex":7,"items":[{"name":"착한정육점","tel":"031-643-3322","addr":"경기도 이천시 장호원읍 장호원리 41-6번지","indutype":"음료식품 - 정육점","category":"food"}]},{"lat":"37.116431762","long":"127.62905851","imageIndex":7,"items":[{"name":"천화떡방앗간","tel":"031-641-2906","addr":"경기도 이천시 장호원읍 장호원리 101-3번지","indutype":"음료식품 - 제과점","category":"food"}]},{"lat":"37.119376858","long":"127.63100681","imageIndex":7,"items":[{"name":"청해수산","tel":"031-643-3007","addr":"경기도 이천시 장호원읍 장호원리 29-3번지","indutype":"음료식품 - 농·축·수산품","category":"food"}]},{"lat":"37.117212317","long":"127.63139398","imageIndex":7,"items":[{"name":"파리바게트 장호원점","tel":"031-641-6759","addr":"경기도 이천시 장호원읍 장호원리 45-5번지 2층","indutype":"음료식품 - 제과점","category":"food"}]},{"lat":"37.117159327","long":"127.62778184","imageIndex":7,"items":[{"name":"한국건강원","tel":"031-641-1851","addr":"경기도 이천시 장호원읍 장호원리 112-22","indutype":"건강식품 - 기타건강식품","category":"food"}]},{"lat":"37.113627236","long":"127.63289448","imageIndex":7,"items":[{"name":"햇빛농원","tel":"031-632-1044","addr":"경기도 이천시 장호원읍 장호원리 92번지 강남MS빌리지(101~104동) 103동 401호","indutype":"음료식품 - 농·축·수산품","category":"food"}]},{"lat":"37.116654534","long":"127.63123186","imageIndex":7,"items":[{"name":"형제식품","tel":"031-641-2341","addr":"경기도 이천시 장호원읍 장호원리 48-26번지","indutype":"음료식품 - 기타음료식품","category":"food"}]},{"lat":"37.118293379","long":"127.62972643","imageIndex":13,"items":[{"name":"OK당구장","tel":"031-643-1152","addr":"경기도 이천시 장호원읍 장호원리 141-11번지 2층","indutype":"레저업소 - 당 구 장","category":"leisure"}]},{"lat":"37.117264754","long":"127.63339717","imageIndex":13,"items":[{"name":"USA노래방","tel":"031-643-4455","addr":"경기도 이천시 장호원읍 장호원리 66-7번지","indutype":"레저업소 - 노 래 방","category":"leisure"}]},{"lat":"37.118045024","long":"127.62898178","imageIndex":13,"items":[{"name":"공동당구구역","tel":"070-4456-8976","addr":"경기도 이천시 장호원읍 장호원리 140-14번지 2층","indutype":"레저업소 - 당 구 장","category":"leisure"}]},{"lat":"37.116989095","long":"127.63100959","imageIndex":13,"items":[{"name":"뉴골뱅이피씨방","tel":"031-1234-1234","addr":"경기도 이천시 장호원읍 장호원리 46-5번지 1층","indutype":"레저업소 - 기타레져업소","category":"leisure"}]},{"lat":"37.117209028","long":"127.63031382","imageIndex":13,"items":[{"name":"대박노래연습장","tel":"031-641-5660","addr":"경기도 이천시 장호원읍 장호원리 114-12번지","indutype":"레저업소 - 노 래 방","category":"leisure"}]},{"lat":"37.118270955","long":"127.63055887","imageIndex":13,"items":[{"name":"둘리당구장","tel":"031-642-3527","addr":"경기도 이천시 장호원읍 장호원리 142-9번지","indutype":"레저업소 - 당 구 장","category":"leisure"}]},{"lat":"37.116212253","long":"127.62967552","imageIndex":13,"items":[{"name":"또만나요노래연습장","tel":"031-637-6168","addr":"경기도 이천시 장호원읍 장호원리 100-12번지","indutype":"레저업소 - 노 래 방","category":"leisure"}]},{"lat":"37.118182252","long":"127.62858911","imageIndex":13,"items":[{"name":"별주부 노래연습장","tel":"031-643-0441","addr":"경기도 이천시 장호원읍 장호원리 139-8번지","indutype":"레저업소 - 노 래 방","category":"leisure"}]},{"lat":"37.117375789","long":"127.62944883","imageIndex":13,"items":[{"name":"빠딴잘리요가","tel":"031-642-7454","addr":"경기도 이천시 장호원읍 장호원리 118-11번지","indutype":"레저업소 - 헬스클럽","category":"leisure"},{"name":"투세븐당구장","tel":"031-882-6915","addr":"경기도 이천시 장호원읍 장호원리 118-11번지 3층","indutype":"레저업소 - 당 구 장","category":"leisure"}]},{"lat":"37.117266956","long":"127.62958295","imageIndex":13,"items":[{"name":"얼짱노래연습장","tel":"031-643-1313","addr":"경기도 이천시 장호원읍 장호원리 118-8번지 경안빌딩","indutype":"레저업소 - 노 래 방","category":"leisure"}]},{"lat":"37.117598434","long":"127.63164471","imageIndex":13,"items":[{"name":"예원","tel":"031-642-5613","addr":"경기도 이천시 장호원읍 장호원리 39-1번지 2층","indutype":"레저업소 - 헬스클럽","category":"leisure"}]},{"lat":"37.117327229","long":"127.63011227","imageIndex":13,"items":[{"name":"오페라노래연습장","tel":"031-643-1212","addr":"경기도 이천시 장호원읍 장호원리 116-7번지 2층","indutype":"레저업소 - 노 래 방","category":"leisure"}]},{"lat":"37.115599174","long":"127.63144816","imageIndex":13,"items":[{"name":"컴온PC방","tel":"","addr":"경기도 이천시 장호원읍 장호원리 49-6번지","indutype":"레저업소 - 기타레져업소","category":"leisure"}]},{"lat":"37.117960915","long":"127.63295289","imageIndex":13,"items":[{"name":"태스매니아pc방","tel":"031-1234-1234","addr":"경기도 이천시 장호원읍 장호원리 13-4번지 2층","indutype":"레저업소 - 기타레져업소","category":"leisure"}]},{"lat":"37.117235946","long":"127.63203551","imageIndex":13,"items":[{"name":"힛트PC방","tel":"02-222-2222","addr":"경기도 이천시 장호원읍 장호원리 43-1번지 2층","indutype":"레저업소 - 기타레져업소","category":"leisure"}]},{"lat":"37.115574503","long":"127.61200589","imageIndex":8,"items":[{"name":"가까운약국","tel":"031-641-8077","addr":"경기도 이천시 장호원읍 장호원리 341번지","indutype":"약국 - 약국","category":"medical"},{"name":"장호원성모병원","tel":"031-642-8871","addr":"경기도 이천시 장호원읍 장호원리 341번지","indutype":"병원 - 병원","category":"medical"}]},{"lat":"37.117376584","long":"127.63100154","imageIndex":8,"items":[{"name":"건강약국","tel":"031-642-3981","addr":"경기도 이천시 장호원읍 장호원리 115-15","indutype":"약국 - 약국","category":"medical"}]},{"lat":"37.116041063","long":"127.62967411","imageIndex":8,"items":[{"name":"김한의원","tel":"031-642-8275","addr":"경기도 이천시 장호원읍 장호원리 100-15번지 외2필지","indutype":"의원 - 한의원","category":"medical"}]},{"lat":"37.117625931","long":"127.6332539","imageIndex":8,"items":[{"name":"뉴선두연합내과의원","tel":"031-643-5300","addr":"경기도 이천시 장호원읍 장호원리 66-19번지","indutype":"의원 - 의원","category":"medical"}]},{"lat":"37.118129379","long":"127.62836364","imageIndex":8,"items":[{"name":"믿음심는치과의원","tel":"031-642-9333","addr":"경기도 이천시 장호원읍 장호원리 135-3번지 찬스빌딩 2층","indutype":"의원 - 의원","category":"medical"}]},{"lat":"37.117656191","long":"127.63094759","imageIndex":8,"items":[{"name":"박민호내과의원","tel":"031-641-5533","addr":"경기도 이천시 장호원읍 장호원리 115-17번지 1층","indutype":"의원 - 의원","category":"medical"},{"name":"손치과의원","tel":"031-642-2875","addr":"경기도 이천시 장호원읍 장호원리 115-17번지","indutype":"의원 - 치과의원","category":"medical"}]},{"lat":"37.117766818","long":"127.63217492","imageIndex":8,"items":[{"name":"박소아과의원","tel":"031-642-8644","addr":"경기도 이천시 장호원읍 장호원리 41-3번지","indutype":"의원 - 의원","category":"medical"},{"name":"으뜸약국","tel":"031-642-3344","addr":"경기도 이천시 장호원읍 장호원리 41-3번지","indutype":"약국 - 약국","category":"medical"}]},{"lat":"37.11766031","long":"127.63187025","imageIndex":8,"items":[{"name":"삼성명인내과(부설인공신장실)","tel":"031-642-1360","addr":"경기도 이천시 장호원읍 장호원리 40-1번지 3층(회1필지용천빌딩)","indutype":"의원 - 의원","category":"medical"},{"name":"서울감동치과","tel":"031-643-2875","addr":"경기도 이천시 장호원읍 장호원리 40-1번지 4층","indutype":"의원 - 치과의원","category":"medical"}]},{"lat":"37.116934597","long":"127.62938894","imageIndex":8,"items":[{"name":"새성모약국","tel":"031-641-2155","addr":"경기도 이천시 장호원읍 장호원리 112-8번지","indutype":"약국 - 약국","category":"medical"}]},{"lat":"37.116431762","long":"127.62905851","imageIndex":8,"items":[{"name":"생강한의원","tel":"031-642-1075","addr":"경기도 이천시 장호원읍 장호원리 101-3번지","indutype":"의원 - 한의원","category":"medical"}]},{"lat":"37.117521137","long":"127.629225","imageIndex":8,"items":[{"name":"생명약국","tel":"031-642-6628","addr":"경기도 이천시 장호원읍 장호원리 118-14","indutype":"약국 - 약국","category":"medical"}]},{"lat":"37.120263082","long":"127.62869625","imageIndex":8,"items":[{"name":"서광마취과의원","tel":"031-643-0255","addr":"경기도 이천시 장호원읍 장호원리 162-8번지","indutype":"의원 - 의원","category":"medical"}]},{"lat":"37.117708217","long":"127.63302955","imageIndex":8,"items":[{"name":"서울경희한의원","tel":"031-641-5737","addr":"경기도 이천시 장호원읍 장호원리 65-5번지","indutype":"의원 - 한의원","category":"medical"}]},{"lat":"37.116517878","long":"127.62981306","imageIndex":8,"items":[{"name":"수메디컬의원","tel":"031-642-5119","addr":"경기도 이천시 장호원읍 장호원리 99-3번지 3층","indutype":"의원 - 의원","category":"medical"}]},{"lat":"37.116574436","long":"127.62934097","imageIndex":8,"items":[{"name":"수온누리약국","tel":"031-642-2714","addr":"경기도 이천시 장호원읍 장호원리 101-2번지 1층","indutype":"약국 - 약국","category":"medical"},{"name":"수온누리약국","tel":"031-642-2714","addr":"경기도 이천시 장호원읍 장호원리 101-2번지","indutype":"약국 - 약국","category":"medical"}]},{"lat":"37.117103408","long":"127.62984039","imageIndex":8,"items":[{"name":"신세계 연세 치과의원","tel":"031-642-7528","addr":"경기도 이천시 장호원읍 장호원리 113-2번지 2층","indutype":"의원 - 치과의원","category":"medical"}]},{"lat":"37.11774324","long":"127.63322112","imageIndex":8,"items":[{"name":"엠비뇨기과의원","tel":"031-642-7512","addr":"경기도 이천시 장호원읍 장호원리 66-9번지 4층","indutype":"의원 - 의원","category":"medical"},{"name":"유진약국","tel":"031-642-3043","addr":"경기도 이천시 장호원읍 장호원리 66-9번지 1층 유진약국","indutype":"약국 - 약국","category":"medical"},{"name":"장호원산부인과의원","tel":"031-643-3582","addr":"경기도 이천시 장호원읍 장호원리 66-9번지 2층","indutype":"의원 - 의원","category":"medical"}]},{"lat":"37.119406065","long":"127.62889172","imageIndex":8,"items":[{"name":"의료법인 목민의료재단","tel":"031-641-3080","addr":"경기도 이천시 장호원읍 장호원리 162-16번지","indutype":"병원 - 병원","category":"medical"}]},{"lat":"37.11609696","long":"127.61553172","imageIndex":8,"items":[{"name":"주영동물병원","tel":"031-641-9208","addr":"경기도 이천시 장호원읍 장호원리 388번지","indutype":"기타의료기관 - 동물병원","category":"medical"}]},{"lat":"37.118989229","long":"127.62933836","imageIndex":8,"items":[{"name":"행복약국","tel":"031-642-5329","addr":"경기도 이천시 장호원읍 장호원리 148-8","indutype":"약국 - 약국","category":"medical"}]},{"lat":"37.116269529","long":"127.62220513","imageIndex":0,"items":[{"name":"대원자동차정비","tel":"031-643-4114","addr":"경기도 이천시 장호원읍 장호원리 258-3번지","indutype":"자동차정비 유지 - 자동차정비","category":"car"},{"name":"마이카세차광택","tel":"031-641-0701","addr":"경기도 이천시 장호원읍 장호원리 258-3번지","indutype":"자동차정비 유지 - 세차장","category":"car"}]},{"lat":"37.115930184","long":"127.61641923","imageIndex":0,"items":[{"name":"믿음자동차정비","tel":"031-642-3306","addr":"경기도 이천시 장호원읍 장호원리 405번지","indutype":"자동차정비 유지 - 자동차시트·타이어","category":"car"}]},{"lat":"37.113627236","long":"127.63289448","imageIndex":0,"items":[{"name":"서강상사","tel":"031-641-3739","addr":"경기도 이천시 장호원읍 장호원리 92번지 강남MS빌리지(101~104동) 103동 202호","indutype":"자동차정비 유지 - 자동차부품","category":"car"}]},{"lat":"37.124381328","long":"127.61653244","imageIndex":0,"items":[{"name":"세븐카","tel":"031-642-4557","addr":"경기도 이천시 장호원읍 장호원리 322-4번지","indutype":"자동차정비 유지 - 자동차시트·타이어","category":"car"},{"name":"카샵","tel":"031-8223-8260","addr":"경기도 이천시 장호원읍 장호원리 322-4번지","indutype":"자동차정비 유지 - 자동차부품","category":"car"}]},{"lat":"37.12479241","long":"127.61370011","imageIndex":0,"items":[{"name":"썬렉스","tel":"031-641-4448","addr":"경기도 이천시 장호원읍 장호원리 324-15번지 1동","indutype":"자동차정비 유지 - 카인테리어","category":"car"}]},{"lat":"37.115742832","long":"127.61431374","imageIndex":0,"items":[{"name":"에이치제이 (HJ)종합상사","tel":"031-642-3200","addr":"경기도 이천시 장호원읍 장호원리 395번지","indutype":"자동차정비 유지 - 자동차부품","category":"car"}]},{"lat":"37.119124757","long":"127.63097098","imageIndex":0,"items":[{"name":"영일오토바이","tel":"031-642-0101","addr":"경기도 이천시 장호원읍 장호원리 29-7번지","indutype":"자동차판매 - 이륜차판매","category":"car"}]},{"lat":"37.118764954","long":"127.63255449","imageIndex":0,"items":[{"name":"장호원청음사","tel":"031-641-1120","addr":"경기도 이천시 장호원읍 장호원리 10-4번지","indutype":"자동차정비 유지 - 자동차부품","category":"car"}]},{"lat":"37.12459914","long":"127.61623038","imageIndex":0,"items":[{"name":"장호원타이어","tel":"031-632-0209","addr":"경기도 이천시 장호원읍 장호원리 323-98번지","indutype":"자동차정비 유지 - 자동차시트·타이어","category":"car"}]},{"lat":"37.116680909","long":"127.62794668","imageIndex":16,"items":[{"name":"도원태권도","tel":"031-643-2334","addr":"경기도 이천시 장호원읍 장호원리 109-1번지","indutype":"학원 - 예·체능계학원","category":"study"}]},{"lat":"37.117159327","long":"127.62778184","imageIndex":16,"items":[{"name":"뮤엠영어장호원아이린교습소","tel":"031-641-0505","addr":"경기도 이천시 장호원읍 장호원리 112-22번지 1층","indutype":"회원제형태 - 학원","category":"study"},{"name":"팝스실용음악학원","tel":"031-643-9884","addr":"경기도 이천시 장호원읍 장호원리 112-22번지 장호원컴퓨터정보학원","indutype":"회원제형태 - 학원","category":"study"}]},{"lat":"37.116658561","long":"127.62705764","imageIndex":16,"items":[{"name":"미쁨학원","tel":"031-643-2254","addr":"경기도 이천시 장호원읍 장호원리 124-3","indutype":"학원 - 보습학원","category":"study"}]},{"lat":"37.11687873","long":"127.61941975","imageIndex":16,"items":[{"name":"부원고등학교","tel":"031-645-6200","addr":"경기도 이천시 장호원읍 장호원리 261-5번지 부원고등학교","indutype":"학원 - 초중고교육기관","category":"study"}]},{"lat":"37.115767162","long":"127.62864799","imageIndex":16,"items":[{"name":"사랑어린이집[아이행복]","tel":"031-642-2178","addr":"경기도 이천시 장호원읍 장호원리 102-5번지","indutype":"학원 - 유아원","category":"study"},{"name":"장호원유치원[아이행복]","tel":"031-641-2178","addr":"경기도 이천시 장호원읍 장호원리 102-5","indutype":"학원 - 유치원","category":"study"}]},{"lat":"37.116575575","long":"127.627417","imageIndex":16,"items":[{"name":"상승체육관","tel":"031-641-1003","addr":"경기도 이천시 장호원읍 장호원리 110-2번지","indutype":"학원 - 예·체능계학원","category":"study"},{"name":"이기쁨음악학원","tel":"031-642-3535","addr":"경기도 이천시 장호원읍 장호원리 110-2번지","indutype":"학원 - 예·체능계학원","category":"study"}]},{"lat":"37.116791044","long":"127.62756504","imageIndex":16,"items":[{"name":"상승체육관","tel":"031-641-1003","addr":"경기도 이천시 장호원읍 장호원리 110-3번지 상승체육관","indutype":"학원 - 예·체능계학원","category":"study"}]},{"lat":"37.116906455","long":"127.62789227","imageIndex":16,"items":[{"name":"수리수리영어학원","tel":"031-643-7942","addr":"경기도 이천시 장호원읍 장호원리 110-16번지","indutype":"학원 - 보습학원","category":"study"},{"name":"진성학원","tel":"031-641-7854","addr":"경기도 이천시 장호원읍 장호원리 110-16번지 2층","indutype":"학원 - 보습학원","category":"study"}]},{"lat":"37.11766031","long":"127.63187025","imageIndex":16,"items":[{"name":"앙팡트레미뇽장호원점","tel":"031-642-4030","addr":"경기도 이천시 장호원읍 장호원리 40-1번지 5층","indutype":"학원 - 기타 교육기관","category":"study"}]},{"lat":"37.117490798","long":"127.62814461","imageIndex":16,"items":[{"name":"에듀포커스학원","tel":"031-642-2990","addr":"경기도 이천시 장호원읍 장호원리 112-39번지","indutype":"회원제형태 - 학원","category":"study"},{"name":"장호원청어람학원","tel":"031-643-9588","addr":"경기도 이천시 장호원읍 장호원리 112-39번지","indutype":"회원제형태 - 학원","category":"study"}]},{"lat":"37.116658857","long":"127.62700138","imageIndex":16,"items":[{"name":"에스티에이어학원","tel":"031-642-0579","addr":"경기도 이천시 장호원읍 장호원리 125-3번지 2층 장호원","indutype":"회원제형태 - 학원","category":"study"}]},{"lat":"37.116793349","long":"127.62883646","imageIndex":16,"items":[{"name":"우희연영어교습소","tel":"031-642-7337","addr":"경기도 이천시 장호원읍 장호원리 111-8번지 2층","indutype":"회원제형태 - 학원","category":"study"}]},{"lat":"37.115985953","long":"127.62816599","imageIndex":16,"items":[{"name":"장호원초등학교","tel":"031-641-4501","addr":"경기도 이천시 장호원읍 장호원리 104번지","indutype":"학원 - 초중고교육기관","category":"study"},{"name":"장호원초등학교병설유치원[아이행복]","tel":"031-642-7557","addr":"경기도 이천시 장호원읍 장호원리 104번지","indutype":"학원 - 유치원","category":"study"}]},{"lat":"37.118628235","long":"127.6294479","imageIndex":16,"items":[{"name":"조이하우스어린이집[아이행복]","tel":"031-641-5406","addr":"경기도 이천시 장호원읍 장호원리 141-22번지","indutype":"학원 - 유아원","category":"study"}]},{"lat":"37.116548179","long":"127.62919449","imageIndex":16,"items":[{"name":"초방국어교습소","tel":"031-641-7544","addr":"경기도 이천시 장호원읍 장호원리 101-11번지 2층","indutype":"회원제형태 - 학원","category":"study"}]},{"lat":"37.118238686","long":"127.62813951","imageIndex":7,"items":[{"name":"동진아시아마트","tel":"031-642-8783","addr":"경기도 이천시 장호원읍 장호원리 135-11번지","indutype":"유통업 영리 - 슈퍼마켓","category":"mart"}]},{"lat":"37.115265327","long":"127.63153541","imageIndex":7,"items":[{"name":"엘지슈퍼","tel":"031-641-2470","addr":"경기도 이천시 장호원읍 장호원리 50-8번지","indutype":"유통업 영리 - 슈퍼마켓","category":"mart"}]},{"lat":"37.117847072","long":"127.63233311","imageIndex":7,"items":[{"name":"우리마트","tel":"031-643-3651","addr":"경기도 이천시 장호원읍 장호원리 41-6번지","indutype":"유통업 영리 - 슈퍼마켓","category":"mart"}]},{"lat":"37.117015509","long":"127.62942336","imageIndex":7,"items":[{"name":"쭈나 아시아 마트","tel":"","addr":"경기도 이천시 장호원읍 장호원리 112-15번지","indutype":"유통업 영리 - 슈퍼마켓","category":"mart"}]},{"lat":"37.114379843","long":"127.63200063","imageIndex":5,"items":[{"name":"뷰티모텔","tel":"031-643-0978","addr":"경기도 이천시 장호원읍 장호원리 52-21번지","indutype":"숙박업 - 여관/기타숙박업","category":"hotel"}]},{"lat":"37.117710763","long":"127.6291478","imageIndex":5,"items":[{"name":"세종파크","tel":"031-641-2967","addr":"경기도 이천시 장호원읍 장호원리 118-2번지","indutype":"숙박업 - 여관/기타숙박업","category":"hotel"}]},{"lat":"37.118435125","long":"127.62847867","imageIndex":5,"items":[{"name":"수정여관","tel":"031-642-1909","addr":"경기도 이천시 장호원읍 장호원리 137-4번지","indutype":"숙박업 - 여관/기타숙박업","category":"hotel"}]},{"lat":"37.117849102","long":"127.63195057","imageIndex":5,"items":[{"name":"월드클래식","tel":"031-641-4409","addr":"경기도 이천시 장호원읍 장호원리 8-24번지","indutype":"숙박업 - 여관/기타숙박업","category":"hotel"}]},{"lat":"37.11799233","long":"127.62872256","imageIndex":5,"items":[{"name":"중앙장여관","tel":"031-642-0438","addr":"경기도 이천시 장호원읍 장호원리 140-15","indutype":"숙박업 - 여관/기타숙박업","category":"hotel"}]}]