[{"lat":"37.294770697","long":"127.63427783","imageIndex":13,"items":[{"name":"고양이노래연습장","tel":"031-884-2486","addr":"경기도 여주시 창동 146-3번지","indutype":"레저업소 - 노 래 방","category":"leisure"}]},{"lat":"37.293855633","long":"127.63014255","imageIndex":13,"items":[{"name":"나이스스크린","tel":"031-885-0955","addr":"경기도 여주시 창동 236번지","indutype":"레저업소 - 스크린골프","category":"leisure"}]},{"lat":"37.29244007","long":"127.63371704","imageIndex":13,"items":[{"name":"대장금노래연습장","tel":"031-885-9777","addr":"경기도 여주시 창동 158-11번지 지하1층","indutype":"레저업소 - 노 래 방","category":"leisure"}]},{"lat":"37.294912393","long":"127.63304973","imageIndex":13,"items":[{"name":"똥광노래방","tel":"031-881-3536","addr":"경기도 여주시 창동 139-1번지","indutype":"레저업소 - 노 래 방","category":"leisure"}]},{"lat":"37.294499684","long":"127.6344109","imageIndex":13,"items":[{"name":"벅스노래방","tel":"031-885-7705","addr":"경기도 여주시 창동 147-2번지","indutype":"레저업소 - 노 래 방","category":"leisure"}]},{"lat":"37.29532876","long":"127.63269231","imageIndex":13,"items":[{"name":"비타민노래연습장","tel":"031-885-7001","addr":"경기도 여주시 창동 140-6번지 3층","indutype":"레저업소 - 노 래 방","category":"leisure"}]},{"lat":"37.297579314","long":"127.63475244","imageIndex":13,"items":[{"name":"서울당구장","tel":"","addr":"경기도 여주시 창동 70-1번지","indutype":"레저업소 - 당 구 장","category":"leisure"}]},{"lat":"37.295775991","long":"127.63499675","imageIndex":13,"items":[{"name":"솔라노래연습장","tel":"031-883-8636","addr":"경기도 여주시 창동 129-1번지 지하1층","indutype":"레저업소 - 노 래 방","category":"leisure"}]},{"lat":"37.296998357","long":"127.6355596","imageIndex":13,"items":[{"name":"스카이노래방","tel":"031-882-9655","addr":"경기도 여주시 창동 56-3번지","indutype":"레저업소 - 노 래 방","category":"leisure"}]},{"lat":"37.29613597","long":"127.633387","imageIndex":13,"items":[{"name":"스파르타짐","tel":"031-885-9970","addr":"경기도 여주시 창동 98-3번지","indutype":"레저업소 - 헬스클럽","category":"leisure"}]},{"lat":"37.294995638","long":"127.6343361","imageIndex":13,"items":[{"name":"신바람 노래연습장","tel":"031-886-2315","addr":"경기도 여주시 창동 149-1번지 지하1층","indutype":"레저업소 - 노 래 방","category":"leisure"},{"name":"큐노래연습장","tel":"031-884-1211","addr":"경기도 여주시 창동 149-1번지","indutype":"레저업소 - 노 래 방","category":"leisure"}]},{"lat":"37.296913199","long":"127.63463408","imageIndex":13,"items":[{"name":"중앙노래연습장","tel":"031-881-0208","addr":"경기도 여주시 창동 76-4번지 지하1층","indutype":"레저업소 - 노 래 방","category":"leisure"}]},{"lat":"37.291856892","long":"127.6349414","imageIndex":13,"items":[{"name":"차차차노래연습장","tel":"031-881-1717","addr":"경기도 여주시 창동 159-39번지 지하1층","indutype":"레저업소 - 노 래 방","category":"leisure"}]},{"lat":"37.294606476","long":"127.6346599","imageIndex":13,"items":[{"name":"초콜릿노래연습장","tel":"031-885-4560","addr":"경기도 여주시 창동 147번지 지하1층","indutype":"레저업소 - 노 래 방","category":"leisure"}]},{"lat":"37.297352627","long":"127.63502122","imageIndex":13,"items":[{"name":"토마토 PC ZONE","tel":"070-2467-5191","addr":"경기도 여주시 창동 68번지 여주중앙프라자 3층 309호","indutype":"레저업소 - 기타레져업소","category":"leisure"}]},{"lat":"37.294047266","long":"127.63138469","imageIndex":13,"items":[{"name":"패밀리 노래연습장","tel":"031-886-0055","addr":"경기도 여주시 창동 142-9번지 지하1층","indutype":"레저업소 - 노 래 방","category":"leisure"}]},{"lat":"37.294250279","long":"127.63555915","imageIndex":13,"items":[{"name":"풍차노래연습장","tel":"031-886-3777","addr":"경기도 여주시 창동 148-12번지","indutype":"레저업소 - 노 래 방","category":"leisure"}]},{"lat":"37.294694466","long":"127.63505536","imageIndex":13,"items":[{"name":"하모니노래연습장","tel":"031-883-8835","addr":"경기도 여주시 창동 150-3번지","indutype":"레저업소 - 노 래 방","category":"leisure"}]}]