[{"lat":"37.30145145","long":"126.76997067","items":[{"name":"(주) 영진산업","tel":"031-000-0000","addr":"경기도 안산시 단원구 목내동 491-5번지","category":"기타 - 기계공구"}]},{"lat":"37.300310647","long":"126.77641439","items":[{"name":"(주) 한국엠트리","tel":"031-495-2681","addr":"경기도 안산시 단원구 목내동 408-5번지","category":"전기제품 - 기타전기제품"},{"name":"진영식당","tel":"","addr":"경기도 안산시 단원구 목내동 408-5번지 1층","category":"일반휴게음식 - 위탁급식업"}]},{"lat":"37.302671375","long":"126.77644115","items":[{"name":"(주)광명","tel":"031-493-3335","addr":"경기도 안산시 단원구 목내동 405번지","category":"기타 - 기계공구"},{"name":"MCT","tel":"031-433-7095","addr":"경기도 안산시 단원구 목내동 405번지 반월공단7블럭 C동 1층 9호","category":"기타 - 기계공구"},{"name":"동화R텍","tel":"031-431-1231","addr":"경기도 안산시 단원구 목내동 405번지 (주)광명 A동 1층","category":"기타 - 기계공구"}]},{"lat":"37.30520405","long":"126.77219245","items":[{"name":"(주)금강배관","tel":"031-434-6006","addr":"경기도 안산시 단원구 목내동 457번지 광양프런티어밸리지식산업센터 1동102,103,104호","category":"건축자재 - 기타건축자재"},{"name":"광양유니폼","tel":"031-365-3939","addr":"경기도 안산시 단원구 목내동 457번지 광양프런티어밸리1차 1동 120호","category":"의류 - 단체복"},{"name":"금석스크린골프","tel":"031-492-2300","addr":"경기도 안산시 단원구 목내동 457번지 413~416호","category":"레저업소 - 스크린골프"},{"name":"대영식당","tel":"031-495-8999","addr":"경기도 안산시 단원구 목내동 457번지 광양프런티어밸리지식산업센터1 216호","category":"일반휴게음식 - 일반한식"},{"name":"커피와사람들","tel":"031-494-7882","addr":"경기도 안산시 단원구 목내동 457번지 광양프런티어밸리1차 118호","category":"일반휴게음식 - 서양음식"},{"name":"포에프(FOR.F)","tel":"031-256-0475","addr":"경기도 안산시 단원구 목내동 457 광양프런티어313","category":"의류 - 기타의류"}]},{"lat":"37.302394019","long":"126.77746838","items":[{"name":"(주)금성콤퓨레샤","tel":"031-492-2334","addr":"경기도 안산시 단원구 목내동 405-9번지","category":"기타 - 기타 전문점"},{"name":"에듀인쇄기획","tel":"031-443-8482","addr":"경기도 안산시 단원구 목내동 405-9번지 2층","category":"용역 서비스 - 종합용역"}]},{"lat":"37.304531137","long":"126.77366083","items":[{"name":"(주)기린산업","tel":"031-491-8954","addr":"경기도 안산시 단원구 목내동 403번지","category":"건축자재 - 기타건축자재"}]},{"lat":"37.310560479","long":"126.77444343","items":[{"name":"(주)나우인터내셔널","tel":"070-4179-9303","addr":"경기도 안산시 단원구 목내동 448-9번지","category":"전기제품 - 가전제품"},{"name":"주식회사 엘씨써키트","tel":"031-503-6005","addr":"경기도 안산시 단원구 목내동 448-9번지 2층","category":"자동차정비 유지 - 자동차부품"}]},{"lat":"37.311088954","long":"126.77282874","items":[{"name":"(주)네프코/원격지","tel":"031-492-4291","addr":"경기도 안산시 단원구 목내동 447-6,반월공단15블럭7-3롯트반월테크노시티209호","category":"기타 - 기타 전문점"},{"name":"반월테크노시티주식회사","tel":"031-494-0838","addr":"경기도 안산시 단원구 목내동 447-6 반월공단15BL7-3L","category":"용역 서비스 - 사무서비스"}]},{"lat":"37.305062892","long":"126.77844174","items":[{"name":"(주)다원전자","tel":"031-364-1900","addr":"경기도 안산시 단원구 목내동 401-1번지 12호 반월공단6블럭","category":"전기제품 - 기타전기제품"}]},{"lat":"37.305837238","long":"126.76886302","items":[{"name":"(주)대경배관","tel":"031-433-5236","addr":"경기도 안산시 단원구 목내동 487-2번지","category":"건축자재 - 기타건축자재"}]},{"lat":"37.29778576","long":"126.76616987","items":[{"name":"(주)대리버","tel":"","addr":"경기도 안산시 단원구 목내동 513-1번지","category":"의류 - 기타의류"}]},{"lat":"37.309452548","long":"126.7793311","items":[{"name":"(주)대림케이씨아이","tel":"031-491-1220","addr":"경기도 안산시 단원구 목내동 393-6","category":"기타 - 기계공구"},{"name":"대림식당","tel":"031-495-5780","addr":"경기도 안산시 단원구 목내동 393-6번지 1층","category":"일반휴게음식 - 위탁급식업"}]},{"lat":"37.300480716","long":"126.77582738","items":[{"name":"(주)라셀르","tel":"02-2252-2456","addr":"경기도 안산시 단원구 목내동 408-6번지 반월공단","category":"전기제품 - 가전제품"},{"name":"라셀르서비스주식회사","tel":"031-493-9420","addr":"경기도 안산시 단원구 목내동 408-6번지","category":"수리서비스 - 가정용품수리"}]},{"lat":"37.317278813","long":"126.77275347","items":[{"name":"(주)메탈라이프","tel":"031-499-2817","addr":"경기도 안산시 단원구 목내동 473-4번지 반월공단 14블럭 22로트","category":"전기제품 - 기타전기제품"}]},{"lat":"37.308474828","long":"126.78166896","items":[{"name":"(주)명신기계엠에스","tel":"031-319-7351","addr":"경기도 안산시 단원구 목내동 393-13번지","category":"수리서비스 - 기타수리서비스"},{"name":"맛사랑식당","tel":"031-111-1111","addr":"경기도 안산시 단원구 목내동 393-13번지","category":"음료식품 - 기타음료식품"}]},{"lat":"37.30603417","long":"126.77279902","items":[{"name":"(주)명진테크","tel":"031-494-4572","addr":"경기도 안산시 단원구 목내동 456-5번지 명진인텍안산공장 가동","category":"용역 서비스 - 기타용역서비스"},{"name":"명진식당","tel":"031-492-6583","addr":"경기도 안산시 단원구 목내동 456-5번지 (16블럭3호)","category":"음료식품 - 기타음료식품"},{"name":"명진인텍","tel":"031-494-4572","addr":"경기도 안산시 단원구 목내동 456-5 반월공단 16블럭 3호","category":"기타 - 기타 전문점"},{"name":"성호특수도장","tel":"031-494-7749","addr":"경기도 안산시 단원구 목내동 456-5번지","category":"건축자재 - 페인트"}]},{"lat":"37.30389936","long":"126.77780227","items":[{"name":"(주)미디온","tel":"02-485-4226","addr":"경기도 안산시 단원구 목내동 404-2 6블록23로트","category":"신변잡화 - 기타잡화"},{"name":"주식회사디모스","tel":"031-508-0037","addr":"경기도 안산시 단원구 목내동 404-2 반월공단6블럭23롯트","category":"전기제품 - 기타전기제품"}]},{"lat":"37.30384367","long":"126.77227556","items":[{"name":"(주)삼원기업","tel":"031-491-0430","addr":"경기도 안산시 단원구 목내동 489-6번지","category":"유통업 영리 - 편 의 점"},{"name":"디테일러","tel":"","addr":"경기도 안산시 단원구 목내동 489-6번지","category":"자동차정비 유지 - 세차장"},{"name":"삼원계량소","tel":"031-491-6624","addr":"경기도 안산시 단원구 목내동 489-6번지","category":"용역 서비스 - 사무서비스"},{"name":"오토오아시스목내점","tel":"031-495-4972","addr":"경기도 안산시 단원구 목내동 489-6번지","category":"자동차정비 유지 - 자동차시트·타이어"}]},{"lat":"37.305004964","long":"126.7764116","items":[{"name":"(주)서원/원격지","tel":"031-491-9591","addr":"경기도 안산시 단원구 목내동 402-2번지","category":"기타 - 기타 전문점"}]},{"lat":"37.307593978","long":"126.7733357","items":[{"name":"(주)서전","tel":"031-495-4574","addr":"경기도 안산시 단원구 목내동 455-3번지","category":"전기제품 - 기타전기제품"},{"name":"한아상사","tel":"031-491-0057","addr":"경기도 안산시 단원구 목내동 455-3번지 태공화학주식회사","category":"서적문구 - 과학기자재"}]},{"lat":"37.303421859","long":"126.77313407","items":[{"name":"(주)세화","tel":"031-494-4545","addr":"경기도 안산시 단원구 목내동 406-10번지","category":"서적문구 - 과학기자재"}]},{"lat":"37.302784624","long":"126.77913654","items":[{"name":"(주)신흥산업","tel":"031-491-1701","addr":"경기도 안산시 단원구 목내동 404-8번지","category":"건축자재 - 기타건축자재"}]},{"lat":"37.310783529","long":"126.77330344","items":[{"name":"(주)써피스텍","tel":"031-493-4102","addr":"경기도 안산시 단원구 목내동 447-5번지","category":"전기제품 - 기타전기제품"},{"name":"(주)엔에스프리멀티","tel":"031-493-8724","addr":"경기도 안산시 단원구 목내동 447-5번지","category":"전기제품 - 기타전기제품"}]},{"lat":"37.293954487","long":"126.77435832","items":[{"name":"(주)아워홈 에스씨엘안산점","tel":"070-7500-5326","addr":"경기도 안산시 단원구 목내동 519번지 2층","category":"일반휴게음식 - 위탁급식업"}]},{"lat":"37.315006838","long":"126.77669746","items":[{"name":"(주)아워홈두산인쇄안산점","tel":"031-489-7828","addr":"경기도 안산시 단원구 목내동 475-1번지","category":"일반휴게음식 - 위탁급식업"}]},{"lat":"37.302559677","long":"126.76542176","items":[{"name":"(주)안산연마","tel":"031-495-1630","addr":"경기도 안산시 단원구 목내동 505-11번지","category":"기타 - 기계공구"}]},{"lat":"37.312280677","long":"126.77405469","items":[{"name":"(주)에스텍파마","tel":"02-3471-2078","addr":"경기도 안산시 단원구 목내동 445-1번지","category":"기타 - 기타 전문점"}]},{"lat":"37.309849037","long":"126.77935249","items":[{"name":"(주)에이치비홀딩스","tel":"031-491-7008","addr":"경기도 안산시 단원구 목내동 393번지 나동","category":"기타 - 기계공구"}]},{"lat":"37.295092949","long":"126.77135492","items":[{"name":"(주)에이치아이티오토모티브","tel":"070-5034-5900","addr":"경기도 안산시 단원구 목내동 520-3번지 1층","category":"사무통신 - 컴퓨터"}]},{"lat":"37.30869915","long":"126.7764118","items":[{"name":"(주)영동레이저","tel":"031-491-6980","addr":"경기도 안산시 단원구 목내동 395-6번지","category":"건축자재 - 기타건축자재"}]},{"lat":"37.295533873","long":"126.77106034","items":[{"name":"(주)영신엔지니어링","tel":"031-319-1981","addr":"경기도 안산시 단원구 목내동 520-2번지 시화MTV,8사 303호","category":"기타 - 기계공구"}]},{"lat":"37.317286037","long":"126.77649885","items":[{"name":"(주)오무전기","tel":"031-491-8160","addr":"경기도 안산시 단원구 목내동 472-3번지","category":"전기제품 - 기타전기제품"}]},{"lat":"37.305201093","long":"126.7800543","items":[{"name":"(주)우주정공","tel":"031-498-8452","addr":"경기도 안산시 단원구 목내동 400-5번지","category":"기타 - 기계공구"}]},{"lat":"37.303660588","long":"126.76625297","items":[{"name":"(주)웅자닷컴","tel":"070-7123-1080","addr":"경기도 안산시 단원구 목내동 504-1번지 112동 1호","category":"문화.취미 - 애완동물"}]},{"lat":"37.309669323","long":"126.77488606","items":[{"name":"(주)유래코","tel":"031-491-2245","addr":"경기도 안산시 단원구 목내동 449번지","category":"기타 - 기타 전문점"}]},{"lat":"37.310116821","long":"126.77332803","items":[{"name":"(주)유성식품","tel":"031-491-8062","addr":"경기도 안산시 단원구 목내동 450-1번지","category":"음료식품 - 기타음료식품"}]},{"lat":"37.30394885","long":"126.7754109","items":[{"name":"(주)유엘아이","tel":"031-1111-1111","addr":"경기도 안산시 단원구 목내동 403-3번지 광양프런티어밸리-2 지식산업센터 408호","category":"전기제품 - 기타전기제품"},{"name":"GS25안산광양점","tel":"","addr":"경기도 안산시 단원구 목내동 403-3번지 광양프런티어밸리2 122호","category":"유통업 영리 - 편 의 점"},{"name":"대경에스티 주식회사","tel":"031-486-3366","addr":"경기도 안산시 단원구 목내동 403-3번지 광양프런티어밸리2 607호","category":"전기제품 - 기타전기제품"},{"name":"더원시스템","tel":"","addr":"경기도 안산시 단원구 목내동 403-3번지 광양프런티어밸리-2지식산업센터 413호","category":"기타 - 기계공구"},{"name":"미래시스템","tel":"031-492-2983","addr":"경기도 안산시 단원구 목내동 403-3번지 광양프런티어밸리-2 지식산업센터 410호","category":"신변잡화 - 기타잡화"},{"name":"슈룹한우곰탕","tel":"032-494-4308","addr":"경기도 안산시 단원구 목내동 403-3번지 광양프런티어밸리-2지식산업센터 116호","category":"일반휴게음식 - 일반한식"},{"name":"씨유안산광양프런티어2차점","tel":"031-898-6568","addr":"경기도 안산시 단원구 목내동 403-3번지 광양프런티어밸리2지식산업센터1층112호","category":"유통업 영리 - 편 의 점"},{"name":"아이원사무용가구","tel":"031-362-5410","addr":"경기도 안산시 단원구 목내동 403-3번지 과양프론티어밸리2지식산업센터 119호","category":"가구 - 기타가구"},{"name":"어죽이네 철렵국","tel":"031-493-0078","addr":"경기도 안산시 단원구 목내동 403-3번지 광양프런티어밸리-2 지식산업센터 114호","category":"일반휴게음식 - 일반한식"},{"name":"에이엔텍","tel":"","addr":"경기도 안산시 단원구 목내동 403-3번지 광양프런티어밸리-2지식산업센터 6층 617호","category":"기타 - 기계공구"},{"name":"이가네부대찌개","tel":"031-494-8949","addr":"경기도 안산시 단원구 목내동 403-3번지 광양프런티어밸리-2 지식산업센터 105,106호","category":"일반휴게음식 - 일반한식"},{"name":"이가원칼국수/주식회사 이오에프앤씨","tel":"031-494-7678","addr":"경기도 안산시 단원구 목내동 403-3번지 광양프런티어밸리-2 지식산업센터 115호","category":"일반휴게음식 - 일반한식"},{"name":"제이엠에스","tel":"031-492-1820","addr":"경기도 안산시 단원구 목내동 403-3번지 광양프런티어밸리-2 지식산업센터 313호","category":"음료식품 - 기타음료식품"},{"name":"제일산업롤","tel":"031-431-3336","addr":"경기도 안산시 단원구 목내동 403-3번지 광양프런티어밸리-2지식산업센터 203호","category":"기타 - 기계공구"},{"name":"종현모터스","tel":"031-495-7878","addr":"경기도 안산시 단원구 목내동 403-3번지 광양프런티어밸리2 지식산업센터 1층 136호","category":"자동차정비 유지 - 자동차정비"},{"name":"주식회사 그란테크","tel":"","addr":"경기도 안산시 단원구 목내동 403-3번지 광양프런티어밸리-2지식산업센터 608호","category":"기타 - 기계공구"},{"name":"주식회사 나노스페이스","tel":"031-493-8541","addr":"경기도 안산시 단원구 목내동 403-3번지 광양프런티어밸리-2지식산업센터 614,624호","category":"신변잡화 - 기타잡화"},{"name":"주식회사그란테크/원격지","tel":"070-8621-0773","addr":"경기도 안산시 단원구 목내동 403-3번지 광양프런티어밸리-2지식산업센터 608호","category":"기타 - 기타 전문점"},{"name":"친친","tel":"","addr":"경기도 안산시 단원구 목내동 403-3번지 광양프런티어밸리-2 지식산업센터 115호","category":"일반휴게음식 - 일반한식"},{"name":"친친","tel":"","addr":"경기도 안산시 단원구 목내동 403-3번지 광양프런티어밸리-2지식산업센터 115호","category":"일반휴게음식 - 일반한식"},{"name":"파리바게트 목내점","tel":"031-491-7786","addr":"경기도 안산시 단원구 목내동 403-3번지 광양프런티어밸리-2 지식산업센터 1층 113호","category":"음료식품 - 제과점"},{"name":"한주카서비스","tel":"031-508-0978","addr":"경기도 안산시 단원구 목내동 403-3번지 1층 101,102호","category":"자동차정비 유지 - 자동차정비"},{"name":"한주카써비스","tel":"031-506-0978","addr":"경기도 안산시 단원구 목내동 403-3번지 1층 101,102","category":"자동차정비 유지 - 자동차정비"},{"name":"현대부품","tel":"031-410-2400","addr":"경기도 안산시 단원구 목내동 403-3번지 광양프런티어밸리-2 지식산업센터 1층 136호","category":"자동차정비 유지 - 자동차부품"},{"name":"힐링푸드","tel":"031-491-0695","addr":"경기도 안산시 단원구 목내동 403-3번지 광양프런티어밸리2지식산업센터2층 2층 208,209호","category":"일반휴게음식 - 일반한식"}]},{"lat":"37.317337578","long":"126.77991695","items":[{"name":"(주)융덕산업/원격지","tel":"031-493-3636","addr":"경기도 안산시 단원구 목내동 477-1번지","category":"기타 - 기타 전문점"}]},{"lat":"37.302256422","long":"126.76696795","items":[{"name":"(주)이엘엔터프라이즈","tel":"031-434-9920","addr":"경기도 안산시 단원구 목내동 505-2번지","category":"기타 - 기계공구"}]},{"lat":"37.30183952","long":"126.76575112","items":[{"name":"(주)인광","tel":"031-504-3228","addr":"경기도 안산시 단원구 목내동 505-16번지","category":"전기제품 - 기타전기제품"}]},{"lat":"37.300477923","long":"126.76522529","items":[{"name":"(주)정영","tel":"031-430-4704","addr":"경기도 안산시 단원구 목내동 506-4번지","category":"서적문구 - 과학기자재"}]},{"lat":"37.304343211","long":"126.77432689","items":[{"name":"(주)제이앤엘테크","tel":"031-499-1005","addr":"경기도 안산시 단원구 목내동 403-9번지","category":"기타 - 기계공구"},{"name":"코막중공업주식회사","tel":"031-498-3223","addr":"경기도 안산시 단원구 목내동 403-9 반월공단6블럭28롯트","category":"자동차정비 유지 - 중장비수리"}]},{"lat":"37.308502371","long":"126.77716815","items":[{"name":"(주)제이케이","tel":"031-494-1927","addr":"경기도 안산시 단원구 목내동 395-4번지","category":"기타 - 기계공구"}]},{"lat":"37.306700768","long":"126.77271803","items":[{"name":"(주)제일바이오","tel":"031-427-2861","addr":"경기도 안산시 단원구 목내동 456-2번지","category":"기타의료기관 - 동물병원"}]},{"lat":"37.308341391","long":"126.77780031","items":[{"name":"(주)조웰","tel":"031-493-9911","addr":"경기도 안산시 단원구 목내동 395-3번지","category":"기타 - 기계공구"}]},{"lat":"37.318203231","long":"126.7802754","items":[{"name":"(주)중앙바이오텍","tel":"031-493-1461","addr":"경기도 안산시 단원구 목내동 477번지 (주)중앙바이오텍","category":"기타의료기관 - 동물병원"}]},{"lat":"37.303257717","long":"126.76755134","items":[{"name":"(주)지에스이","tel":"031-508-9805","addr":"경기도 안산시 단원구 목내동 504번지 성보화학(주) 206호","category":"전기제품 - 기타전기제품"}]},{"lat":"37.301565105","long":"126.77748214","items":[{"name":"(주)창대도금","tel":"031-494-0107","addr":"경기도 안산시 단원구 목내동 405-4번지 안산PM협동화사업장 1동 102호","category":"기타 - 기계공구"}]},{"lat":"37.306895519","long":"126.7755825","items":[{"name":"(주)코로나","tel":"031-491-0271","addr":"경기도 안산시 단원구 목내동 399-2번지","category":"전기제품 - 냉열기기"},{"name":"주식회사 진영엠티","tel":"031-508-4829","addr":"경기도 안산시 단원구 목내동 399-2번지 103호","category":"기타 - 기계공구"},{"name":"한국코로나(주)","tel":"031-491-0271","addr":"경기도 안산시 단원구 목내동 399-2번지","category":"전기제품 - 냉열기기"}]},{"lat":"37.31000659","long":"126.76766568","items":[{"name":"(주)클래드","tel":"031-491-8877","addr":"경기도 안산시 단원구 목내동 451-2번지","category":"주방용구 - 주방용구"}]},{"lat":"37.302675306","long":"126.77380182","items":[{"name":"(주)테스토닉","tel":"031-432-4380","addr":"경기도 안산시 단원구 목내동 406-8번지 (주)원텍피앤이 비동","category":"전기제품 - 기타전기제품"},{"name":"에스티상사","tel":"","addr":"경기도 안산시 단원구 목내동 406-8번지","category":"건축자재 - 기타건축자재"}]},{"lat":"37.300786174","long":"126.77536403","items":[{"name":"(주)툴앤몰드","tel":"031-491-0953","addr":"경기도 안산시 단원구 목내동 408-8번지 7 B-34호","category":"기타 - 기계공구"}]},{"lat":"37.309537793","long":"126.76753177","items":[{"name":"(주)피에스캠","tel":"031-494-0793","addr":"경기도 안산시 단원구 목내동 451-3번지","category":"전기제품 - 기타전기제품"}]},{"lat":"37.300649545","long":"126.76997315","items":[{"name":"(주)한국고벨에이치앤씨","tel":"032-583-6671","addr":"경기도 안산시 단원구 목내동 491-2번지 A동","category":"기타 - 기계공구"},{"name":"드림식당","tel":"031-495-2684","addr":"경기도 안산시 단원구 목내동 491-2번지 D동 1층","category":"일반휴게음식 - 위탁급식업"},{"name":"우정정밀","tel":"031-495-1782","addr":"경기도 안산시 단원구 목내동 491-2번지 B","category":"기타 - 기계공구"},{"name":"주식회사 에이치티씨","tel":"031-434-7813","addr":"경기도 안산시 단원구 목내동 491-2번지","category":"자동차정비 유지 - 자동차부품"}]},{"lat":"37.309729378","long":"126.76872688","items":[{"name":"(주)한국소둔열처리","tel":"031-491-0134","addr":"경기도 안산시 단원구 목내동 452-7 반월공단16B18L","category":"용역 서비스 - 기타용역서비스"}]},{"lat":"37.306476982","long":"126.77347445","items":[{"name":"(주)한국파비스제약","tel":"031-579-6262","addr":"경기도 안산시 단원구 목내동 456-3번지","category":"약국 - 제약회사"}]},{"lat":"37.308676992","long":"126.77897244","items":[{"name":"(주)현대방사선기계","tel":"031-267-6718","addr":"경기도 안산시 단원구 목내동 396번지","category":"보건위생 - 의료용품"}]},{"lat":"37.309508076","long":"126.78010927","items":[{"name":"(주)혜성금속","tel":"031-492-4839","addr":"경기도 안산시 단원구 목내동 393-7번지","category":"기타 - 기계공구"}]},{"lat":"37.311923682","long":"126.77582682","items":[{"name":"(주)호진플라텍/원격지","tel":"031-493-8141","addr":"경기도 안산시 단원구 목내동 445-4 반월공단 15-1","category":"기타 - 기타 전문점"}]},{"lat":"37.302732846","long":"126.77560631","items":[{"name":"JS엔지니어링","tel":"031-364-8872","addr":"경기도 안산시 단원구 목내동 406-3번지","category":"신변잡화 - 기타잡화"}]},{"lat":"37.301645917","long":"126.77733527","items":[{"name":"거송산업(주)","tel":"","addr":"경기도 안산시 단원구 목내동 405-4번지 안산PM협동화사업장 가동 201호","category":"용역 서비스 - 기타용역서비스"}]},{"lat":"37.304704857","long":"126.77496872","items":[{"name":"광명전기","tel":"031-492-8900","addr":"경기도 안산시 단원구 목내동 403-1,6B-27L","category":"건축자재 - 조명기구"}]},{"lat":"37.301453554","long":"126.77568911","items":[{"name":"구내매점","tel":"031-494-2172","addr":"경기도 안산시 단원구 목내동 408 태광정밀 내","category":"음료식품 - 기타음료식품"}]},{"lat":"37.302529257","long":"126.7775131","items":[{"name":"구제 알뜰매장","tel":"031-494-4922","addr":"경기도 안산시 단원구 목내동 405-9번지 2동","category":"의류 - 기타의류"}]},{"lat":"37.296369916","long":"126.77008785","items":[{"name":"금오M.T","tel":"031-431-0411","addr":"경기도 안산시 단원구 목내동 517-14","category":"기타 - 기계공구"},{"name":"금오구내식당","tel":"031-492-1559","addr":"경기도 안산시 단원구 목내동 517-14번지 215호 시화MTV8사","category":"일반휴게음식 - 일반한식"}]},{"lat":"37.296759477","long":"126.77116936","items":[{"name":"기광한식부페","tel":"031-419-5128","addr":"경기도 안산시 단원구 목내동 517-1번지","category":"일반휴게음식 - 위탁급식업"}]},{"lat":"37.303038498","long":"126.77524445","items":[{"name":"나이스전자","tel":"031-492-8891","addr":"경기도 안산시 단원구 목내동 406-9번지","category":"전기제품 - 기타전기제품"},{"name":"엠엠에스/원격지","tel":"031-508-5330","addr":"경기도 안산시 단원구 목내동 406-9 반월공단7B-3L-1","category":"기타 - 기타 전문점"}]},{"lat":"37.315036876","long":"126.77827672","items":[{"name":"남도식당","tel":"031-492-1306","addr":"경기도 안산시 단원구 목내동 388번지","category":"일반휴게음식 - 위탁급식업"}]},{"lat":"37.295843472","long":"126.76363837","items":[{"name":"남도한식뷔페","tel":"031-494-2633","addr":"경기도 안산시 단원구 목내동 523-2번지","category":"일반휴게음식 - 위탁급식업"},{"name":"원경테크","tel":"031-430-7676","addr":"경기도 안산시 단원구 목내동 523-2번지 시화MTV사 803호","category":"기타 - 기계공구"}]},{"lat":"37.314342988","long":"126.77822237","items":[{"name":"다복식당","tel":"031-486-8200","addr":"경기도 안산시 단원구 목내동 388-5번지","category":"일반휴게음식 - 위탁급식업"}]},{"lat":"37.309140606","long":"126.76716077","items":[{"name":"단원식당","tel":"","addr":"경기도 안산시 단원구 목내동 451-4번지","category":"일반휴게음식 - 위탁급식업"},{"name":"태원신선","tel":"031-495-0573","addr":"경기도 안산시 단원구 목내동 451-4번지","category":"전기제품 - 기타전기제품"},{"name":"태원전선","tel":"031-495-0573","addr":"경기도 안산시 단원구 목내동 451-4번지","category":"전기제품 - 기타전기제품"}]},{"lat":"37.304731608","long":"126.77954811","items":[{"name":"대광공조","tel":"031-493-6526","addr":"경기도 안산시 단원구 목내동 401-2 반월공단 6블럭11호","category":"자동차정비 유지 - 자동차부품"},{"name":"세영식품","tel":"031-495-7906","addr":"경기도 안산시 단원구 목내동 401-2번지 1층","category":"음료식품 - 기타음료식품"},{"name":"신암정밀","tel":"031-492-6393","addr":"경기도 안산시 단원구 목내동 401-2번지","category":"자동차정비 유지 - 자동차부품"},{"name":"정성식당","tel":"031-495-7524","addr":"경기도 안산시 단원구 목내동 401-2번지","category":"일반휴게음식 - 위탁급식업"}]},{"lat":"37.303755564","long":"126.77330225","items":[{"name":"대득식당","tel":"031-494-7765","addr":"경기도 안산시 단원구 목내동 406번지","category":"일반휴게음식 - 위탁급식업"}]},{"lat":"37.30070043","long":"126.77764262","items":[{"name":"동남석유공업(주)","tel":"031-491-4201","addr":"경기도 안산시 단원구 목내동 408-3번지","category":"자동차정비 유지 - 윤활유 전문 판매"},{"name":"동남석유공업(주)/원격지","tel":"031-491-4201","addr":"경기도 안산시 단원구 목내동 408-3번지","category":"기타 - 기타 전문점"}]},{"lat":"37.295231946","long":"126.77332815","items":[{"name":"동신식당","tel":"031-493-3426","addr":"경기도 안산시 단원구 목내동 517-9","category":"일반휴게음식 - 위탁급식업"}]},{"lat":"37.308174113","long":"126.77050266","items":[{"name":"동안식당","tel":"031-493-5014","addr":"경기도 안산시 단원구 목내동 454-1번지 C동","category":"일반휴게음식 - 위탁급식업"},{"name":"주식회사 옵티움","tel":"031-491-4278","addr":"경기도 안산시 단원구 목내동 454-1번지 제E","category":"광학제품 - 기타광학제품"}]},{"lat":"37.303342647","long":"126.77410433","items":[{"name":"두선산업 (주) 안산지점","tel":"031-508-5571","addr":"경기도 안산시 단원구 목내동 406-1번지 1,2동","category":"유통업 영리 - 기타유통업"},{"name":"디자인뱅크","tel":"","addr":"경기도 안산시 단원구 목내동 406-1번지","category":"보건위생 - 화장품"}]},{"lat":"37.309365694","long":"126.78105723","items":[{"name":"득일로공업 (주)","tel":"031-508-3862","addr":"경기도 안산시 단원구 목내동 393-8번지","category":"기타 - 기계공구"}]},{"lat":"37.301816099","long":"126.77680465","items":[{"name":"디에스바렐","tel":"031-493-0690","addr":"경기도 안산시 단원구 목내동 405-5번지 현성전자(주) 14호","category":"기타 - 기계공구"},{"name":"주식회사 하이아노텍","tel":"031-495-5401","addr":"경기도 안산시 단원구 목내동 405-5번지","category":"기타 - 기계공구"}]},{"lat":"37.303036375","long":"126.77885381","items":[{"name":"디에스스틸(주)","tel":"031-494-7181","addr":"경기도 안산시 단원구 목내동 404-5번지 제2동 반월공단 6블럭33롯트","category":"건축자재 - 기타건축자재"}]},{"lat":"37.301648406","long":"126.76932716","items":[{"name":"디피씨(주)사내복지","tel":"031-491-2031","addr":"경기도 안산시 단원구 목내동 491-1번지 디피씨(주)","category":"기타 - 비영리/대상"}]},{"lat":"37.306731686","long":"126.77472573","items":[{"name":"리산시스템","tel":"031-1111-1111","addr":"경기도 안산시 단원구 목내동 399-8번지","category":"자동차정비 유지 - 자동차정비"}]},{"lat":"37.302226007","long":"126.76527618","items":[{"name":"리젠시스템(주)","tel":"070-7874-1601","addr":"경기도 안산시 단원구 목내동 505-12번지","category":"전기제품 - 기타전기제품"},{"name":"서원FnS","tel":"","addr":"경기도 안산시 단원구 목내동 505-12번지 17블럭 38-2L","category":"일반휴게음식 - 위탁급식업"}]},{"lat":"37.307840848","long":"126.77519614","items":[{"name":"릭실코리아 유한회사","tel":"031-491-0037","addr":"경기도 안산시 단원구 목내동 398-14번지","category":"기타 - 기타 전문점"}]},{"lat":"37.295174388","long":"126.76696751","items":[{"name":"명성사","tel":"","addr":"경기도 안산시 단원구 목내동 524-2번지 시화MTV7사 703호","category":"자동차정비 유지 - 자동차부품"}]},{"lat":"37.307227549","long":"126.77488215","items":[{"name":"명성식당","tel":"031-495-3809","addr":"경기도 안산시 단원구 목내동 399-1번지 1층","category":"일반휴게음식 - 위탁급식업"}]},{"lat":"37.31261667","long":"126.770771","items":[{"name":"명일구내식당","tel":"","addr":"경기도 안산시 단원구 목내동 446-4번지 3층","category":"일반휴게음식 - 일반한식"}]},{"lat":"37.31409049","long":"126.77811032","items":[{"name":"미광산업","tel":"031-493-1281","addr":"경기도 안산시 단원구 목내동 388-6번지 반월공단 2블록 3로트 102호","category":"건축자재 - 페인트"},{"name":"주식회사솔리텍","tel":"031-434-2220","addr":"경기도 안산시 단원구 목내동 388-6번지","category":"기타 - 기계공구"}]},{"lat":"37.304780725","long":"126.76769323","items":[{"name":"미래포장","tel":"031-499-8594","addr":"경기도 안산시 단원구 목내동 488번지","category":"유통업 영리 - 기타유통업"},{"name":"한국보훈복지공단/비씨","tel":"031-445-0001","addr":"경기도 안산시 단원구 목내동 488번지","category":"별도관리 - 자체물품대금"}]},{"lat":"37.302006134","long":"126.76797257","items":[{"name":"바이켐(주)","tel":"031-493-9451","addr":"경기도 안산시 단원구 목내동 505-4번지","category":"건축자재 - 페인트"}]},{"lat":"37.297088305","long":"126.76885629","items":[{"name":"백산셀프뷔페","tel":"031-495-0900","addr":"경기도 안산시 단원구 목내동 514-2번지 백산철강(주) 403호","category":"일반휴게음식 - 위탁급식업"},{"name":"백산철강(주)","tel":"031-234-9922","addr":"경기도 안산시 단원구 목내동 514-2번지 시화엠티브이단지7사403호","category":"기타 - 기타 전문점"},{"name":"센텍주식회사","tel":"031-423-0082","addr":"경기도 안산시 단원구 목내동 514-2번지 다동 7사403호","category":"전기제품 - 기타전기제품"},{"name":"주식회사 실리오(SILIO)","tel":"031-499-9610","addr":"경기도 안산시 단원구 목내동 514-2번지 403호 시화엠티브이단지7사","category":"전기제품 - 기타전기제품"}]},{"lat":"37.3025328464","long":"126.7700575727","items":[{"name":"삼우사","tel":"","addr":"경기도 안산시 단원구 목내동 490-1번지","category":"운수업 - 육상화물취급업"}]},{"lat":"37.310144065","long":"126.77813335","items":[{"name":"삼원정밀","tel":"031-493-8667","addr":"경기도 안산시 단원구 목내동 394-9번지 2층","category":"전기제품 - 가전제품"}]},{"lat":"37.296843649","long":"126.77274806","items":[{"name":"삼인싸이언스(주)","tel":"02-697-7860","addr":"경기도 안산시 단원구 목내동 516-5번지","category":"서적문구 - 과학기자재"},{"name":"삼인싸이언스(주)/원격지","tel":"02-2163-8940","addr":"경기도 안산시 단원구 목내동 516-5번지 1층","category":"기타 - 기타 전문점"}]},{"lat":"37.312146331","long":"126.77447248","items":[{"name":"서광케미칼 주식회사","tel":"031-508-6700","addr":"경기도 안산시 단원구 목내동 445-2번지 A동","category":"서적문구 - 과학기자재"}]},{"lat":"37.295288747","long":"126.76557995","items":[{"name":"서울특수강 (주)","tel":"031-498-2886","addr":"경기도 안산시 단원구 목내동 524번지","category":"건축자재 - 기타건축자재"}]},{"lat":"37.303615041","long":"126.76600497","items":[{"name":"성보(성보화학)","tel":"031-492-8607","addr":"경기도 안산시 단원구 목내동 504-1번지","category":"일반휴게음식 - 위탁급식업"},{"name":"성보식당","tel":"031-492-8607","addr":"경기도 안산시 단원구 목내동 504-1번지","category":"일반휴게음식 - 위탁급식업"}]},{"lat":"37.317673797","long":"126.77666691","items":[{"name":"신성골프","tel":"031-433-7542","addr":"경기도 안산시 단원구 목내동 472-2번지","category":"레져용품 - 골프용품 전문점"}]},{"lat":"37.301058447","long":"126.77638959","items":[{"name":"신진화학공업(주)","tel":"031-491-5881","addr":"경기도 안산시 단원구 목내동 408-2번지","category":"기타 - 기타 전문점"}]},{"lat":"37.298897257","long":"126.77705023","items":[{"name":"신풍제약(주)","tel":"02-2189-3436","addr":"경기도 안산시 단원구 목내동 434-4번지 산단로19번길70","category":"약국 - 약국"},{"name":"신풍제약(주)제주","tel":"031-748-0363","addr":"경기도 안산시 단원구 목내동 434-4번지 신풍제약(주)","category":"약국 - 제약회사"}]},{"lat":"37.300838872","long":"126.76549484","items":[{"name":"아벨금속(주)","tel":"031-495-9200","addr":"경기도 안산시 단원구 목내동 506-1번지","category":"기타 - 기계공구"}]},{"lat":"37.294674447","long":"126.76478115","items":[{"name":"엄마맘(힐)협동조합","tel":"031-432-9874","addr":"경기도 안산시 단원구 목내동 523-5번지","category":"용역 서비스 - 사무서비스"},{"name":"주식회사 디알하이텍조인스","tel":"031-499-1104","addr":"경기도 안산시 단원구 목내동 523-5번지 (주)디알하이텍 B동","category":"건축자재 - 기타건축자재"}]},{"lat":"37.301559288","long":"126.7744481","items":[{"name":"에어캠","tel":"031-491-1488","addr":"경기도 안산시 단원구 목내동 407-1번지","category":"전기제품 - 기타전기제품"}]},{"lat":"37.29650435","long":"126.76519268","items":[{"name":"열린식당","tel":"031-494-3162","addr":"경기도 안산시 단원구 목내동 522-3번지 7사504호","category":"일반휴게음식 - 위탁급식업"}]},{"lat":"37.303447693","long":"126.77719454","items":[{"name":"영신철강산업주식회사","tel":"031-496-8522","addr":"경기도 안산시 단원구 목내동 404-7번지 씨동,디동(목내동,반월공단6블럭31롯트)","category":"기타 - 기계공구"}]},{"lat":"37.305562136","long":"126.78039162","items":[{"name":"오롬에스엘주식회사","tel":"031-491-8557","addr":"경기도 안산시 단원구 목내동 400-2번지 2동 반월공단6블럭1롯트","category":"용역 서비스 - 기타용역서비스"},{"name":"한국톱기계총판","tel":"031-508-4880","addr":"경기도 안산시 단원구 목내동 400-2번지6-1-1 1동","category":"기타 - 기계공구"}]},{"lat":"37.31284106","long":"126.77033037","items":[{"name":"옵티마","tel":"031-493-8847","addr":"경기도 안산시 단원구 목내동 446-3번지","category":"자동차정비 유지 - 자동차부품"}]},{"lat":"37.300316893","long":"126.76580101","items":[{"name":"와드마","tel":"031-403-9140","addr":"경기도 안산시 단원구 목내동 506-5번지 C","category":"기타 - 기계공구"}]},{"lat":"37.302810249","long":"126.76908671","items":[{"name":"유성특장산업","tel":"031-493-1590","addr":"경기도 안산시 단원구 목내동 490번지","category":"기타 - 기타 전문점"},{"name":"주식회사 와이에스원테크","tel":"032-204-2400","addr":"경기도 안산시 단원구 목내동 490번지","category":"전기제품 - 기타전기제품"}]},{"lat":"37.305926859","long":"126.77321669","items":[{"name":"자연밥상","tel":"031-491-7965","addr":"경기도 안산시 단원구 목내동 456-4번지 1층","category":"일반휴게음식 - 일반한식"},{"name":"자연밥상","tel":"031-491-7965","addr":"경기도 안산시 단원구 목내동 456-4번지 1층","category":"일반휴게음식 - 위탁급식업"},{"name":"태나전기(주)","tel":"031-493-6696","addr":"경기도 안산시 단원구 목내동 456-4번지","category":"전기제품 - 기타전기제품"}]},{"lat":"37.298895002","long":"126.76666265","items":[{"name":"전주뷔페식당","tel":"031-492-9600","addr":"경기도 안산시 단원구 목내동 513-3번지 B동1층엠티브이단지7사306호","category":"일반휴게음식 - 위탁급식업"}]},{"lat":"37.30797892","long":"126.77671852","items":[{"name":"주식회사 뉴제이케이","tel":"031-494-1924","addr":"경기도 안산시 단원구 목내동 398-3번지","category":"기타 - 기계공구"}]},{"lat":"37.312370813","long":"126.77878099","items":[{"name":"주식회사 삼영특수인쇄","tel":"031-508-3010","addr":"경기도 안산시 단원구 목내동 388-8번지","category":"서적문구 - 출판 및 인쇄물"}]},{"lat":"37.301119918","long":"126.77555477","items":[{"name":"주식회사 제온시스","tel":"031-491-9238","addr":"경기도 안산시 단원구 목내동 408-1번지","category":"전기제품 - 가전제품"}]},{"lat":"37.300896577","long":"126.7718898","items":[{"name":"주식회사 준우공업","tel":"031-492-3761","addr":"경기도 안산시 단원구 목내동 433-1번지","category":"건축자재 - 기타건축자재"}]},{"lat":"37.305336219","long":"126.77530521","items":[{"name":"주식회사 팜클","tel":"02-470-3826","addr":"경기도 안산시 단원구 목내동 402-4번지","category":"보건위생 - 의료용품"}]},{"lat":"37.295094912","long":"126.76777978","items":[{"name":"주식회사 한국화이어텍","tel":"031-499-8131","addr":"경기도 안산시 단원구 목내동 521-5번지 1층","category":"신변잡화 - 기타잡화"}]},{"lat":"37.301650455","long":"126.7750005","items":[{"name":"주식회사나무와그늘","tel":"031-494-0874","addr":"경기도 안산시 단원구 목내동 407-2,7블럭21롯트","category":"가구 - 기타가구"}]},{"lat":"37.305587623","long":"126.77021735","items":[{"name":"주식회사동우일렉트론","tel":"031-493-2785","addr":"경기도 안산시 단원구 목내동 457-9번지","category":"전기제품 - 기타전기제품"}]},{"lat":"37.308121777","long":"126.77138266","items":[{"name":"주식회사메가일렉트로닉스","tel":"031-431-8327","addr":"경기도 안산시 단원구 목내동 455번지","category":"전기제품 - 기타전기제품"}]},{"lat":"37.297228602","long":"126.77147244","items":[{"name":"주식회사부영엔지니어링/원격지","tel":"031-498-2318","addr":"경기도 안산시 단원구 목내동 516-2번지","category":"기타 - 기타 전문점"}]},{"lat":"37.314586476","long":"126.77833446","items":[{"name":"주식회사상원","tel":"031-319-1239","addr":"경기도 안산시 단원구 목내동 388-2 2B-3L 2동","category":"기타 - 기계공구"},{"name":"주식회사상원/원격지","tel":"031-319-1239","addr":"경기도 안산시 단원구 목내동 388-2번지 로 2동","category":"기타 - 기타 전문점"}]},{"lat":"37.311533532","long":"126.77441793","items":[{"name":"주식회사윈텍/원격지","tel":"031-494-3778","addr":"경기도 안산시 단원구 목내동 448 반월공단 15블럭 8롯트","category":"기타 - 기타 전문점"}]},{"lat":"37.309115013","long":"126.78191525","items":[{"name":"진흥식당","tel":"031-491-8879","addr":"경기도 안산시 단원구 목내동 393-1번지","category":"일반휴게음식 - 위탁급식업"},{"name":"행운식당","tel":"031-491-8879","addr":"경기도 안산시 단원구 목내동 393-1번지 1층","category":"일반휴게음식 - 위탁급식업"}]},{"lat":"37.301010256","long":"126.77475429","items":[{"name":"천우식당","tel":"031-494-4370","addr":"경기도 안산시 단원구 목내동 407-4번지 반월공단7B-33L","category":"일반휴게음식 - 위탁급식업"}]},{"lat":"37.312112544","long":"126.77099816","items":[{"name":"천우식당","tel":"031-508-4370","addr":"경기도 안산시 단원구 목내동 446번지 천우산업","category":"일반휴게음식 - 위탁급식업"}]},{"lat":"37.307644119","long":"126.77597505","items":[{"name":"케이엠테크","tel":"070-4444-8273","addr":"경기도 안산시 단원구 목내동 398-12번지 3층","category":"전기제품 - 기타전기제품"}]},{"lat":"37.301950411","long":"126.77636436","items":[{"name":"코마산업개발(주)","tel":"031-495-2992","addr":"경기도 안산시 단원구 목내동 405-6반월공단7B-15","category":"기타 - 기타 전문점"}]},{"lat":"37.297508894","long":"126.77663708","items":[{"name":"타구베이스볼센터","tel":"031-491-5478","addr":"경기도 안산시 단원구 목내동 435-6번지 1층 덕산전자산업(주)","category":"레저업소 - 기타레져업소"}]},{"lat":"37.31483985","long":"126.77890904","items":[{"name":"태봉금속","tel":"031-495-1466","addr":"경기도 안산시 단원구 목내동 388-1번지 1층","category":"용역 서비스 - 기타용역서비스"},{"name":"태양금속","tel":"031-493-6003","addr":"경기도 안산시 단원구 목내동 388-1번지","category":"기타 - 기계공구"}]},{"lat":"37.299976725","long":"126.7714753","items":[{"name":"태창엔지니어링(주)","tel":"031-494-0500","addr":"경기도 안산시 단원구 목내동 433-3 반월공단 7블럭 32-2롯트","category":"기타 - 기계공구"}]},{"lat":"37.298116991","long":"126.77424422","items":[{"name":"파인글라스주식회사","tel":"031-365-3440","addr":"경기도 안산시 단원구 목내동 435-3번지","category":"건축자재 - 유리"}]},{"lat":"37.295506661","long":"126.76641385","items":[{"name":"풍성한뷔페식당","tel":"070-2859-3162","addr":"경기도 안산시 단원구 목내동 521-7번지","category":"일반휴게음식 - 위탁급식업"}]},{"lat":"37.297981581","long":"126.7694964","items":[{"name":"하스엠식당","tel":"031-0000-0000","addr":"경기도 안산시 단원구 목내동 513-7번지","category":"일반휴게음식 - 위탁급식업"}]},{"lat":"37.305769454","long":"126.78043613","items":[{"name":"한국소나무집","tel":"031-411-4542","addr":"경기도 안산시 단원구 목내동 400-2번지 제1동 1층 일부","category":"일반휴게음식 - 위탁급식업"}]},{"lat":"37.297678073","long":"126.77094097","items":[{"name":"한국아네스트이와타주식회사","tel":"031-364-8120","addr":"경기도 안산시 단원구 목내동 516-1번지 한국아네스트이와타(주)","category":"기타 - 기계공구"}]},{"lat":"37.307837827","long":"126.76902602","items":[{"name":"한화호텔앤드리조트(주)종근당바이오점","tel":"031-489-1179","addr":"경기도 안산시 단원구 목내동 454번지 3층","category":"일반휴게음식 - 위탁급식업"}]},{"lat":"37.31606266","long":"126.77755167","items":[{"name":"현진제업 (주)","tel":"070-7090-9284","addr":"경기도 안산시 단원구 목내동 476-2번지","category":"유통업 영리 - 기타유통업"}]},{"lat":"37.302344086","long":"126.77491945","items":[{"name":"혜성산업","tel":"031-495-8031","addr":"경기도 안산시 단원구 목내동 406-6 반월공단7블럭6롯트","category":"기타 - 기타 전문점"}]}]