[{"lat":"37.428831122","long":"126.99110935","imageIndex":13,"items":[{"name":"2000당구장","tel":"02-504-4332","addr":"경기도 과천시 중앙동 40-6번지","indutype":"레저업소 - 당 구 장","category":"leisure"}]},{"lat":"37.428578819","long":"126.99089473","imageIndex":13,"items":[{"name":"과천당구클럽","tel":"02-502-3297","addr":"경기도 과천시 중앙동 40-9번지 태양빌딩 6층 601호","indutype":"레저업소 - 당 구 장","category":"leisure"}]},{"lat":"37.433498472","long":"126.99272435","imageIndex":13,"items":[{"name":"과천복싱체육관","tel":"031-502-8524","addr":"경기도 과천시 중앙동 70번지 청운빌딩 지하1층","indutype":"레저업소 - 헬스클럽","category":"leisure"}]},{"lat":"37.428299546","long":"126.9912789","imageIndex":13,"items":[{"name":"명품노래연습장","tel":"02-504-6692","addr":"경기도 과천시 중앙동 40-11번지 현대빌딩 3층 307호","indutype":"레저업소 - 노 래 방","category":"leisure"},{"name":"현대당구장","tel":"02-504-3836","addr":"경기도 과천시 중앙동 40-11번지","indutype":"레저업소 - 당 구 장","category":"leisure"}]},{"lat":"37.428245444","long":"126.99086089","imageIndex":13,"items":[{"name":"아이디얼 필라테스","tel":"031-111-1111","addr":"경기도 과천시 중앙동 40-10번지 고려빌딩 4층 404호","indutype":"레저업소 - 헬스클럽","category":"leisure"}]},{"lat":"37.428714046","long":"126.99166297","imageIndex":13,"items":[{"name":"아이센스 PC방 과천점","tel":"070-9496-8133","addr":"경기도 과천시 중앙동 40-13번지 지하2층","indutype":"레저업소 - 기타레져업소","category":"leisure"}]},{"lat":"37.42891224","long":"126.99139179","imageIndex":13,"items":[{"name":"에스에스당구장","tel":"02-504-0014","addr":"경기도 과천시 중앙동 40-5번지 중앙빌딩 5층 501호","indutype":"레저업소 - 당 구 장","category":"leisure"}]}]