[{"lat":"37.139900921","long":"127.25543222","items":[{"name":"(재)미리내천주성삼성직수도회","tel":"031-674-7302","addr":"경기도 안성시 양성면 미산리 산 124","category":"신변잡화 - 기념품점"}]},{"lat":"37.117398399","long":"127.26117456","items":[{"name":"DWS스팀세차","tel":"031-674-2241","addr":"경기도 안성시 양성면 미산리 982번지","category":"자동차정비 유지 - 세차장"},{"name":"안성아덴힐CC/(주)신미산개발","tel":"031-612-6012","addr":"경기도 안성시 양성면 미산리 982번지 안성아덴힐CC","category":"레저업소 - 골프경기장"}]},{"lat":"37.130677277","long":"127.25820371","items":[{"name":"로스가든(ROHSGODEN)","tel":"031-674-6969","addr":"경기도 안성시 양성면 미산리 377-1번지","category":"일반휴게음식 - 서양음식"}]},{"lat":"37.130756087","long":"127.25926182","items":[{"name":"로스가든키친","tel":"031-674-3369","addr":"경기도 안성시 양성면 미산리 375-2번지 A동 1층","category":"일반휴게음식 - 서양음식"}]},{"lat":"37.128314242","long":"127.25926483","items":[{"name":"미리내모텔","tel":"031-673-1700","addr":"경기도 안성시 양성면 미산리 464번지","category":"숙박업 - 여관/기타숙박업"}]},{"lat":"37.128258791","long":"127.25990608","items":[{"name":"산촌가든","tel":"031-672-7353","addr":"경기도 안성시 양성면 미산리 465번지","category":"일반휴게음식 - 일반한식"}]},{"lat":"37.134759305","long":"127.25807112","items":[{"name":"성덕온세상","tel":"031-677-3577","addr":"경기도 안성시 양성면 미산리 206번지 성덕온세상","category":"건강식품 - 기타건강식품"},{"name":"힐링하우스","tel":"","addr":"경기도 안성시 양성면 미산리 206번지 1층","category":"일반휴게음식 - 서양음식"}]},{"lat":"37.12572818","long":"127.25928987","items":[{"name":"영농조합법인 한마당","tel":"031-000-0000","addr":"경기도 안성시 양성면 미산리 528번지","category":"음료식품 - 농·축·수산품"}]},{"lat":"37.134115921","long":"127.25975708","items":[{"name":"은하수꽃벵이","tel":"","addr":"경기도 안성시 양성면 미산리 279-8번지","category":"음료식품 - 농·축·수산품"}]},{"lat":"37.129035132","long":"127.26337473","items":[{"name":"의료법인 인선의료재단","tel":"031-673-0836","addr":"경기도 안성시 양성면 미산리 400-1번지","category":"의원 - 의원"},{"name":"의료법인인선의료재단인선사랑요양원","tel":"031-673-0836","addr":"경기도 안성시 양성면 미산리 400-1번지","category":"기타의료기관 - 기타의료기관 및 기타"}]},{"lat":"37.134397337","long":"127.25879017","items":[{"name":"호수정감","tel":"031-674-7822","addr":"경기도 안성시 양성면 미산리 225번지","category":"일반휴게음식 - 일반한식"}]}]