[{"lat":"36.959968032","long":"127.04503358","items":[{"name":"$10만원샵","tel":"031-691-5226","addr":"경기도 평택시 팽성읍 안정리 136-21번지","category":"의류 - 정장"},{"name":"로즈네일","tel":"031-656-5611","addr":"경기도 평택시 팽성읍 안정리 136-21번지 1층","category":"보건위생 - 피부미용실"},{"name":"치킨펍","tel":"031-691-0737","addr":"경기도 평택시 팽성읍 안정리 136-21번지 다호","category":"일반휴게음식 - 스넥"}]},{"lat":"36.959418175","long":"127.04559469","items":[{"name":"(주)알피엠글로벌서비스","tel":"031-653-3259","addr":"경기도 평택시 팽성읍 안정리 136-10번지 평택파라디아 312호","category":"용역 서비스 - 사무서비스"},{"name":"파라디아 짐","tel":"031-692-8844","addr":"경기도 평택시 팽성읍 안정리 136-10번지 파라디아빌딩 2층 213~216호","category":"회원제형태 - 레져업소"},{"name":"하나로마트(팽성농협 안송지점)","tel":"031-691-8831","addr":"경기도 평택시 팽성읍 안정리 136-10번지 평택파라디아 1층 107호","category":"소매업 - 슈퍼"}]},{"lat":"36.958445603","long":"127.04392115","items":[{"name":"(주)줄리스 리얼티 앤 리로케이션","tel":"031-652-6517","addr":"경기도 평택시 팽성읍 안정리 127-28번지","category":"용역 서비스 - 부동산 중개·임대"},{"name":"더스툽","tel":"031-657-0795","addr":"경기도 평택시 팽성읍 안정리 127-28번지 3층","category":"일반휴게음식 - 서양음식"},{"name":"보일링크랩쉬림프","tel":"031-655-8005","addr":"경기도 평택시 팽성읍 안정리 127-28번지","category":"일반휴게음식 - 서양음식"},{"name":"스시제이","tel":"031-655-4565","addr":"경기도 평택시 팽성읍 안정리 127-28번지","category":"일반휴게음식 - 일식·회집"}]},{"lat":"36.963389337","long":"127.05225568","items":[{"name":"(주)팽성유통","tel":"031-691-9455","addr":"경기도 평택시 팽성읍 안정리 22-1번지","category":"전기제품 - 가전제품"}]},{"lat":"36.963437543","long":"127.04397997","items":[{"name":"(주)한성네트웍","tel":"031-772-4845","addr":"경기도 평택시 팽성읍 안정리 108-5번지","category":"사무통신 - 통신기기"},{"name":"세븐일레븐평택안정점","tel":"","addr":"경기도 평택시 팽성읍 안정리 108-5번지 101호","category":"유통업 영리 - 편 의 점"}]},{"lat":"36.962607702","long":"127.04637127","items":[{"name":"77상회","tel":"031-691-7416","addr":"경기도 평택시 팽성읍 안정리 41-476번지","category":"음료식품 - 기타음료식품"}]},{"lat":"36.961500141","long":"127.04423719","items":[{"name":"EP/스튜디오","tel":"031-5022-6573","addr":"경기도 평택시 팽성읍 안정리 41-782번지","category":"레져용품 - 악기점"}]},{"lat":"36.960300264","long":"127.0482002","items":[{"name":"GG미용실","tel":"031-658-7142","addr":"경기도 평택시 팽성읍 안정리 154-7번지","category":"서비스업 - 이미용"},{"name":"굿모닝","tel":"031-692-0425","addr":"경기도 평택시 팽성읍 안정리 154-7번지","category":"보건위생 - 화장품"},{"name":"쉬즈미","tel":"031-691-1163","addr":"경기도 평택시 팽성읍 안정리 154-7번지 5층","category":"서비스업 - 이미용"},{"name":"쉬즈미","tel":"031-655-3993","addr":"경기도 평택시 팽성읍 안정리 154-7번지 5층","category":"보건위생 - 피부미용실"}]},{"lat":"36.962300716","long":"127.04803295","items":[{"name":"GS25안정쇼핑로점","tel":"","addr":"경기도 평택시 팽성읍 안정리 41-67번지 1층","category":"유통업 영리 - 편 의 점"},{"name":"K-6종합수입만물전문점","tel":"031-692-5225","addr":"경기도 평택시 팽성읍 안정리 41-67번지 1층","category":"음료식품 - 기타음료식품"}]},{"lat":"36.96055184","long":"127.05006428","items":[{"name":"GS25안정순환로점","tel":"","addr":"경기도 평택시 팽성읍 안정리 165-57번지","category":"유통업 영리 - 편 의 점"}]},{"lat":"36.96424661","long":"127.04914578","items":[{"name":"GS25팽성브라운점","tel":"","addr":"경기도 평택시 팽성읍 안정리 48-51번지 111,1112호","category":"유통업 영리 - 편 의 점"},{"name":"국가대표 태권도","tel":"031-655-1991","addr":"경기도 평택시 팽성읍 안정리 48-51번지 305호","category":"학원 - 예·체능계학원"},{"name":"꿈꾸는이화피아노교습소","tel":"031-000-0000","addr":"경기도 평택시 팽성읍 안정리 48-51번지 302호","category":"학원 - 예·체능계학원"},{"name":"아딸 평택 팽성점","tel":"031-654-1467","addr":"경기도 평택시 팽성읍 안정리 48-51번지 110호","category":"일반휴게음식 - 스넥"},{"name":"월드태권아카데미","tel":"","addr":"경기도 평택시 팽성읍 안정리 48-51번지 305호","category":"서비스업 - 교육"},{"name":"월드태권아카데미","tel":"031-655-1551","addr":"경기도 평택시 팽성읍 안정리 48-51번지 305호","category":"학원 - 예·체능계학원"},{"name":"주식회사 에이플러스부동산중개법인","tel":"02-749-7711","addr":"경기도 평택시 팽성읍 안정리 48-51번지 엠에스타워 105호","category":"용역 서비스 - 부동산 중개·임대"}]},{"lat":"36.960552681","long":"127.04789718","items":[{"name":"HOTEL 조이","tel":"031-654-5501","addr":"경기도 평택시 팽성읍 안정리 155-6번지","category":"숙박업 - 여관/기타숙박업"}]},{"lat":"36.961722995","long":"127.05067135","items":[{"name":"I♡DOG(아이 러브 독)","tel":"031-653-0688","addr":"경기도 평택시 팽성읍 안정리 26-12","category":"문화.취미 - 애완동물"},{"name":"도쿄스토리","tel":"031-618-7749","addr":"경기도 평택시 팽성읍 안정리 26-12번지 1층","category":"일반휴게음식 - 일식·회집"},{"name":"박명희헤어페이스","tel":"031-618-9231","addr":"경기도 평택시 팽성읍 안정리 26-12","category":"보건위생 - 미용원"}]},{"lat":"36.959248198","long":"127.04203522","items":[{"name":"JOY COOK(조이쿡)","tel":"031-691-4922","addr":"경기도 평택시 팽성읍 안정리 113-198","category":"일반휴게음식 - 서양음식"}]},{"lat":"36.963275968","long":"127.04214957","items":[{"name":"KALLISTE","tel":"031-658-0187","addr":"경기도 평택시 팽성읍 안정리 106-2번지","category":"보건위생 - 피부미용실"},{"name":"함지박평택직영점","tel":"031-691-5250","addr":"경기도 평택시 팽성읍 안정리 106-2번지","category":"일반휴게음식 - 일반한식"}]},{"lat":"36.959607788","long":"127.04450565","items":[{"name":"KING KONG/케이엔케이(주)","tel":"","addr":"경기도 평택시 팽성읍 안정리 135-4번지","category":"음료식품 - 기타음료식품"},{"name":"죠크맨셔츠","tel":"02-0000-0000","addr":"경기도 평택시 팽성읍 안정리 135-4번지","category":"의류 - 와이셔츠·타이"},{"name":"죠크맨양복점","tel":"031-655-6852","addr":"경기도 평택시 팽성읍 안정리 135-4번지 1호","category":"의류 - 맞춤복점"}]},{"lat":"36.961524844","long":"127.05045789","items":[{"name":"KR모터스","tel":"031-653-5547","addr":"경기도 평택시 팽성읍 안정리 27-4","category":"자동차정비 유지 - 자동차정비"}]},{"lat":"36.958526727","long":"127.04384259","items":[{"name":"LTE텔레콤","tel":"070-4064-9963","addr":"경기도 평택시 팽성읍 안정리 127-27번지 1층 101호","category":"사무통신 - 통신기기"},{"name":"베이퍼스 에지","tel":"070-8880-2707","addr":"경기도 평택시 팽성읍 안정리 127-27번지 102호","category":"신변잡화 - 기타잡화"},{"name":"잇타이 (테이스트 오브 타일랜드 Taste of","tel":"031-656-2722","addr":"경기도 평택시 팽성읍 안정리 127-27번지 2층","category":"일반휴게음식 - 서양음식"}]},{"lat":"36.958968726","long":"127.04245052","items":[{"name":"M&M 모터스","tel":"031-692-1502","addr":"경기도 평택시 팽성읍 안정리 113-221번지","category":"자동차정비 유지 - 자동차정비"}]},{"lat":"36.959832257","long":"127.046729","items":[{"name":"MR.뺑덕","tel":"031-652-4767","addr":"경기도 평택시 팽성읍 안정리 143-9번지","category":"일반휴게음식 - 일반한식"}]},{"lat":"36.959807179","long":"127.04106986","items":[{"name":"OMG MOTORS","tel":"031-655-7911","addr":"경기도 평택시 팽성읍 안정리 118번지","category":"자동차정비 유지 - 자동차정비"},{"name":"오엠지모터스매매상사","tel":"031-655-7911","addr":"경기도 평택시 팽성읍 안정리 118번지","category":"자동차판매 - 중고자동차판매"},{"name":"주식회사 오엠지모터스(OMG MOTORS Co.Ltd)","tel":"031-655-7911","addr":"경기도 평택시 팽성읍 안정리 118번지","category":"자동차정비 유지 - 자동차정비"}]},{"lat":"36.95908567","long":"127.04303445","items":[{"name":"SONG'SCOINSHOP","tel":"031-666-2237","addr":"경기도 평택시 팽성읍 안정리 113-276번지 3호","category":"신변잡화 - 기념품점"},{"name":"렌저 조 (RANGAR CHO)","tel":"031-000-0000","addr":"경기도 평택시 팽성읍 안정리 113-276번지 1층","category":"수리서비스 - 세탁소"}]},{"lat":"36.963218888","long":"127.05040279","items":[{"name":"USA수입만물","tel":"031-656-9474","addr":"경기도 평택시 팽성읍 안정리 47-40 7/1","category":"신변잡화 - 기타잡화"}]},{"lat":"36.959355744","long":"127.04376444","items":[{"name":"gamestop/유에스게임","tel":"031-000-0000","addr":"경기도 평택시 팽성읍 안정리 113-132번지","category":"서적문구 - 완구점"},{"name":"금수","tel":"031-000-0000","addr":"경기도 평택시 팽성읍 안정리 113-132번지 3층","category":"보건위생 - 기타대인서비스"},{"name":"더디스트릭푸어하우스","tel":"","addr":"경기도 평택시 팽성읍 안정리 113-132번지 2층","category":"일반휴게음식 - 서양음식"}]},{"lat":"36.959688826","long":"127.04467412","items":[{"name":"thirteen o clock","tel":"070-3187-2558","addr":"경기도 평택시 팽성읍 안정리 135-6번지","category":"용역 서비스 - 사무서비스"},{"name":"시카고","tel":"031-691-7165","addr":"경기도 평택시 팽성읍 안정리 135-6번지","category":"일반휴게음식 - 일반한식"}]},{"lat":"36.960779455","long":"127.04373151","items":[{"name":"㈜평일건설","tel":"031-691-6311","addr":"경기도 평택시 팽성읍 안정리 113-379번지","category":"서비스업 - 건설"},{"name":"토탈디자인후","tel":"031-657-1811","addr":"경기도 평택시 팽성읍 안정리 113-379","category":"건축자재 - 인테리어전문"}]},{"lat":"36.96469084","long":"127.04158884","items":[{"name":"가정식당","tel":"031-651-7707","addr":"경기도 평택시 팽성읍 안정리 83-41번지 해우빌라","category":"일반휴게음식 - 일반한식"}]},{"lat":"36.959085594","long":"127.04325902","items":[{"name":"강남동물병원","tel":"","addr":"경기도 평택시 팽성읍 안정리 113-224번지","category":"서비스업 - 수의"},{"name":"강남동물병원","tel":"031-692-7114","addr":"경기도 평택시 팽성읍 안정리 113-224번지 외1필지 가동","category":"기타의료기관 - 동물병원"},{"name":"나자르케밥 (평택점)","tel":"031-651-9951","addr":"경기도 평택시 팽성읍 안정리 113-224번지 가동 6호 외1필지","category":"일반휴게음식 - 서양음식"},{"name":"슈디포","tel":"031-664-4029","addr":"경기도 평택시 팽성읍 안정리 113-224번지 나동","category":"신변잡화 - 신발"},{"name":"스타네일","tel":"031-654-4459","addr":"경기도 평택시 팽성읍 안정리 113-224번지 가동 3호","category":"보건위생 - 피부미용실"},{"name":"씨엔아이치과의원","tel":"031-654-3368","addr":"경기도 평택시 팽성읍 안정리 113-224번지 가동 지하1층","category":"의원 - 치과의원"},{"name":"퍼핀","tel":"031-658-2965","addr":"경기도 평택시 팽성읍 안정리 113-224번지 외1필지","category":"일반휴게음식 - 서양음식"}]},{"lat":"36.960580823","long":"127.04486549","items":[{"name":"갤럭시","tel":"031-653-5199","addr":"경기도 평택시 팽성읍 안정리 111-55번지","category":"일반휴게음식 - 일반한식"}]},{"lat":"36.960886536","long":"127.04667346","items":[{"name":"건영마트","tel":"031-691-7196","addr":"경기도 평택시 팽성읍 안정리 148-14번지","category":"소매업 - 슈퍼"},{"name":"건영정육점","tel":"031-691-6469","addr":"경기도 평택시 팽성읍 안정리 148-14번지","category":"음료식품 - 정육점"},{"name":"건영정육점","tel":"031-692-9282","addr":"경기도 평택시 팽성읍 안정리 148-14번지","category":"소매업 - 정육"}]},{"lat":"36.960247225","long":"127.04542673","items":[{"name":"게스터펍","tel":"031-691-0737","addr":"경기도 평택시 팽성읍 안정리 112-5번지","category":"일반휴게음식 - 일반한식"},{"name":"게스트","tel":"031-651-8353","addr":"경기도 평택시 팽성읍 안정리 112-5번지","category":"일반휴게음식 - 일반한식"},{"name":"마르스수제버거","tel":"","addr":"경기도 평택시 팽성읍 안정리 112-5번지 1층","category":"일반휴게음식 - 서양음식"}]},{"lat":"36.961083541","long":"127.04989618","items":[{"name":"경동노래방","tel":"031-691-0207","addr":"경기도 평택시 팽성읍 안정리 165-20번지","category":"레저업소 - 노 래 방"}]},{"lat":"36.961246892","long":"127.04687578","items":[{"name":"경희한사랑한의원","tel":"031-657-8991","addr":"경기도 평택시 팽성읍 안정리 37-11번지","category":"의원 - 한의원"}]},{"lat":"36.960300005","long":"127.04887391","items":[{"name":"고기백화점","tel":"031-692-6600","addr":"경기도 평택시 팽성읍 안정리 160-1번지 고기백화점","category":"음료식품 - 정육점"},{"name":"고기백화점","tel":"031-656-8204","addr":"경기도 평택시 팽성읍 안정리 160-1번지","category":"도매업 - 정육"},{"name":"스팀빨래방","tel":"031-651-5747","addr":"경기도 평택시 팽성읍 안정리 160-1번지 1층","category":"수리서비스 - 세탁소"}]},{"lat":"36.962104633","long":"127.04195808","items":[{"name":"곰박이정육점","tel":"031-618-6020","addr":"경기도 평택시 팽성읍 안정리 101-12","category":"음료식품 - 정육점"},{"name":"푸줏간곰박이","tel":"031-618-6020","addr":"경기도 평택시 팽성읍 안정리 101-12번지","category":"일반휴게음식 - 일반한식"}]},{"lat":"36.958553303","long":"127.04514508","items":[{"name":"곰지네","tel":"031-691-7406","addr":"경기도 평택시 팽성읍 안정리 139-30번지 가든연립주택 B동 106호","category":"음료식품 - 기타음료식품"}]},{"lat":"36.960689482","long":"127.04333847","items":[{"name":"과카몰레","tel":"031-657-9998","addr":"경기도 평택시 팽성읍 안정리 113-67번지 1층","category":"일반휴게음식 - 서양음식"},{"name":"과카몰레","tel":"031-666-6607","addr":"경기도 평택시 팽성읍 안정리 113-67번지 1층","category":"음식점 - 일반"}]},{"lat":"36.962326625","long":"127.05089631","items":[{"name":"교촌치킨팽성1호점","tel":"031-691-3424","addr":"경기도 평택시 팽성읍 안정리 26-49번지","category":"일반휴게음식 - 스넥"}]},{"lat":"36.958913742","long":"127.04512283","items":[{"name":"구보","tel":"","addr":"경기도 평택시 팽성읍 안정리 139-3번지 안정빌라 1층 5호","category":"일반휴게음식 - 일반한식"},{"name":"말로니스 (Maloney's)","tel":"031-691-8398","addr":"경기도 평택시 팽성읍 안정리 139-3번지 안정빌라 1층 2호","category":"일반휴게음식 - 일반한식"},{"name":"송가네김밥","tel":"02-6916-1500","addr":"경기도 평택시 팽성읍 안정리 139-3번지 안정빌라","category":"음식점 - 분식"},{"name":"수빈토(Suvinto)","tel":"","addr":"경기도 평택시 팽성읍 안정리 139-3번지 안정빌라 1층 1호","category":"신변잡화 - 액세서리"},{"name":"시립마타","tel":"031-652-7133","addr":"경기도 평택시 팽성읍 안정리 139-3번지 안정빌라 (1층,1-5번지","category":"일반휴게음식 - 일반한식"},{"name":"이그자릭익스프레션스튜디오","tel":"070-4147-5037","addr":"경기도 평택시 팽성읍 안정리 139-3번지 안정빌라 1층1-1호","category":"신변잡화 - 액세서리"}]},{"lat":"36.961940136","long":"127.04842574","items":[{"name":"구이가평택안정점","tel":"031-691-1243","addr":"경기도 평택시 팽성읍 안정리 34-13번지","category":"일반휴게음식 - 일반한식"}]},{"lat":"36.962967062","long":"127.04920115","items":[{"name":"국제만물","tel":"031-691-4776","addr":"경기도 평택시 팽성읍 안정리 41-53번지 상가 1층","category":"의류 - 정장"},{"name":"드림치킨","tel":"031-691-7996","addr":"경기도 평택시 팽성읍 안정리 41-53번지 1층","category":"일반휴게음식 - 스넥"},{"name":"삼성유통","tel":"031-000-0000","addr":"경기도 평택시 팽성읍 안정리 41-53번지","category":"의류 - 내의판매"}]},{"lat":"36.958716057","long":"127.04353953","items":[{"name":"굿모닝","tel":"031-692-6622","addr":"경기도 평택시 팽성읍 안정리 134-25번지 2층","category":"보건위생 - 화장품"},{"name":"밀리터리헤어샵 (Military Hair Shop)","tel":"031-651-3313","addr":"경기도 평택시 팽성읍 안정리 134-25번지 1층","category":"보건위생 - 미용원"},{"name":"펫케어","tel":"02-1111-1111","addr":"경기도 평택시 팽성읍 안정리 134-25번지 3동","category":"문화.취미 - 애완동물"}]},{"lat":"36.959139601","long":"127.04342747","items":[{"name":"굿케밥 (GOOD KEBAB)","tel":"031-657-3219","addr":"경기도 평택시 팽성읍 안정리 113-141번지 1층","category":"일반휴게음식 - 일반한식"},{"name":"산삼창팽성점","tel":"031-691-1727","addr":"경기도 평택시 팽성읍 안정리 113-141번지","category":"일반휴게음식 - 일반한식"}]},{"lat":"36.961608077","long":"127.04478745","items":[{"name":"글로지뷰티서플라이","tel":"031-651-6696","addr":"경기도 평택시 팽성읍 안정리 41-176번지","category":"보건위생 - 미용재료"}]},{"lat":"36.960084821","long":"127.04601052","items":[{"name":"길터포차","tel":"070-8171-2201","addr":"경기도 평택시 팽성읍 안정리 144-6번지","category":"일반휴게음식 - 일반한식"}]},{"lat":"36.960634539","long":"127.0458424","items":[{"name":"김대포","tel":"070-4069-2470","addr":"경기도 평택시 팽성읍 안정리 146-6 (1층)","category":"일반휴게음식 - 일반한식"}]},{"lat":"36.960994887","long":"127.04606718","items":[{"name":"김치스","tel":"","addr":"경기도 평택시 팽성읍 안정리 148-8번지","category":"일반휴게음식 - 일반한식"},{"name":"로엠맥주","tel":"031-4789-2382","addr":"경기도 평택시 팽성읍 안정리 148-8번지","category":"일반휴게음식 - 주점"}]},{"lat":"36.959995191","long":"127.04467428","items":[{"name":"꼬지와친구들","tel":"031-656-6637","addr":"경기도 평택시 팽성읍 안정리 112-16번지","category":"일반휴게음식 - 일반한식"},{"name":"아자니","tel":"031-691-8223","addr":"경기도 평택시 팽성읍 안정리 112-16번지 1층","category":"일반휴게음식 - 서양음식"}]},{"lat":"36.965244533","long":"127.0546487","items":[{"name":"꿈바라기 어린이집[아이행복]","tel":"031-691-4889","addr":"경기도 평택시 팽성읍 안정리 7-1번지 1층","category":"학원 - 유아원"}]},{"lat":"36.957443734","long":"127.04851289","items":[{"name":"나누리유통","tel":"070-8183-5342","addr":"경기도 평택시 팽성읍 안정리 193-4번지 우남빌라 202호","category":"주방용구 - 주방용구"}]},{"lat":"36.960886328","long":"127.04723489","items":[{"name":"나이스데이","tel":"070-5096-5848","addr":"경기도 평택시 팽성읍 안정리 151-4번지","category":"의류 - 정장"}]},{"lat":"36.958688863","long":"127.0440111","items":[{"name":"나자르레스토랑","tel":"031-656-6660","addr":"경기도 평택시 팽성읍 안정리 127-33번지 1층","category":"일반휴게음식 - 일반한식"}]},{"lat":"36.963528251","long":"127.04220584","items":[{"name":"네네치킨팽성점","tel":"031-691-4479","addr":"경기도 평택시 팽성읍 안정리 106-35번지","category":"일반휴게음식 - 스넥"}]},{"lat":"36.960410849","long":"127.04122736","items":[{"name":"노루페인트(탁심상사)","tel":"031-652-8803","addr":"경기도 평택시 팽성읍 안정리 117-24번지 1호","category":"건축자재 - 페인트"},{"name":"러브팩토리플라워&이벤트","tel":"031-618-1110","addr":"경기도 평택시 팽성읍 안정리 117-24번지","category":"문화.취미 - 화원"},{"name":"효소담은식탁","tel":"031-618-1110","addr":"경기도 평택시 팽성읍 안정리 117-24번지 1층","category":"음료식품 - 기타음료식품"}]},{"lat":"36.961552492","long":"127.04889712","items":[{"name":"놀부네삼겹살","tel":"","addr":"경기도 평택시 팽성읍 안정리 32-21번지","category":"일반휴게음식 - 일반한식"}]},{"lat":"36.963245221","long":"127.05212084","items":[{"name":"뉴욕당구클럽","tel":"031-651-9457","addr":"경기도 평택시 팽성읍 안정리 22-9번지 2층","category":"레저업소 - 당 구 장"}]},{"lat":"36.963968598","long":"127.04561969","items":[{"name":"뉴욕살롱","tel":"031-691-6999","addr":"경기도 평택시 팽성읍 안정리 110-2번지","category":"보건위생 - 미용원"}]},{"lat":"36.961363374","long":"127.04861629","items":[{"name":"다솜힐링의료기","tel":"","addr":"경기도 평택시 팽성읍 안정리 31-5번지 한미빌딩 1층","category":"보건위생 - 의료용품"},{"name":"미니스톱 안정순환로점","tel":"031-1577-9621","addr":"경기도 평택시 팽성읍 안정리 31-5번지","category":"유통업 영리 - 편 의 점"},{"name":"야후PC","tel":"","addr":"경기도 평택시 팽성읍 안정리 31-5번지 한미빌딩 4층","category":"레저업소 - 기타레져업소"},{"name":"큐당구클럽","tel":"031-657-7273","addr":"경기도 평택시 팽성읍 안정리 31-5번지 한미빌딩 3층","category":"레저업소 - 당 구 장"}]},{"lat":"36.963553707","long":"127.04670867","items":[{"name":"닥터한코스메딕의원","tel":"031-847-3279","addr":"경기도 평택시 팽성읍 안정리 364-5번지 5층","category":"의원 - 의원"}]},{"lat":"36.961084974","long":"127.04612337","items":[{"name":"대성상사","tel":"031-691-4470","addr":"경기도 평택시 팽성읍 안정리 38-8","category":"기타 - 기계공구"},{"name":"에바다체험케어","tel":"031-618-6986","addr":"경기도 평택시 팽성읍 안정리 38-8번지","category":"회원제형태 - 건강식품"},{"name":"왕대박로또복권방","tel":"031-691-3341","addr":"경기도 평택시 팽성읍 안정리 38-8","category":"기타 - 기타 전문점"}]},{"lat":"36.961085125","long":"127.04570791","items":[{"name":"대성상사","tel":"031-652-8922","addr":"경기도 평택시 팽성읍 안정리 41-294번지","category":"소매업 - 안전용품"}]},{"lat":"36.962138445","long":"127.04823497","items":[{"name":"대성튀김","tel":"031-691-4153","addr":"경기도 평택시 팽성읍 안정리 36-17번지","category":"일반휴게음식 - 일반한식"},{"name":"신그곳에가면","tel":"031-651-8677","addr":"경기도 평택시 팽성읍 안정리 36-17번지 (1층(좌))","category":"일반휴게음식 - 주점"}]},{"lat":"36.960860311","long":"127.04442773","items":[{"name":"대하루","tel":"031-691-3005","addr":"경기도 평택시 팽성읍 안정리 111-43","category":"일반휴게음식 - 중국식"},{"name":"더스타일","tel":"","addr":"경기도 평택시 팽성읍 안정리 111-43번지 1층","category":"의류 - 정장"}]},{"lat":"36.958886777","long":"127.04493193","items":[{"name":"대한콜렉숀","tel":"031-654-2686","addr":"경기도 평택시 팽성읍 안정리 133-2번지 1동 1층","category":"일반휴게음식 - 일반한식"},{"name":"베이프스타","tel":"031-000-0000","addr":"경기도 평택시 팽성읍 안정리 133-2번지 제2동 1,2층","category":"기타 - 기타 전문점"}]},{"lat":"36.960778731","long":"127.04578634","items":[{"name":"더블럭","tel":"","addr":"경기도 평택시 팽성읍 안정리 41-309번지","category":"일반휴게음식 - 주점"},{"name":"에파타","tel":"031-654-0201","addr":"경기도 평택시 팽성읍 안정리 41-309번지 1층","category":"음식점 - 양식"},{"name":"에파타","tel":"031-656-9617","addr":"경기도 평택시 팽성읍 안정리 41-309번지","category":"일반휴게음식 - 일반한식"},{"name":"와일드원스 (WILD ONES)","tel":"031-691-8223","addr":"경기도 평택시 팽성읍 안정리 41-309번지 외 2필지 5층","category":"일반휴게음식 - 일반한식"}]},{"lat":"36.963500493","long":"127.04433933","items":[{"name":"더빅바이트","tel":"031-692-0083","addr":"경기도 평택시 팽성읍 안정리 108-63번지","category":"일반휴게음식 - 서양음식"}]},{"lat":"36.960887189","long":"127.04486566","items":[{"name":"더시가라운지","tel":"","addr":"경기도 평택시 팽성읍 안정리 111-20번지 3층","category":"음료식품 - 기타음료식품"},{"name":"사보르도 브라질","tel":"","addr":"경기도 평택시 팽성읍 안정리 111-20번지 2층","category":"일반휴게음식 - 서양음식"},{"name":"제스트라운지(ZEST LOUNGE)","tel":"","addr":"경기도 평택시 팽성읍 안정리 111-20번지 1층","category":"일반휴게음식 - 서양음식"}]},{"lat":"36.959274698","long":"127.04361843","items":[{"name":"더컴퓨터샵","tel":"070-8113-7733","addr":"경기도 평택시 팽성읍 안정리 113-134번지 1층","category":"사무통신 - 컴퓨터"},{"name":"올스타","tel":"031-692-2402","addr":"경기도 평택시 팽성읍 안정리 113-134번지","category":"의류 - 정장"}]},{"lat":"36.96030149","long":"127.04486534","items":[{"name":"데이앤데이","tel":"031-618-9882","addr":"경기도 평택시 팽성읍 안정리 112-12번지","category":"유통업 영리 - 편 의 점"},{"name":"이스탄불케밥","tel":"070-4196-6307","addr":"경기도 평택시 팽성읍 안정리 112-12번지 1층(1층)","category":"일반휴게음식 - 일반한식"}]},{"lat":"36.959967559","long":"127.04634731","items":[{"name":"도서할인점/이동탑차","tel":"031-691-7462","addr":"경기도 평택시 팽성읍 안정리 144-14번지","category":"회원제형태 - 서적"}]},{"lat":"36.966913133","long":"127.05080935","items":[{"name":"돈쿠미 수제돈가스","tel":"031-652-9959","addr":"경기도 평택시 팽성읍 안정리 55-4번지","category":"일반휴게음식 - 서양음식"},{"name":"숲속으로","tel":"070-4006-0194","addr":"경기도 평택시 팽성읍 안정리 55-4번지 1층","category":"일반휴게음식 - 서양음식"}]},{"lat":"36.964470937","long":"127.05150402","items":[{"name":"동광무선","tel":"031-691-3642","addr":"경기도 평택시 팽성읍 안정리 16","category":"전기제품 - 기타전기제품"}]},{"lat":"36.965772565","long":"127.04023064","items":[{"name":"동성사","tel":"031-664-4029","addr":"경기도 평택시 팽성읍 안정리 84-5번지","category":"신변잡화 - 시계"}]},{"lat":"36.958806196","long":"127.04344975","items":[{"name":"동신사","tel":"031-000-0000","addr":"경기도 평택시 팽성읍 안정리 134-19번지","category":"신변잡화 - 기념품점"},{"name":"써니치킨앤와플","tel":"031-868-4447","addr":"경기도 평택시 팽성읍 안정리 134-19번지","category":"일반휴게음식 - 스넥"},{"name":"오케이샵","tel":"031-691-9013","addr":"경기도 평택시 팽성읍 안정리 134-19번지 (제2호)","category":"사무통신 - 통신기기"}]},{"lat":"36.958751444","long":"127.04541467","items":[{"name":"돼지언니","tel":"031-655-6766","addr":"경기도 평택시 팽성읍 안정리 139-30번지 가든연립 A동 102호","category":"일반휴게음식 - 일반한식"},{"name":"디지탈샵","tel":"031-692-4107","addr":"경기도 평택시 팽성읍 안정리 139-30번지 가든 A동 109호","category":"소매업 - 전산용품"},{"name":"미쉘네일","tel":"031-652-6688","addr":"경기도 평택시 팽성읍 안정리 139-30번지 가든연립 A동 101호","category":"보건위생 - 피부미용실"},{"name":"아빠분식","tel":"031-691-7769","addr":"경기도 평택시 팽성읍 안정리 139-30번지 가든연립 A동 105호106호","category":"음식점 - 분식"},{"name":"와우! 이용원(WOW! BABER SHOP)","tel":"070-7687-5047","addr":"경기도 평택시 팽성읍 안정리 139-30번지 가든상가 A동 101호","category":"보건위생 - 이용원"},{"name":"진영냉동","tel":"031-658-2252","addr":"경기도 평택시 팽성읍 안정리 139-30번지 가든빌라 A동 308호","category":"용역 서비스 - 기타용역서비스"}]},{"lat":"36.958580283","long":"127.04529106","items":[{"name":"돼지언니","tel":"031-691-1697","addr":"경기도 평택시 팽성읍 안정리 139-30번지 가든연립","category":"음식점 - 한식"},{"name":"서울냉동사","tel":"031-691-3110","addr":"경기도 평택시 팽성읍 안정리 139-30번지 가든상가 A-115호","category":"전기제품 - 냉열기기"},{"name":"아빠분식","tel":"","addr":"경기도 평택시 팽성읍 안정리 139-30번지 가든연립 A동 105,106호","category":"일반휴게음식 - 스넥"},{"name":"해피애견","tel":"031-692-9025","addr":"경기도 평택시 팽성읍 안정리 139-30번지 가든연립 104호","category":"문화.취미 - 애완동물"}]},{"lat":"36.963778729","long":"127.04737131","items":[{"name":"듀드롭","tel":"031-651-1221","addr":"경기도 평택시 팽성읍 안정리 369-10번지 1-2층","category":"일반휴게음식 - 서양음식"}]},{"lat":"36.958995333","long":"127.0437081","items":[{"name":"듀크 패션 Duke fashion","tel":"031-637-8519","addr":"경기도 평택시 팽성읍 안정리 134-50번지","category":"의류 - 정장"}]},{"lat":"36.959833084","long":"127.04442717","items":[{"name":"드림안경","tel":"031-691-1008","addr":"경기도 평택시 팽성읍 안정리 112-19번지","category":"보건위생 - 안경"},{"name":"드림안경","tel":"031-655-1430","addr":"경기도 평택시 팽성읍 안정리 112-19번지","category":"소매업 - 안경"}]},{"lat":"36.959580657","long":"127.04478634","items":[{"name":"디씨(DC)","tel":"","addr":"경기도 평택시 팽성읍 안정리 135-13번지 2층","category":"일반휴게음식 - 서양음식"},{"name":"알리바이(ALIBI)","tel":"031-616-2791","addr":"경기도 평택시 팽성읍 안정리 135-13번지","category":"일반휴게음식 - 일반한식"}]},{"lat":"36.960606501","long":"127.04853723","items":[{"name":"디자인 플러스","tel":"031-652-0704","addr":"경기도 평택시 팽성읍 안정리 159-9번지 2층","category":"건축자재 - 인테리어전문"},{"name":"이마트24 평택안정OK점","tel":"031-000-0000","addr":"경기도 평택시 팽성읍 안정리 159-9번지","category":"유통업 영리 - 편 의 점"}]},{"lat":"36.961418025","long":"127.04706677","items":[{"name":"딱한잔","tel":"031-651-8027","addr":"경기도 평택시 팽성읍 안정리 37-23번지 나동 1층","category":"일반휴게음식 - 주점"}]},{"lat":"36.960859888","long":"127.04561796","items":[{"name":"딸기","tel":"031-618-3712","addr":"경기도 평택시 팽성읍 안정리 41-307","category":"의류 - 정장"}]},{"lat":"36.966112336","long":"127.0478443","items":[{"name":"또봉이통닭안정점","tel":"031-684-8985","addr":"경기도 평택시 팽성읍 안정리 68-2번지 JK빌딩 103, 104호","category":"음식점 - 치킨"},{"name":"또봉이통닭안정점","tel":"031-655-1779","addr":"경기도 평택시 팽성읍 안정리 68-2번지 JK빌딩 103, 104호","category":"음료식품 - 기타음료식품"},{"name":"르팽(Le Pain)","tel":"","addr":"경기도 평택시 팽성읍 안정리 68-2번지 1층","category":"일반휴게음식 - 서양음식"},{"name":"코코스타일리크","tel":"031-111-1111","addr":"경기도 평택시 팽성읍 안정리 68-2번지 2층","category":"보건위생 - 미용원"}]},{"lat":"36.961112346","long":"127.04518018","items":[{"name":"또봉이통닭안정점","tel":"031-655-1779","addr":"경기도 평택시 팽성읍 안정리 41-302번지","category":"일반휴게음식 - 스넥"}]},{"lat":"36.960166177","long":"127.04529194","items":[{"name":"또올래","tel":"031-691-1697","addr":"경기도 평택시 팽성읍 안정리 112-25","category":"일반휴게음식 - 일반한식"},{"name":"또올래","tel":"031-653-6030","addr":"경기도 평택시 팽성읍 안정리 112-25번지","category":"음식점 - 한식, 분식"}]},{"lat":"36.959354749","long":"127.0465603","items":[{"name":"뜰안채","tel":"031-691-8582","addr":"경기도 평택시 팽성읍 안정리 169-22번지","category":"일반휴게음식 - 일반한식"}]},{"lat":"36.960356176","long":"127.04306881","items":[{"name":"라라","tel":"031-323-6012","addr":"경기도 평택시 팽성읍 안정리 113-85번지","category":"사무통신 - 통신기기"}]},{"lat":"36.959887514","long":"127.04337173","items":[{"name":"라카사(험프리점)","tel":"031-658-8233","addr":"경기도 평택시 팽성읍 안정리 113-102번지 1층","category":"일반휴게음식 - 일반한식"}]},{"lat":"36.95927441","long":"127.04444932","items":[{"name":"라쿠치나 이텔리아나","tel":"070-8834-4884","addr":"경기도 평택시 팽성읍 안정리 134-20번지 1,2층","category":"일반휴게음식 - 서양음식"}]},{"lat":"36.96032843","long":"127.04512361","items":[{"name":"러스티(RUSTY)","tel":"","addr":"경기도 평택시 팽성읍 안정리 112-11번지 지층","category":"일반휴게음식 - 일반한식"},{"name":"최스플래이스","tel":"031-691-1320","addr":"경기도 평택시 팽성읍 안정리 112-11번지","category":"일반휴게음식 - 일반한식"}]},{"lat":"36.958391383","long":"127.04437025","items":[{"name":"레볼루션(Revolucion)","tel":"031-655-8398","addr":"경기도 평택시 팽성읍 안정리 127-17번지 102호","category":"일반휴게음식 - 서양음식"}]},{"lat":"36.960580392","long":"127.04606694","items":[{"name":"레지나스","tel":"","addr":"경기도 평택시 팽성읍 안정리 148-47번지 1층","category":"일반휴게음식 - 일반한식"},{"name":"로프트33(loft33)","tel":"","addr":"경기도 평택시 팽성읍 안정리 148-47번지 2층","category":"일반휴게음식 - 주점"}]},{"lat":"36.960417361","long":"127.04831255","items":[{"name":"로스터스 정진원의커피볶는집","tel":"031-000-0000","addr":"경기도 평택시 팽성읍 안정리 154-5번지","category":"일반휴게음식 - 서양음식"},{"name":"비씨800(BC800)안정점","tel":"031-656-6912","addr":"경기도 평택시 팽성읍 안정리 154-5번지","category":"음식점 - 한식"},{"name":"회전화화안정점","tel":"031-618-8592","addr":"경기도 평택시 팽성읍 안정리 154-5번지 1층","category":"일반휴게음식 - 일반한식"}]},{"lat":"36.959328743","long":"127.0436746","items":[{"name":"루이스바그릴","tel":"031-618-2814","addr":"경기도 평택시 팽성읍 안정리 113-133번지 2층","category":"일반휴게음식 - 서양음식"},{"name":"이스터베이","tel":"031-655-0108","addr":"경기도 평택시 팽성읍 안정리 113-133번지","category":"신변잡화 - 기타잡화"}]},{"lat":"36.959446297","long":"127.04245077","items":[{"name":"리더스크린 안정점","tel":"031-618-3460","addr":"경기도 평택시 팽성읍 안정리 113-156번지","category":"수리서비스 - 세탁소"}]},{"lat":"36.958805925","long":"127.04423573","items":[{"name":"리브어리틀","tel":"031-656-2653","addr":"경기도 평택시 팽성읍 안정리 134-23번지 1,2층","category":"일반휴게음식 - 주점"}]},{"lat":"36.957805761","long":"127.04414537","items":[{"name":"리스자동차매매상사","tel":"031-691-0117","addr":"경기도 평택시 팽성읍 안정리 128-14번지","category":"자동차판매 - 중고자동차판매"}]},{"lat":"36.960301885","long":"127.04373126","items":[{"name":"리아헤어컬러","tel":"031-692-4895","addr":"경기도 평택시 팽성읍 안정리 113-238번지","category":"보건위생 - 미용원"}]},{"lat":"36.960806584","long":"127.04345081","items":[{"name":"리카","tel":"","addr":"경기도 평택시 팽성읍 안정리 115-102번지 101호","category":"일반휴게음식 - 일반한식"}]},{"lat":"36.960553937","long":"127.04445002","items":[{"name":"마리아스 1,2층","tel":"","addr":"경기도 평택시 팽성읍 안정리 111-56번지 1,2층","category":"일반휴게음식 - 주점"},{"name":"맛나튀김","tel":"","addr":"경기도 평택시 팽성읍 안정리 111-56번지 1층","category":"일반휴게음식 - 스넥"}]},{"lat":"36.959247522","long":"127.04403386","items":[{"name":"마마","tel":"031-651-1228","addr":"경기도 평택시 팽성읍 안정리 134-7번지 1층","category":"의류 - 기타의류"},{"name":"유엔의류수선","tel":"031-651-1842","addr":"경기도 평택시 팽성읍 안정리 134-7번지","category":"수리서비스 - 세탁소"}]},{"lat":"36.958138776","long":"127.04523468","items":[{"name":"막내식당","tel":"031-692-2338","addr":"경기도 평택시 팽성읍 안정리 132-2번지","category":"일반휴게음식 - 일반한식"}]},{"lat":"36.959805549","long":"127.04584194","items":[{"name":"말과소(HORSE&COW)","tel":"031-618-9019","addr":"경기도 평택시 팽성읍 안정리 139-6번지 가동 1층","category":"일반휴게음식 - 서양음식"}]},{"lat":"36.959111761","long":"127.04572926","items":[{"name":"맥심세탁소","tel":"031-652-2213","addr":"경기도 평택시 팽성읍 안정리 136-8번지 안정빌라","category":"서비스업 - 세탁"},{"name":"맥심세탁소","tel":"031-691-7276","addr":"경기도 평택시 팽성읍 안정리 136-8번지 안정빌라","category":"수리서비스 - 세탁소"},{"name":"미스 심 옷수선","tel":"031-111-1111","addr":"경기도 평택시 팽성읍 안정리 136-8번지 안정빌라 1층 7호","category":"수리서비스 - 세탁소"},{"name":"미스터.한스파운(Mr.HansPawn)","tel":"","addr":"경기도 평택시 팽성읍 안정리 136-8번지 안정빌라 1층 6호","category":"신변잡화 - 기타잡화"},{"name":"올웨이즈브렉퍼스트","tel":"02-1577-0000","addr":"경기도 평택시 팽성읍 안정리 136-8번지 안정빌라 1층 13,14호","category":"일반휴게음식 - 일반한식"},{"name":"올웨이즈브렉퍼스트","tel":"031-652-5382","addr":"경기도 평택시 팽성읍 안정리 136-8번지 안정빌라 1층 13,14호","category":"음식점 - 양식"},{"name":"커피에반하다","tel":"031-618-2838","addr":"경기도 평택시 팽성읍 안정리 136-8번지 안정빌라","category":"일반휴게음식 - 서양음식"},{"name":"현주네새참","tel":"031-691-9955","addr":"경기도 평택시 팽성읍 안정리 136-8번지 안정빌라 8,9호","category":"일반휴게음식 - 일반한식"}]},{"lat":"36.957859375","long":"127.0454254","items":[{"name":"맥심화원","tel":"031-655-9222","addr":"경기도 평택시 팽성읍 안정리 130-4번지","category":"소매업 - 화훼"},{"name":"맥심화원","tel":"031-691-7553","addr":"경기도 평택시 팽성읍 안정리 130-4번지","category":"문화.취미 - 화원"},{"name":"정문공구","tel":"031-692-2636","addr":"경기도 평택시 팽성읍 안정리 130-4번지 지하층","category":"기타 - 기계공구"}]},{"lat":"36.958779036","long":"127.04382027","items":[{"name":"메이드맨바버샵","tel":"031-651-4441","addr":"경기도 평택시 팽성읍 안정리 127-31번지 1층","category":"보건위생 - 이용원"},{"name":"인카치킨앤피자","tel":"031-657-8250","addr":"경기도 평택시 팽성읍 안정리 127-31번지 1층","category":"일반휴게음식 - 스넥"},{"name":"커피마을(coffeevile)","tel":"","addr":"경기도 평택시 팽성읍 안정리 127-31번지","category":"일반휴게음식 - 서양음식"}]},{"lat":"36.966529132","long":"127.04128657","items":[{"name":"메이플타바코","tel":"031-000-0000","addr":"경기도 평택시 팽성읍 안정리 83-165번지","category":"음료식품 - 기타음료식품"}]},{"lat":"36.955831313","long":"127.04717582","items":[{"name":"모티마할(험프리점)","tel":"031-657-3358","addr":"경기도 평택시 팽성읍 안정리 210-14번지","category":"일반휴게음식 - 서양음식"},{"name":"모티마할(험프리점)","tel":"031-655-5233","addr":"경기도 평택시 팽성읍 안정리 210-14번지","category":"음식점 - 인도"}]},{"lat":"36.960328637","long":"127.04453972","items":[{"name":"목련장","tel":"031-692-1245","addr":"경기도 평택시 팽성읍 안정리 111-69번지","category":"숙박업 - 여관/기타숙박업"},{"name":"목련장여관","tel":"031-692-1245","addr":"경기도 평택시 팽성읍 안정리 111-69번지","category":"숙박업 - 여관/기타숙박업"}]},{"lat":"36.962966646","long":"127.05025666","items":[{"name":"미국밀리터리 (U.S.A Military)","tel":"070-5101-1143","addr":"경기도 평택시 팽성읍 안정리 33-15번지","category":"의류 - 정장"}]},{"lat":"36.960858663","long":"127.0488967","items":[{"name":"미스터엉클빅","tel":"031-692-0487","addr":"경기도 평택시 팽성읍 안정리 157-5","category":"일반휴게음식 - 스넥"},{"name":"양's 주택관리","tel":"031-657-1339","addr":"경기도 평택시 팽성읍 안정리 157-5번지","category":"용역 서비스 - 사무서비스"}]},{"lat":"36.961445203","long":"127.04667378","items":[{"name":"미시헤어뱅크","tel":"031-692-3140","addr":"경기도 평택시 팽성읍 안정리 37-8번지","category":"보건위생 - 미용원"}]},{"lat":"36.961272444","long":"127.05070476","items":[{"name":"미쓰고수입면세점","tel":"031-691-3305","addr":"경기도 평택시 팽성읍 안정리 165-2번지 서문빌라 1층","category":"신변잡화 - 기타잡화"}]},{"lat":"36.961274484","long":"127.04533747","items":[{"name":"미화상회","tel":"031-691-8399","addr":"경기도 평택시 팽성읍 안정리 41-289번지","category":"음료식품 - 기타음료식품"}]},{"lat":"36.959994376","long":"127.0469312","items":[{"name":"믿음이용원","tel":"031-691-3963","addr":"경기도 평택시 팽성읍 안정리 143-11번지","category":"서비스업 - 이미용"}]},{"lat":"36.961192869","long":"127.04676346","items":[{"name":"바른손약국","tel":"031-692-6800","addr":"경기도 평택시 팽성읍 안정리 37-13번지","category":"소매업 - 약국"},{"name":"바른손약국","tel":"031-691-1228","addr":"경기도 평택시 팽성읍 안정리 37-13번지","category":"약국 - 약국"},{"name":"열린노래연습장","tel":"031-691-1415","addr":"경기도 평택시 팽성읍 안정리 37-13번지","category":"레저업소 - 노 래 방"}]},{"lat":"36.959111938","long":"127.04523522","items":[{"name":"바콜로드이나살","tel":"031-000-0000","addr":"경기도 평택시 팽성읍 안정리 139-3번지 안정빌라 1-5호","category":"일반휴게음식 - 서양음식"}]},{"lat":"36.962049465","long":"127.0451807","items":[{"name":"반찬통","tel":"031-655-3798","addr":"경기도 평택시 팽성읍 안정리 41-245번지 B동","category":"일반휴게음식 - 일반한식"}]},{"lat":"36.959418896","long":"127.04353991","items":[{"name":"버거앤프라이","tel":"","addr":"경기도 평택시 팽성읍 안정리 113-136번지 1층","category":"일반휴게음식 - 서양음식"},{"name":"씨엘로(CIELO)","tel":"","addr":"경기도 평택시 팽성읍 안정리 113-136번지 1층","category":"일반휴게음식 - 일반한식"},{"name":"위치크래프트","tel":"","addr":"경기도 평택시 팽성읍 안정리 113-136번지","category":"일반휴게음식 - 스넥"},{"name":"피쉬인더블랭킷","tel":"031-651-7874","addr":"경기도 평택시 팽성읍 안정리 113-136번지 1층","category":"일반휴게음식 - 일반한식"}]},{"lat":"36.960779351","long":"127.04403468","items":[{"name":"베스트미트","tel":"031-691-1316","addr":"경기도 평택시 팽성읍 안정리 113-243번지","category":"음료식품 - 정육점"},{"name":"치킨&호프","tel":"031-691-3620","addr":"경기도 평택시 팽성읍 안정리 113-243번지","category":"일반휴게음식 - 일반한식"}]},{"lat":"36.958661954","long":"127.04365179","items":[{"name":"베어퍼스포츠펍앤그릴","tel":"031-657-5295","addr":"경기도 평택시 팽성읍 안정리 127-10번지","category":"일반휴게음식 - 서양음식"}]},{"lat":"36.960356092","long":"127.04331583","items":[{"name":"보니스","tel":"031-654-0985","addr":"경기도 평택시 팽성읍 안정리 113-81번지 3층","category":"음식점 - 한식"},{"name":"보니스 (BONNIE'S)","tel":"031-000-0000","addr":"경기도 평택시 팽성읍 안정리 113-81번지 3층","category":"일반휴게음식 - 서양음식"},{"name":"쓰리스튜지스","tel":"031-692-2280","addr":"경기도 평택시 팽성읍 안정리 113-81번지 2층","category":"일반휴게음식 - 서양음식"},{"name":"울프하운드","tel":"031-658-7510","addr":"경기도 평택시 팽성읍 안정리 113-81번지 1층","category":"일반휴게음식 - 일반한식"}]},{"lat":"36.965328031","long":"127.04880955","items":[{"name":"보스바버샵","tel":"031-656-4247","addr":"경기도 평택시 팽성읍 안정리 360번지 평택브라운스톤험프리스 G동 1층 102호","category":"보건위생 - 이용원"},{"name":"보스바버샵","tel":"031-656-4247","addr":"경기도 평택시 팽성읍 안정리 360번지 평택브라운스톤험프리스 G동 1층 102호","category":"보건위생 - 이용원"},{"name":"브라운스톤어린이집[아이행복]","tel":"031-655-3535","addr":"경기도 평택시 팽성읍 안정리 360번지 평택브라운스톤험프리스","category":"학원 - 유아원"},{"name":"세븐일레븐팽성동우1호점","tel":"031-1577-0711","addr":"경기도 평택시 팽성읍 안정리 360번지 평택브라운스톤햄프리스 상가동 지하1층 101호","category":"유통업 영리 - 편 의 점"},{"name":"코코살사","tel":"","addr":"경기도 평택시 팽성읍 안정리 360번지 평택브라운스톤험프리스 상가동 지하1층 104호","category":"일반휴게음식 - 서양음식"},{"name":"코코살사","tel":"","addr":"경기도 평택시 팽성읍 안정리 360번지 평택브라운스톤험프리스 상가동 지하1층 104호","category":"일반휴게음식 - 서양음식"},{"name":"퍼플","tel":"031-657-5526","addr":"경기도 평택시 팽성읍 안정리 360번지 평택브라운스톤험프리스 111동 13층 02호","category":"건축자재 - 조명기구"},{"name":"홈프리세탁소(Home Free Dry Cleaning)","tel":"031-691-8223","addr":"경기도 평택시 팽성읍 안정리 360번지 평택브라운스톤험프리스 상가 지하1층 103호","category":"수리서비스 - 세탁소"}]},{"lat":"36.958021688","long":"127.04508865","items":[{"name":"볼드이글","tel":"031-655-1259","addr":"경기도 평택시 팽성읍 안정리 129번지 지층","category":"일반휴게음식 - 주점"},{"name":"팍스몰","tel":"031-651-5030","addr":"경기도 평택시 팽성읍 안정리 129번지","category":"문화.취미 - 민예·공예품"}]},{"lat":"36.960112132","long":"127.04523577","items":[{"name":"봄이발소","tel":"031-692-5677","addr":"경기도 평택시 팽성읍 안정리 112-31번지 1층","category":"보건위생 - 이용원"}]},{"lat":"36.960858348","long":"127.04970516","items":[{"name":"뷰티하우스","tel":"031-618-5735","addr":"경기도 평택시 팽성읍 안정리 165-34","category":"보건위생 - 화장품"},{"name":"태양전기조명","tel":"031-691-2231","addr":"경기도 평택시 팽성읍 안정리 165-34번지","category":"전기제품 - 기타전기제품"}]},{"lat":"36.961192027","long":"127.04898673","items":[{"name":"브라보 명품 찹쌀 꽈배기","tel":"031-692-4414","addr":"경기도 평택시 팽성읍 안정리 30-1번지 1층","category":"일반휴게음식 - 서양음식"}]},{"lat":"36.959139447","long":"127.04387661","items":[{"name":"브라운샵","tel":"031-691-6014","addr":"경기도 평택시 팽성읍 안정리 134-9번지","category":"의류 - 정장"},{"name":"와이엠모바일(YM Mobile)","tel":"","addr":"경기도 평택시 팽성읍 안정리 134-9번지 1층","category":"사무통신 - 통신기기"},{"name":"쿨샵","tel":"031-691-6014","addr":"경기도 평택시 팽성읍 안정리 134-9번지","category":"의류 - 정장"}]},{"lat":"36.962497929","long":"127.05064938","items":[{"name":"브로스 컴 (BrosCom)","tel":"031-618-1021","addr":"경기도 평택시 팽성읍 안정리 33-59번지 1층 해오름빌라","category":"용역 서비스 - 기타용역서비스"}]},{"lat":"36.959500013","long":"127.04348381","items":[{"name":"브록스 샵","tel":"031-654-7313","addr":"경기도 평택시 팽성읍 안정리 113-137번지 1층","category":"의류 - 정장"}]},{"lat":"36.959274915","long":"127.04297841","items":[{"name":"브릭스피자리아","tel":"031-656-6564","addr":"경기도 평택시 팽성읍 안정리 113-144번지 2층","category":"일반휴게음식 - 서양음식"},{"name":"사쿠사쿠 안정리점","tel":"031-692-7772","addr":"경기도 평택시 팽성읍 안정리 113-144번지 1층","category":"일반휴게음식 - 스넥"}]},{"lat":"36.961688006","long":"127.04797645","items":[{"name":"비너스 헤어(VENUS HAIR SUPPLY)","tel":"031-000-0000","addr":"경기도 평택시 팽성읍 안정리 35-1번지 111호","category":"보건위생 - 미용재료"},{"name":"인스톤디자인(In Stone Design)","tel":"","addr":"경기도 평택시 팽성읍 안정리 35-1번지 823호","category":"건축자재 - 기타건축자재"}]},{"lat":"36.959355348","long":"127.0448985","items":[{"name":"빅마마니나스","tel":"031-691-5829","addr":"경기도 평택시 팽성읍 안정리 135-26번지 2층","category":"일반휴게음식 - 일반한식"}]},{"lat":"36.961362718","long":"127.05028935","items":[{"name":"빨간닭발","tel":"031-657-9282","addr":"경기도 평택시 팽성읍 안정리 165-62번지","category":"일반휴게음식 - 일반한식"},{"name":"찜,구이,연탄집","tel":"031-651-0909","addr":"경기도 평택시 팽성읍 안정리 165-62번지","category":"일반휴게음식 - 일반한식"},{"name":"찜구이연탄집","tel":"031-618-8171","addr":"경기도 평택시 팽성읍 안정리 165-62번지","category":"음식점 - 한식"}]},{"lat":"36.960606902","long":"127.04748175","items":[{"name":"삐삐버거","tel":"031-691-3108","addr":"경기도 평택시 팽성읍 안정리 151-9번지 1층","category":"일반휴게음식 - 서양음식"}]},{"lat":"36.961608301","long":"127.04414742","items":[{"name":"삼거리식육점","tel":"031-691-7729","addr":"경기도 평택시 팽성읍 안정리 41-221","category":"음료식품 - 정육점"}]},{"lat":"36.960724239","long":"127.04695408","items":[{"name":"삼보청과","tel":"031-111-1111","addr":"경기도 평택시 팽성읍 안정리 149-1번지","category":"음료식품 - 농·축·수산품"},{"name":"천냥백화점","tel":"031-655-5261","addr":"경기도 평택시 팽성읍 안정리 149-1번지","category":"신변잡화 - 기타잡화"}]},{"lat":"36.962138637","long":"127.04772968","items":[{"name":"삼화당 디자인 갤러리","tel":"070-4922-1261","addr":"경기도 평택시 팽성읍 안정리 41-76번지","category":"학원 - 기타 교육기관"}]},{"lat":"36.960527335","long":"127.04320364","items":[{"name":"샘스스시(Sam's Sushi)","tel":"","addr":"경기도 평택시 팽성읍 안정리 113-75번지","category":"일반휴게음식 - 일식·회집"}]},{"lat":"36.961173321","long":"127.05071592","items":[{"name":"샤넬헤어라인","tel":"031-691-6777","addr":"경기도 평택시 팽성읍 안정리 165-2번지 서문빌라 A동 101호","category":"보건위생 - 미용원"}]},{"lat":"36.960778191","long":"127.04725728","items":[{"name":"서울떡집","tel":"031-691-7276","addr":"경기도 평택시 팽성읍 안정리 151-13번지","category":"제조업 - 떡"}]},{"lat":"36.964220444","long":"127.04686626","items":[{"name":"서울상담센터 (Seoul Counscling Center)","tel":"031-692-5556","addr":"경기도 평택시 팽성읍 안정리 369-6번지 2층 201호","category":"보건위생 - 기타대인서비스"},{"name":"티엘(TL)","tel":"","addr":"경기도 평택시 팽성읍 안정리 369-6번지 1층","category":"보건위생 - 미용원"},{"name":"플래터(PLATTER)","tel":"031-691-2411","addr":"경기도 평택시 팽성읍 안정리 369-6번지 3층","category":"일반휴게음식 - 일반한식"}]},{"lat":"36.961274699","long":"127.04473113","items":[{"name":"서울튀김집","tel":"031-655-5844","addr":"경기도 평택시 팽성읍 안정리 111-22번지","category":"일반휴게음식 - 스넥"},{"name":"야식포차","tel":"031-618-8581","addr":"경기도 평택시 팽성읍 안정리 111-22번지 1층","category":"일반휴게음식 - 일반한식"}]},{"lat":"36.961635657","long":"127.04320422","items":[{"name":"서정마을두부이야기 (서정마을협동조합)","tel":"031-000-0000","addr":"경기도 평택시 팽성읍 안정리 115-45번지","category":"일반휴게음식 - 일반한식"}]},{"lat":"36.967886438","long":"127.05045061","items":[{"name":"성광전기","tel":"031-651-2550","addr":"경기도 평택시 팽성읍 안정리 57-63번지","category":"전기제품 - 기타전기제품"}]},{"lat":"36.96077856","long":"127.04625794","items":[{"name":"성모치과","tel":"031-691-9416","addr":"경기도 평택시 팽성읍 안정리 148-5번지","category":"의원 - 치과의원"},{"name":"수정약국","tel":"031-691-1228","addr":"경기도 평택시 팽성읍 안정리 148-5번지","category":"소매업 - 약국"},{"name":"우리애견","tel":"031-658-8543","addr":"경기도 평택시 팽성읍 안정리 148-5번지","category":"서비스업 - 애견용품"}]},{"lat":"36.96538281","long":"127.04692308","items":[{"name":"세라미용실","tel":"","addr":"경기도 평택시 팽성읍 안정리 68-6번지 104호","category":"보건위생 - 미용원"},{"name":"스모크타운","tel":"031-111-1111","addr":"경기도 평택시 팽성읍 안정리 68-6번지 1층","category":"일반휴게음식 - 일반한식"},{"name":"친구네집","tel":"031-692-1240","addr":"경기도 평택시 팽성읍 안정리 68-6번지 A동 2층 202호","category":"일반휴게음식 - 일반한식"},{"name":"태한약품","tel":"031-656-8689","addr":"경기도 평택시 팽성읍 안정리 68-6번지 지하1층 2호","category":"약국 - 제약회사"}]},{"lat":"36.960498437","long":"127.04836874","items":[{"name":"세븐노래연습장","tel":"031-618-7679","addr":"경기도 평택시 팽성읍 안정리 154-3번지","category":"레저업소 - 노 래 방"},{"name":"신가마골","tel":"031-618-0481","addr":"경기도 평택시 팽성읍 안정리 154-3번지 1층","category":"일반휴게음식 - 일반한식"},{"name":"안정가마골","tel":"031-618-0481","addr":"경기도 평택시 팽성읍 안정리 154-3번지","category":"일반휴게음식 - 일반한식"}]},{"lat":"36.967637569","long":"127.04092778","items":[{"name":"세븐일레븐평택안정제일점","tel":"031-1577-0711","addr":"경기도 평택시 팽성읍 안정리 82-21번지","category":"유통업 영리 - 편 의 점"}]},{"lat":"36.961077455","long":"127.04181158","items":[{"name":"세븐일레븐평택안정해피점","tel":"","addr":"경기도 평택시 팽성읍 안정리 99-17","category":"유통업 영리 - 편 의 점"},{"name":"착한밥상","tel":"031-691-1989","addr":"경기도 평택시 팽성읍 안정리 99-17번지 (3호)","category":"일반휴게음식 - 일반한식"},{"name":"해피트리","tel":"031-691-0654","addr":"경기도 평택시 팽성읍 안정리 99-17","category":"유통업 영리 - 편 의 점"}]},{"lat":"36.95988633","long":"127.04670657","items":[{"name":"세븐일레븐평택험프리스점","tel":"031-1577-0711","addr":"경기도 평택시 팽성읍 안정리 143-8번지","category":"유통업 영리 - 편 의 점"},{"name":"우량문구","tel":"031-691-0826","addr":"경기도 평택시 팽성읍 안정리 143-8번지","category":"서적문구 - 문구용품"},{"name":"우량문구","tel":"031-691-9821","addr":"경기도 평택시 팽성읍 안정리 143-8번지","category":"소매업 - 문구"}]},{"lat":"36.963578469","long":"127.05248038","items":[{"name":"솔고개","tel":"031-691-1440","addr":"경기도 평택시 팽성읍 안정리 21-5번지 정원빌라","category":"음식점 - 한식"}]},{"lat":"36.962329409","long":"127.04342916","items":[{"name":"솥뚜껑삼겹살전문점","tel":"031-691-6363","addr":"경기도 평택시 팽성읍 안정리 41-202번지","category":"일반휴게음식 - 일반한식"},{"name":"유앤미뮤직학원","tel":"031-651-5414","addr":"경기도 평택시 팽성읍 안정리 41-202번지","category":"학원 - 예·체능계학원"}]},{"lat":"36.96127462","long":"127.0449557","items":[{"name":"숑이네애견샵","tel":"031-654-0201","addr":"경기도 평택시 팽성읍 안정리 41-299번지","category":"문화.취미 - 애완동물"},{"name":"쑝이네애견샵","tel":"031-691-1456","addr":"경기도 평택시 팽성읍 안정리 41-299번지 1층","category":"서비스업 - 애견샵"}]},{"lat":"36.96072312","long":"127.0498735","items":[{"name":"수리야","tel":"031-692-2588","addr":"경기도 평택시 팽성읍 안정리 165-36번지 1층 2호","category":"일반휴게음식 - 일반한식"}]},{"lat":"36.960049089","long":"127.04514591","items":[{"name":"수지그릴","tel":"031-691-0081","addr":"경기도 평택시 팽성읍 안정리 136-22번지 2층","category":"일반휴게음식 - 일반한식"},{"name":"오리엔탈스파&태닝","tel":"031-618-4100","addr":"경기도 평택시 팽성읍 안정리 136-22번지","category":"보건위생 - 피부미용실"}]},{"lat":"36.961635157","long":"127.04465272","items":[{"name":"순돌이네연탄집","tel":"031-654-7155","addr":"경기도 평택시 팽성읍 안정리 41-179번지","category":"일반휴게음식 - 일반한식"},{"name":"율이네분식","tel":"031-616-4115","addr":"경기도 평택시 팽성읍 안정리 41-179","category":"일반휴게음식 - 스넥"},{"name":"인","tel":"031-651-7697","addr":"경기도 평택시 팽성읍 안정리 41-179번지 1층","category":"일반휴게음식 - 서양음식"}]},{"lat":"36.960634518","long":"127.04589854","items":[{"name":"스타샵(STAR SHOP)","tel":"070-8184-4990","addr":"경기도 평택시 팽성읍 안정리 146-8번지","category":"사무통신 - 통신기기"},{"name":"타임아웃","tel":"031-654-2638","addr":"경기도 평택시 팽성읍 안정리 146-8번지","category":"일반휴게음식 - 칵테일바"}]},{"lat":"36.960445522","long":"127.04525841","items":[{"name":"스테이라운지","tel":"031-664-4029","addr":"경기도 평택시 팽성읍 안정리 112-6번지","category":"일반휴게음식 - 일반한식"},{"name":"원스톱라운지","tel":"031-691-1316","addr":"경기도 평택시 팽성읍 안정리 112-6번지 2층","category":"일반휴게음식 - 일반한식"}]},{"lat":"36.964416081","long":"127.05340171","items":[{"name":"승주수산활어직판장","tel":"031-658-1605","addr":"경기도 평택시 팽성읍 안정리 19-2번지","category":"음료식품 - 농·축·수산품"}]},{"lat":"36.9605802","long":"127.04659468","items":[{"name":"시골보리밥집","tel":"031-653-1980","addr":"경기도 평택시 팽성읍 안정리 149-4번지","category":"일반휴게음식 - 일반한식"}]},{"lat":"36.962887742","long":"127.04439514","items":[{"name":"시립안정어린이집","tel":"031-658-5843","addr":"경기도 평택시 팽성읍 안정리 41-316번지","category":"서비스업 - 교육"}]},{"lat":"36.960660996","long":"127.04740318","items":[{"name":"신하회마을식당","tel":"031-692-6600","addr":"경기도 평택시 팽성읍 안정리 151-8번지","category":"음식점 - 한식"}]},{"lat":"36.967634069","long":"127.0506189","items":[{"name":"신흥유통","tel":"031-618-1905","addr":"경기도 평택시 팽성읍 안정리 57-7","category":"음료식품 - 기타음료식품"}]},{"lat":"36.961716313","long":"127.04448434","items":[{"name":"싱싱해산물포차","tel":"031-657-8636","addr":"경기도 평택시 팽성읍 안정리 41-180번지 1층","category":"일반휴게음식 - 일반한식"}]},{"lat":"36.965222464","long":"127.04162279","items":[{"name":"싸고맛있는집","tel":"031-692-1880","addr":"경기도 평택시 팽성읍 안정리 83-31번지","category":"일반휴게음식 - 일반한식"}]},{"lat":"36.960696251","long":"127.04945803","items":[{"name":"써니","tel":"031-651-6686","addr":"경기도 평택시 팽성읍 안정리 157-2번지","category":"보건위생 - 화장품"}]},{"lat":"36.960634347","long":"127.04637014","items":[{"name":"아람종합장식","tel":"031-691-0484","addr":"경기도 평택시 팽성읍 안정리 148-32번지 1층","category":"직물 - 카페트,커튼,천막,지물"},{"name":"팽성정보통신","tel":"031-654-4016","addr":"경기도 평택시 팽성읍 안정리 148-32번지","category":"사무통신 - 통신기기"}]},{"lat":"36.96113901","long":"127.046202","items":[{"name":"아름미용실","tel":"031-691-4725","addr":"경기도 평택시 팽성읍 안정리 38-10번지 1층","category":"보건위생 - 미용원"},{"name":"아름미용실","tel":"031-691-2747","addr":"경기도 평택시 팽성읍 안정리 38-10번지","category":"서비스업 - 미용"}]},{"lat":"36.959166023","long":"127.04517911","items":[{"name":"아리랑","tel":"031-111-1111","addr":"경기도 평택시 팽성읍 안정리 136-14번지","category":"일반휴게음식 - 일반한식"}]},{"lat":"36.960608068","long":"127.04425916","items":[{"name":"아이디케이","tel":"031-691-2117","addr":"경기도 평택시 팽성읍 안정리 113-245번지","category":"일반휴게음식 - 일반한식"},{"name":"킴스쿡","tel":"031-657-2335","addr":"경기도 평택시 팽성읍 안정리 113-245번지","category":"일반휴게음식 - 일반한식"}]},{"lat":"36.959805934","long":"127.04476401","items":[{"name":"안정T치과의원","tel":"031-691-1905","addr":"경기도 평택시 팽성읍 안정리 135-22","category":"의원 - 치과의원"}]},{"lat":"36.962110221","long":"127.05125549","items":[{"name":"안정건강원","tel":"031-691-2052","addr":"경기도 평택시 팽성읍 안정리 26-27번지","category":"건강식품 - 기타건강식품"},{"name":"엠제이상사","tel":"031-657-1234","addr":"경기도 평택시 팽성읍 안정리 26-27번지","category":"자동차정비 유지 - 자동차부품"},{"name":"청송이발관","tel":"031-691-9643","addr":"경기도 평택시 팽성읍 안정리 26-27번지","category":"서비스업 - 이미용"}]},{"lat":"36.960246324","long":"127.04787454","items":[{"name":"안정리 역전식당","tel":"031-692-7114","addr":"경기도 평택시 팽성읍 안정리 153-18번지","category":"음식점 - 한식"},{"name":"안정리역전식당","tel":"031-691-7769","addr":"경기도 평택시 팽성읍 안정리 153-18번지 1층","category":"일반휴게음식 - 일반한식"}]},{"lat":"36.962580164","long":"127.04772994","items":[{"name":"안정순대국","tel":"031-658-3339","addr":"경기도 평택시 팽성읍 안정리 41-71번지 1층","category":"일반휴게음식 - 일반한식"}]},{"lat":"36.960967488","long":"127.0470665","items":[{"name":"안정약국","tel":"031-691-1981","addr":"경기도 평택시 팽성읍 안정리 37-36","category":"약국 - 약국"},{"name":"안정약국","tel":"031-658-0245","addr":"경기도 평택시 팽성읍 안정리 37-36번지","category":"소매업 - 약국"}]},{"lat":"36.961966095","long":"127.05114311","items":[{"name":"안정오토바이","tel":"031-691-3075","addr":"경기도 평택시 팽성읍 안정리 26-28번지","category":"수리서비스 - 레져용품수리"},{"name":"현대식당","tel":"031-691-7921","addr":"경기도 평택시 팽성읍 안정리 26-28","category":"일반휴게음식 - 스넥"}]},{"lat":"36.960083856","long":"127.04859306","items":[{"name":"알(R)7홀쇼핑","tel":"061-276-5599","addr":"경기도 평택시 팽성읍 안정리 168-7번지 2층","category":"주방용구 - 주방용구"}]},{"lat":"36.959274801","long":"127.04331526","items":[{"name":"알리스레스토랑","tel":"031-651-9469","addr":"경기도 평택시 팽성읍 안정리 113-139번지","category":"일반휴게음식 - 서양음식"},{"name":"테이스트오브타일랜드(Taste of Thailand)","tel":"031-653-8891","addr":"경기도 평택시 팽성읍 안정리 113-139번지 1층","category":"일반휴게음식 - 서양음식"}]},{"lat":"36.961689437","long":"127.04403517","items":[{"name":"엄가네하우스","tel":"031-657-3804","addr":"경기도 평택시 팽성읍 안정리 41-218번지","category":"일반휴게음식 - 일반한식"},{"name":"엄가네하우스","tel":"031-691-4725","addr":"경기도 평택시 팽성읍 안정리 41-218번지 1층","category":"음식점 - 한식"}]},{"lat":"36.96230048","long":"127.04865053","items":[{"name":"에이스세차장","tel":"031-691-2992","addr":"경기도 평택시 팽성읍 안정리 34-12","category":"자동차정비 유지 - 세차장"}]},{"lat":"36.960139826","long":"127.04333818","items":[{"name":"에이치(H)","tel":"031-692-2402","addr":"경기도 평택시 팽성읍 안정리 113-99번지","category":"의류 - 정장"},{"name":"터키펍","tel":"070-4177-0328","addr":"경기도 평택시 팽성읍 안정리 113-99번지","category":"일반휴게음식 - 서양음식"}]},{"lat":"36.960193389","long":"127.04478668","items":[{"name":"에픽","tel":"","addr":"경기도 평택시 팽성읍 안정리 112-8번지 1층","category":"일반휴게음식 - 일반한식"},{"name":"에픽","tel":"031-652-7405","addr":"경기도 평택시 팽성읍 안정리 112-8번지 1층","category":"음식점 - 스테이크"}]},{"lat":"36.95922066","long":"127.0435398","items":[{"name":"엠지도너케밥 (MG DONER KEBAB)","tel":"031-653-9937","addr":"경기도 평택시 팽성읍 안정리 113-135번지 1층","category":"일반휴게음식 - 서양음식"},{"name":"오버더라이스","tel":"","addr":"경기도 평택시 팽성읍 안정리 113-135번지","category":"일반휴게음식 - 일반한식"},{"name":"허니헤어(Honey Hair)","tel":"031-691-0655","addr":"경기도 평택시 팽성읍 안정리 113-135번지","category":"보건위생 - 화장품"}]},{"lat":"36.961138763","long":"127.04687572","items":[{"name":"연희네 수제반찬엔죽","tel":"031-658-3307","addr":"경기도 평택시 팽성읍 안정리 37-28번지","category":"일반휴게음식 - 일반한식"},{"name":"퍼피투게더","tel":"031-618-0877","addr":"경기도 평택시 팽성읍 안정리 37-28번지","category":"문화.취미 - 애완동물"}]},{"lat":"36.961499038","long":"127.04729139","items":[{"name":"영광장식","tel":"031-691-5833","addr":"경기도 평택시 팽성읍 안정리 36-4번지 1층","category":"직물 - 카페트,커튼,천막,지물"}]},{"lat":"36.962578518","long":"127.05189583","items":[{"name":"영빈관","tel":"031-618-9232","addr":"경기도 평택시 팽성읍 안정리 26-22번지","category":"신변잡화 - 기타잡화"}]},{"lat":"36.96316477","long":"127.05053751","items":[{"name":"영성광고","tel":"031-655-9350","addr":"경기도 평택시 팽성읍 안정리 47-112번지","category":"건축자재 - 인테리어전문"}]},{"lat":"36.962194171","long":"127.04365367","items":[{"name":"예림인테리어","tel":"","addr":"경기도 평택시 팽성읍 안정리 41-196번지","category":"건축자재 - 인테리어전문"}]},{"lat":"36.959581262","long":"127.04303471","items":[{"name":"옛터해장국","tel":"031-656-6334","addr":"경기도 평택시 팽성읍 안정리 113-124번지 1층","category":"일반휴게음식 - 일반한식"}]},{"lat":"36.959968207","long":"127.04453953","items":[{"name":"오라클","tel":"","addr":"경기도 평택시 팽성읍 안정리 112-17번지 1층","category":"일반휴게음식 - 일반한식"}]},{"lat":"36.961471555","long":"127.04848161","items":[{"name":"오아시스 엔 호프","tel":"031-658-4231","addr":"경기도 평택시 팽성읍 안정리 31-1번지","category":"일반휴게음식 - 일반한식"}]},{"lat":"36.961356924","long":"127.04139626","items":[{"name":"올엠씨씨","tel":"","addr":"경기도 평택시 팽성읍 안정리 99-22번지 1층","category":"신변잡화 - 기념품점"}]},{"lat":"36.961526258","long":"127.04678611","items":[{"name":"옷이날개","tel":"031-691-8958","addr":"경기도 평택시 팽성읍 안정리 37-46번지","category":"의류 - 정장"}]},{"lat":"36.960219232","long":"127.04803172","items":[{"name":"왕갈비소갈비살","tel":"031-618-8592","addr":"경기도 평택시 팽성읍 안정리 153-33번지 2층","category":"음식점 - 한식"},{"name":"회전화화안정점","tel":"031-692-1172","addr":"경기도 평택시 팽성읍 안정리 153-33번지 1층","category":"음식점 - 한식"}]},{"lat":"36.961472816","long":"127.04506809","items":[{"name":"요술램프","tel":"031-618-2590","addr":"경기도 평택시 팽성읍 안정리 41-287번지","category":"음료식품 - 기타음료식품"}]},{"lat":"36.961382895","long":"127.0445403","items":[{"name":"용가리노래연습장","tel":"031-692-2002","addr":"경기도 평택시 팽성읍 안정리 111-5번지 외3필지 2층","category":"레저업소 - 노 래 방"}]},{"lat":"36.959779449","long":"127.04318079","items":[{"name":"용진자수","tel":"031-655-0990","addr":"경기도 평택시 팽성읍 안정리 113-109번지","category":"직물 - 침구·수예점"},{"name":"유앤미","tel":"031-657-7262","addr":"경기도 평택시 팽성읍 안정리 113-109번지","category":"일반휴게음식 - 일반한식"}]},{"lat":"36.960696544","long":"127.04870572","items":[{"name":"우리정","tel":"031-691-1177","addr":"경기도 평택시 팽성읍 안정리 157-7번지 1층","category":"일반휴게음식 - 일반한식"},{"name":"훔친갈비","tel":"031-618-8934","addr":"경기도 평택시 팽성읍 안정리 157-7번지 1층","category":"일반휴게음식 - 일반한식"}]},{"lat":"36.96113923","long":"127.04559566","items":[{"name":"우리화원","tel":"031-691-2177","addr":"경기도 평택시 팽성읍 안정리 41-292","category":"문화.취미 - 화원"}]},{"lat":"36.962803958","long":"127.05148051","items":[{"name":"우영","tel":"","addr":"경기도 평택시 팽성읍 안정리 33-11번지 1층 103호","category":"건강식품 - 기타건강식품"}]},{"lat":"36.960994928","long":"127.04595489","items":[{"name":"우정낚시","tel":"031-691-6621","addr":"경기도 평택시 팽성읍 안정리 148-9 ,10,11","category":"레져용품 - 스포츠·레져용품"}]},{"lat":"36.958030356","long":"127.04604305","items":[{"name":"워시랜드","tel":"031-655-8819","addr":"경기도 평택시 팽성읍 안정리 191-1번지 외1필지","category":"자동차정비 유지 - 세차장"},{"name":"커피베이험프리점","tel":"031-691-8819","addr":"경기도 평택시 팽성읍 안정리 191-1번지 1층","category":"일반휴게음식 - 서양음식"}]},{"lat":"36.960355294","long":"127.04559522","items":[{"name":"위드미평택삼양점","tel":"031-691-8021","addr":"경기도 평택시 팽성읍 안정리 111-29번지","category":"유통업 영리 - 편 의 점"},{"name":"이마트 24","tel":"031-655-6766","addr":"경기도 평택시 팽성읍 안정리 111-29번지","category":"소매업 - 편의점"}]},{"lat":"36.962715418","long":"127.04748298","items":[{"name":"이지마트","tel":"031-691-0770","addr":"경기도 평택시 팽성읍 안정리 41-37번지 1층","category":"유통업 영리 - 슈퍼마켓"}]},{"lat":"36.962389417","long":"127.05159253","items":[{"name":"이후헤어필","tel":"031-657-0879","addr":"경기도 평택시 팽성읍 안정리 26-25","category":"보건위생 - 미용원"}]},{"lat":"36.955524905","long":"127.04728792","items":[{"name":"일소일소 그린기업(주)","tel":"031-656-3599","addr":"경기도 평택시 팽성읍 안정리 218-40번지","category":"일반휴게음식 - 일반한식"}]},{"lat":"36.959635586","long":"127.04225998","items":[{"name":"재만이네수입코너","tel":"031-691-9954","addr":"경기도 평택시 팽성읍 안정리 113-149번지","category":"신변잡화 - 기타잡화"}]},{"lat":"36.961527631","long":"127.04290099","items":[{"name":"재키","tel":"031-000-0000","addr":"경기도 평택시 팽성읍 안정리 115-50번지","category":"신변잡화 - 액세서리"}]},{"lat":"36.958274309","long":"127.0441793","items":[{"name":"전자담배","tel":"031-651-0658","addr":"경기도 평택시 팽성읍 안정리 127-13번지 안정빌라상가B-11","category":"기타 - 기타 전문점"}]},{"lat":"36.964636893","long":"127.04122948","items":[{"name":"전주기사식당","tel":"031-000-0000","addr":"경기도 평택시 팽성읍 안정리 83-63번지","category":"일반휴게음식 - 일반한식"}]},{"lat":"36.966357946","long":"127.04123034","items":[{"name":"전통밥집","tel":"031-654-5575","addr":"경기도 평택시 팽성읍 안정리 83-96번지 102,103호","category":"일반휴게음식 - 일반한식"}]},{"lat":"36.962524748","long":"127.05117715","items":[{"name":"정연슈퍼","tel":"031-691-1008","addr":"경기도 평택시 팽성읍 안정리 26-1번지","category":"소매업 - 슈퍼"},{"name":"정연슈퍼","tel":"031-691-1042","addr":"경기도 평택시 팽성읍 안정리 26-1","category":"유통업 영리 - 슈퍼마켓"}]},{"lat":"36.96141822","long":"127.04653902","items":[{"name":"제로마켓","tel":"070-7786-0708","addr":"경기도 평택시 팽성읍 안정리 38-9번지","category":"소매업 - 슈퍼"},{"name":"평택왕한의원","tel":"031-652-8646","addr":"경기도 평택시 팽성읍 안정리 38-9번지 2층","category":"의원 - 한의원"}]},{"lat":"36.963298985","long":"127.05283952","items":[{"name":"제이제이네일샵","tel":"031-691-2266","addr":"경기도 평택시 팽성읍 안정리 21-8번지 1층","category":"보건위생 - 피부미용실"},{"name":"청와삼대(평택팽성점)","tel":"031-652-3848","addr":"경기도 평택시 팽성읍 안정리 21-8번지 1층","category":"일반휴게음식 - 일반한식"}]},{"lat":"36.960329002","long":"127.04348425","items":[{"name":"제이제이스아메리칸다이너","tel":"","addr":"경기도 평택시 팽성읍 안정리 113-439번지 1층","category":"일반휴게음식 - 서양음식"}]},{"lat":"36.959833422","long":"127.0434503","items":[{"name":"제이컴퓨터","tel":"070-8263-1870","addr":"경기도 평택시 팽성읍 안정리 113-107번지","category":"사무통신 - 컴퓨터"}]},{"lat":"36.96135535","long":"127.04597755","items":[{"name":"제이피스바베큐","tel":"","addr":"경기도 평택시 팽성읍 안정리 39-20번지 1층","category":"일반휴게음식 - 서양음식"}]},{"lat":"36.963833485","long":"127.04548487","items":[{"name":"조가네소머리탕","tel":"031-691-3179","addr":"경기도 평택시 팽성읍 안정리 109-4번지 1층","category":"일반휴게음식 - 일반한식"}]},{"lat":"36.959499966","long":"127.04361855","items":[{"name":"조이스","tel":"031-691-0132","addr":"경기도 평택시 팽성읍 안정리 113-348번지","category":"일반휴게음식 - 일반한식"},{"name":"주식회사 아러띠","tel":"031-657-2548","addr":"경기도 평택시 팽성읍 안정리 113-348번지 2층","category":"일반휴게음식 - 서양음식"}]},{"lat":"36.961356696","long":"127.04209244","items":[{"name":"주방911","tel":"031-000-0000","addr":"경기도 평택시 팽성읍 안정리 99-32번지 로즈빌라","category":"수리서비스 - 가정용품수리"}]},{"lat":"36.962554313","long":"127.04448479","items":[{"name":"주식회사 아이더블류티","tel":"031-651-3055","addr":"경기도 평택시 팽성읍 안정리 41-153번지","category":"용역 서비스 - 사무서비스"}]},{"lat":"36.96155327","long":"127.04684227","items":[{"name":"주희네화장품","tel":"031-691-1531","addr":"경기도 평택시 팽성읍 안정리 37-20번지 1층","category":"의류 - 정장"},{"name":"형제세탁","tel":"031-691-0350","addr":"경기도 평택시 팽성읍 안정리 37-20번지","category":"수리서비스 - 세탁소"}]},{"lat":"36.961301552","long":"127.04523643","items":[{"name":"준(JUN)","tel":"","addr":"경기도 평택시 팽성읍 안정리 41-288번지 1층","category":"일반휴게음식 - 주점"},{"name":"챙스","tel":"","addr":"경기도 평택시 팽성읍 안정리 41-288번지 2층","category":"일반휴게음식 - 서양음식"}]},{"lat":"36.962110633","long":"127.05023367","items":[{"name":"준갤러리","tel":"031-651-3656","addr":"경기도 평택시 팽성읍 안정리 26-6번지 안정리26-6,26-15","category":"문화.취미 - 민예·공예품"}]},{"lat":"36.960049224","long":"127.04476414","items":[{"name":"중앙상회","tel":"031-691-7270","addr":"경기도 평택시 팽성읍 안정리 112-15번지","category":"신변잡화 - 기타잡화"}]},{"lat":"36.961805437","long":"127.04720173","items":[{"name":"중앙전기","tel":"031-691-3550","addr":"경기도 평택시 팽성읍 안정리 41-94","category":"전기제품 - 기타전기제품"}]},{"lat":"36.960193201","long":"127.04531442","items":[{"name":"지.티.엠.쥬얼리(G.T.M Jewelry)","tel":"031-651-4745","addr":"경기도 평택시 팽성읍 안정리 112-24번지","category":"신변잡화 - 귀금속"}]},{"lat":"36.960778588","long":"127.04617934","items":[{"name":"지혜양품","tel":"031-691-3134","addr":"경기도 평택시 팽성읍 안정리 148-27번지","category":"의류 - 양품점"}]},{"lat":"36.961473034","long":"127.04445052","items":[{"name":"진미용실","tel":"031-691-4353","addr":"경기도 평택시 팽성읍 안정리 41-222번지","category":"보건위생 - 미용원"}]},{"lat":"36.95852607","long":"127.04570648","items":[{"name":"차이향","tel":"031-618-0083","addr":"경기도 평택시 팽성읍 안정리 140-2번지 1층","category":"일반휴게음식 - 중국식"},{"name":"차이향","tel":"031-655-1903","addr":"경기도 평택시 팽성읍 안정리 140-2번지","category":"음식점 - 한식"}]},{"lat":"36.960445162","long":"127.04625775","items":[{"name":"창현상회","tel":"031-691-6448","addr":"경기도 평택시 팽성읍 안정리 152-5번지","category":"음료식품 - 농·축·수산품"}]},{"lat":"36.96322204","long":"127.04173407","items":[{"name":"초콜렛수입코너","tel":"031-691-3704","addr":"경기도 평택시 팽성읍 안정리 100-59번지","category":"음료식품 - 기타음료식품"}]},{"lat":"36.962806759","long":"127.04406946","items":[{"name":"춘천댁닭갈비","tel":"031-656-9978","addr":"경기도 평택시 팽성읍 안정리 41-394번지 1층","category":"일반휴게음식 - 일반한식"}]},{"lat":"36.961912094","long":"127.05098588","items":[{"name":"친구네치킨","tel":"031-692-0076","addr":"경기도 평택시 팽성읍 안정리 26-2번지 1층","category":"일반휴게음식 - 스넥"}]},{"lat":"36.962194615","long":"127.0423399","items":[{"name":"카맥스 (CARMAX)","tel":"031-656-8898","addr":"경기도 평택시 팽성읍 안정리 102-14번지","category":"자동차판매 - 중고자동차판매"}]},{"lat":"36.962410943","long":"127.04212667","items":[{"name":"카맥스센터","tel":"031-656-8898","addr":"경기도 평택시 팽성읍 안정리 102-1번지","category":"자동차정비 유지 - 자동차정비"}]},{"lat":"36.959328568","long":"127.04417987","items":[{"name":"커피나무","tel":"031-618-0083","addr":"경기도 평택시 팽성읍 안정리 134-5번지","category":"소매업 - 카페"},{"name":"커피트리","tel":"031-691-9755","addr":"경기도 평택시 팽성읍 안정리 134-5번지 1층","category":"일반휴게음식 - 서양음식"},{"name":"한라(Hanra)","tel":"031-655-7082","addr":"경기도 평택시 팽성읍 안정리 134-5번지","category":"사무통신 - 컴퓨터"}]},{"lat":"36.959473045","long":"127.04329291","items":[{"name":"커피인텐소","tel":"031-691-9266","addr":"경기도 평택시 팽성읍 안정리 113-138번지 1층","category":"일반휴게음식 - 일반한식"}]},{"lat":"36.961804357","long":"127.05000891","items":[{"name":"케이씨씨 페인트. 고려타일","tel":"031-656-7703","addr":"경기도 평택시 팽성읍 안정리 27-2번지 102호","category":"건축자재 - 페인트"}]},{"lat":"36.962192942","long":"127.04708967","items":[{"name":"코벤트 카페","tel":"","addr":"경기도 평택시 팽성읍 안정리 41-99번지","category":"일반휴게음식 - 서양음식"}]},{"lat":"36.959140039","long":"127.04212499","items":[{"name":"코지뷰티샬롱","tel":"031-691-6911","addr":"경기도 평택시 팽성읍 안정리 113-200번지","category":"보건위생 - 미용원"}]},{"lat":"36.959355955","long":"127.04314688","items":[{"name":"크레이지베이프","tel":"02-0000-0000","addr":"경기도 평택시 팽성읍 안정리 113-142번지","category":"신변잡화 - 기타잡화"},{"name":"타코마테리야끼","tel":"031-653-2388","addr":"경기도 평택시 팽성읍 안정리 113-142번지","category":"일반휴게음식 - 일반한식"}]},{"lat":"36.962023024","long":"127.04348515","items":[{"name":"킴스네일","tel":"031-667-7589","addr":"경기도 평택시 팽성읍 안정리 41-207번지","category":"보건위생 - 피부미용실"},{"name":"킴스헤어뷰티샵","tel":"031-667-7589","addr":"경기도 평택시 팽성읍 안정리 41-207번지","category":"보건위생 - 미용원"}]},{"lat":"36.959164672","long":"127.04881708","items":[{"name":"태양어린이집[아이행복]","tel":"031-691-2218","addr":"경기도 평택시 팽성읍 안정리 166-10번지 1층","category":"학원 - 유아원"}]},{"lat":"36.960220988","long":"127.04314733","items":[{"name":"파라다이스","tel":"031-691-5226","addr":"경기도 평택시 팽성읍 안정리 113-87번지","category":"일반휴게음식 - 서양음식"}]},{"lat":"36.962245314","long":"127.05142401","items":[{"name":"팽성나르미","tel":"070-9435-7579","addr":"경기도 평택시 팽성읍 안정리 26-26번지","category":"보건위생 - 기타대인서비스"}]},{"lat":"36.961607305","long":"127.0469209","items":[{"name":"퍼드림","tel":"031-618-8592","addr":"경기도 평택시 팽성읍 안정리 37-27번지","category":"음식점 - 한식"},{"name":"퍼드림","tel":"031-618-1209","addr":"경기도 평택시 팽성읍 안정리 37-27번지","category":"일반휴게음식 - 일반한식"}]},{"lat":"36.963245323","long":"127.0518738","items":[{"name":"퍼피투게더","tel":"031-692-2625","addr":"경기도 평택시 팽성읍 안정리 47-45번지","category":"서비스업 - 애견샵"}]},{"lat":"36.963219045","long":"127.05000978","items":[{"name":"페리카나치킨안정점","tel":"031-691-6916","addr":"경기도 평택시 팽성읍 안정리 47-35번지 1층","category":"일반휴게음식 - 스넥"}]},{"lat":"36.962858836","long":"127.04944812","items":[{"name":"평창식당","tel":"031-618-5020","addr":"경기도 평택시 팽성읍 안정리 33-27번지 1층","category":"일반휴게음식 - 일반한식"}]},{"lat":"36.959554089","long":"127.04345015","items":[{"name":"포상","tel":"031-656-8675","addr":"경기도 평택시 팽성읍 안정리 113-126번지 2층","category":"일반휴게음식 - 일반한식"}]},{"lat":"36.959778894","long":"127.04478645","items":[{"name":"피자앤유로","tel":"031-692-5757","addr":"경기도 평택시 팽성읍 안정리 135-3번지 1층","category":"일반휴게음식 - 서양음식"}]},{"lat":"36.959634789","long":"127.04459549","items":[{"name":"하나화장품","tel":"031-690-0425","addr":"경기도 평택시 팽성읍 안정리 135-8번지 2층","category":"보건위생 - 화장품"}]},{"lat":"36.959858997","long":"127.047515","items":[{"name":"하워드(HOWARD)","tel":"031-654-1259","addr":"경기도 평택시 팽성읍 안정리 169-1번지","category":"숙박업 - 여관/기타숙박업"}]},{"lat":"36.961834512","long":"127.04134036","items":[{"name":"한미식당","tel":"031-692-5788","addr":"경기도 평택시 팽성읍 안정리 99-34번지","category":"일반휴게음식 - 일반한식"}]},{"lat":"36.962661634","long":"127.04673062","items":[{"name":"한승종합건축보일러","tel":"031-691-1643","addr":"경기도 평택시 팽성읍 안정리 41-474번지","category":"용역 서비스 - 기타용역서비스"}]},{"lat":"36.961776978","long":"127.0508735","items":[{"name":"해밀톤여관","tel":"031-691-7475","addr":"경기도 평택시 팽성읍 안정리 26-41","category":"숙박업 - 여관/기타숙박업"}]},{"lat":"36.963219076","long":"127.04993118","items":[{"name":"행복한식사시간","tel":"031-691-8811","addr":"경기도 평택시 팽성읍 안정리 47-43번지 1층","category":"일반휴게음식 - 일반한식"}]},{"lat":"36.962076958","long":"127.04386695","items":[{"name":"헤어매니아샵","tel":"031-654-1833","addr":"경기도 평택시 팽성읍 안정리 41-190번지","category":"보건위생 - 미용원"}]},{"lat":"36.961021585","long":"127.04697671","items":[{"name":"현대가정의원","tel":"031-691-8168","addr":"경기도 평택시 팽성읍 안정리 37-26번지","category":"서비스업 - 병원"}]},{"lat":"36.959193485","long":"127.04395523","items":[{"name":"현대안경","tel":"031-691-8062","addr":"경기도 평택시 팽성읍 안정리 134-61번지","category":"보건위생 - 안경"}]},{"lat":"36.962049887","long":"127.04397922","items":[{"name":"홈스마일","tel":"031-691-1042","addr":"경기도 평택시 팽성읍 안정리 41-189번지","category":"소매업 - 이불, 커튼, 잡화"}]},{"lat":"36.962021263","long":"127.04834719","items":[{"name":"황보수입코너","tel":"031-652-2360","addr":"경기도 평택시 팽성읍 안정리 35-4","category":"신변잡화 - 기타잡화"}]},{"lat":"36.958390949","long":"127.04559412","items":[{"name":"황철수피자안정점","tel":"031-651-7445","addr":"경기도 평택시 팽성읍 안정리 140-4번지","category":"일반휴게음식 - 서양음식"}]},{"lat":"36.961246148","long":"127.04884079","items":[{"name":"흥부네보양촌","tel":"","addr":"경기도 평택시 팽성읍 안정리 31-7번지","category":"음식점 - 한식"}]},{"lat":"36.961553993","long":"127.04484357","items":[{"name":"희망분식","tel":"031-691-4546","addr":"경기도 평택시 팽성읍 안정리 41-177번지 1층","category":"일반휴게음식 - 일반한식"}]}]