[{"lat":"37.332865397","long":"126.85720944","imageIndex":7,"items":[{"name":"(주)그린","tel":"031-483-5624","addr":"경기도 안산시 상록구 부곡동 738-6번지 1층 3호","indutype":"음료식품 - 기타음료식품","category":"food"}]},{"lat":"37.345257169","long":"126.86712807","imageIndex":7,"items":[{"name":"(주)라라활어유통","tel":"031-410-7771","addr":"경기도 안산시 상록구 부곡동 45-1번지 A동 1층","indutype":"음료식품 - 농·축·수산품","category":"food"},{"name":"(주)라라활어유통","tel":"031-410-7771","addr":"경기도 안산시 상록구 부곡동 45-1번지 A동 1층","indutype":"음료식품 - 농·축·수산품","category":"food"}]},{"lat":"37.324731371","long":"126.85898521","imageIndex":7,"items":[{"name":"(주)세계푸드","tel":"031-502-2092","addr":"경기도 안산시 상록구 부곡동 690-3번지 1층","indutype":"음료식품 - 농·축·수산품","category":"food"}]},{"lat":"37.338308292","long":"126.87334705","imageIndex":7,"items":[{"name":"(주)세종비앤피","tel":"031-475-7800","addr":"경기도 안산시 상록구 부곡동 273-16번지","indutype":"음료식품 - 정육점","category":"food"}]},{"lat":"37.340340582","long":"126.86195719","imageIndex":7,"items":[{"name":"(주)안산동서물류","tel":"031-485-8222","addr":"경기도 안산시 상록구 부곡동 115-54번지","indutype":"음료식품 - 기타음료식품","category":"food"}]},{"lat":"37.345444428","long":"126.8654349","imageIndex":7,"items":[{"name":"(주)태영유통","tel":"031-411-0223","addr":"경기도 안산시 상록구 부곡동 4-1번지","indutype":"음료식품 - 기타음료식품","category":"food"}]},{"lat":"37.333285953","long":"126.86224118","imageIndex":7,"items":[{"name":"거리가게","tel":"031-409-0108","addr":"경기도 안산시 상록구 부곡동 664-2번지 부곡파크타운 302호","indutype":"음료식품 - 기타음료식품","category":"food"}]},{"lat":"37.322201232","long":"126.86041158","imageIndex":7,"items":[{"name":"계룡산건강원","tel":"031-406-9142","addr":"경기도 안산시 상록구 부곡동 699-2번지 1층","indutype":"건강식품 - 기타건강식품","category":"food"}]},{"lat":"37.325561196","long":"126.85971699","imageIndex":7,"items":[{"name":"고깃간","tel":"031-502-3398","addr":"경기도 안산시 상록구 부곡동 612-11번지 102호","indutype":"음료식품 - 정육점","category":"food"}]},{"lat":"37.332585293","long":"126.86404787","imageIndex":7,"items":[{"name":"고손맛두부","tel":"031-416-6622","addr":"경기도 안산시 상록구 부곡동 539번지 부곡쇼핑 101호","indutype":"음료식품 - 기타음료식품","category":"food"},{"name":"사철축산생고기직매장","tel":"031-501-6467","addr":"경기도 안산시 상록구 부곡동 539번지 부곡쇼핑 112호","indutype":"음료식품 - 정육점","category":"food"},{"name":"축산물직판장","tel":"031-407-4985","addr":"경기도 안산시 상록구 부곡동 539번지 부곡쇼핑 1층 114호","indutype":"음료식품 - 정육점","category":"food"}]},{"lat":"37.332503671","long":"126.86359668","imageIndex":7,"items":[{"name":"고향방앗간","tel":"031-416-0889","addr":"경기도 안산시 상록구 부곡동 538-1번지","indutype":"음료식품 - 기타음료식품","category":"food"}]},{"lat":"37.333702221","long":"126.86376372","imageIndex":7,"items":[{"name":"과일생각","tel":"","addr":"경기도 안산시 상록구 부곡동 661-6번지 1층","indutype":"음료식품 - 농·축·수산품","category":"food"},{"name":"용인축산정육점","tel":"031-418-2952","addr":"경기도 안산시 상록구 부곡동 661-6번지","indutype":"음료식품 - 정육점","category":"food"}]},{"lat":"37.336675587","long":"126.86376952","imageIndex":7,"items":[{"name":"광동보신원","tel":"031-483-8548","addr":"경기도 안산시 상록구 부곡동 654번지 공원그린빌","indutype":"건강식품 - 기타건강식품","category":"food"}]},{"lat":"37.330313215","long":"126.86276575","imageIndex":7,"items":[{"name":"구이동","tel":"031-417-9290","addr":"경기도 안산시 상록구 부곡동 626-7번지","indutype":"음료식품 - 정육점","category":"food"}]},{"lat":"37.333341004","long":"126.86307608","imageIndex":7,"items":[{"name":"굿서플라이","tel":"031-407-9921","addr":"경기도 안산시 상록구 부곡동 662-8번지 전부 1층","indutype":"회원제형태 - 건강식품","category":"food"}]},{"lat":"37.333251819","long":"126.86385482","imageIndex":7,"items":[{"name":"기화정","tel":"031-416-6249","addr":"경기도 안산시 상록구 부곡동 533번지 연세성모의원 1층 105호","indutype":"음료식품 - 농·축·수산품","category":"food"}]},{"lat":"37.32745423","long":"126.86045807","imageIndex":7,"items":[{"name":"김가네한우사골","tel":"070-7803-8787","addr":"경기도 안산시 상록구 부곡동 619-9번지 1층 103호","indutype":"음료식품 - 기타음료식품","category":"food"}]},{"lat":"37.326812459","long":"126.85876687","imageIndex":7,"items":[{"name":"김포농산주식회사","tel":"031-408-6484","addr":"경기도 안산시 상록구 부곡동 685-2번지","indutype":"음료식품 - 미곡상","category":"food"}]},{"lat":"37.329535348","long":"126.86026233","imageIndex":7,"items":[{"name":"나린수산","tel":"031-480-3060","addr":"경기도 안산시 상록구 부곡동 675-1번지 1층","indutype":"음료식품 - 농·축·수산품","category":"food"}]},{"lat":"37.324306943","long":"126.85820753","imageIndex":7,"items":[{"name":"농산물유통","tel":"031-501-6534","addr":"경기도 안산시 상록구 부곡동 691-11번지 101,103호","indutype":"음료식품 - 기타음료식품","category":"food"}]},{"lat":"37.322533805","long":"126.8597453","imageIndex":7,"items":[{"name":"농수산물직판장","tel":"031-409-7436","addr":"경기도 안산시 상록구 부곡동 600-10번지 농수산물직판장內정육코너 1층","indutype":"음료식품 - 정육점","category":"food"}]},{"lat":"37.341337301","long":"126.86674015","imageIndex":7,"items":[{"name":"농협회사법인 자연수레(주)","tel":"031-501-1685","addr":"경기도 안산시 상록구 부곡동 75-19번지 C동","indutype":"음료식품 - 농·축·수산품","category":"food"},{"name":"주식회사신선유통","tel":"031-405-0900","addr":"경기도 안산시 상록구 부곡동 75-19 75-86","indutype":"음료식품 - 기타음료식품","category":"food"}]},{"lat":"37.332890722","long":"126.86326873","imageIndex":7,"items":[{"name":"뉴월드베이커리","tel":"031-416-3490","addr":"경기도 안산시 상록구 부곡동 665-4번지 1층","indutype":"음료식품 - 제과점","category":"food"}]},{"lat":"37.333063188","long":"126.86435165","imageIndex":7,"items":[{"name":"대가.우복당식품","tel":"","addr":"경기도 안산시 상록구 부곡동 533-4번지 부곡시장 1층 109호","indutype":"음료식품 - 기타음료식품","category":"food"},{"name":"부곡반찬","tel":"031-1111-1111","addr":"경기도 안산시 상록구 부곡동 533-4번지 부곡시장 1층 113호","indutype":"음료식품 - 기타음료식품","category":"food"}]},{"lat":"37.331560291","long":"126.86590025","imageIndex":7,"items":[{"name":"대건유통","tel":"","addr":"경기도 안산시 상록구 부곡동 544-2번지 베이아트빌 201호","indutype":"음료식품 - 농·축·수산품","category":"food"}]},{"lat":"37.332197458","long":"126.86371008","imageIndex":7,"items":[{"name":"대경 유통","tel":"031-000-0000","addr":"경기도 안산시 상록구 부곡동 539-5번지 4동 407호","indutype":"음료식품 - 농·축·수산품","category":"food"}]},{"lat":"37.33472456","long":"126.8673727","imageIndex":7,"items":[{"name":"대명유통","tel":"031-409-6840","addr":"경기도 안산시 상록구 부곡동 633번지 정상캐슬","indutype":"음료식품 - 기타음료식품","category":"food"}]},{"lat":"37.334536273","long":"126.86048984","imageIndex":7,"items":[{"name":"대야농협안산직판장","tel":"031-411-0673","addr":"경기도 안산시 상록구 부곡동 726-2번지","indutype":"음료식품 - 미곡상","category":"food"}]},{"lat":"37.332394763","long":"126.86293114","imageIndex":7,"items":[{"name":"도그카페","tel":"031-407-9489","addr":"경기도 안산시 상록구 부곡동 666-4번지 부곡웨스턴빌딩 2층 201호","indutype":"음료식품 - 기타음료식품","category":"food"}]},{"lat":"37.329473348","long":"126.86115382","imageIndex":7,"items":[{"name":"동산건강원","tel":"031-408-7537","addr":"경기도 안산시 상록구 부곡동 674-2번지 일부 1층 102호","indutype":"건강식품 - 기타건강식품","category":"food"}]},{"lat":"37.332056437","long":"126.86640711","imageIndex":7,"items":[{"name":"드링크업","tel":"00-000-0000","addr":"경기도 안산시 상록구 부곡동 536-8번지 지하1층","indutype":"음료식품 - 농·축·수산품","category":"food"}]},{"lat":"37.322946614","long":"126.85837937","imageIndex":7,"items":[{"name":"롯대푸드유통","tel":"031-417-1263","addr":"경기도 안산시 상록구 부곡동 694-1번지 1층","indutype":"음료식품 - 기타음료식품","category":"food"}]},{"lat":"37.328337837","long":"126.86096414","imageIndex":7,"items":[{"name":"막퍼주는집","tel":"031-409-0920","addr":"경기도 안산시 상록구 부곡동 622-10번지 2호","indutype":"음료식품 - 농·축·수산품","category":"food"}]},{"lat":"37.324921064","long":"126.85937973","imageIndex":7,"items":[{"name":"명품바른고기","tel":"031-409-1660","addr":"경기도 안산시 상록구 부곡동 692-1번지 103호","indutype":"음료식품 - 정육점","category":"food"}]},{"lat":"37.335866707","long":"126.85795968","imageIndex":7,"items":[{"name":"뱃살도둑","tel":"031-405-1154","addr":"경기도 안산시 상록구 부곡동 715-6 1층일부(3호)","indutype":"회원제형태 - 건강식품","category":"food"}]},{"lat":"37.324481808","long":"126.86124217","imageIndex":7,"items":[{"name":"부곡과일(알뜰장)","tel":"","addr":"경기도 안산시 상록구 부곡동 607-5번지 1층","indutype":"음료식품 - 농·축·수산품","category":"food"}]},{"lat":"37.335417461","long":"126.86660414","imageIndex":7,"items":[{"name":"부곡홍마트정육점","tel":"031-416-0045","addr":"경기도 안산시 상록구 부곡동 636-13번지","indutype":"음료식품 - 정육점","category":"food"}]},{"lat":"37.332254569","long":"126.86632777","imageIndex":7,"items":[{"name":"부여버섯","tel":"","addr":"경기도 안산시 상록구 부곡동 536-2번지","indutype":"음료식품 - 농·축·수산품","category":"food"}]},{"lat":"37.330445116","long":"126.86004623","imageIndex":7,"items":[{"name":"블루머큐리코리아","tel":"031-410-8488","addr":"경기도 안산시 상록구 부곡동 678-7번지 1층","indutype":"음료식품 - 기타음료식품","category":"food"}]},{"lat":"37.325785972","long":"126.85932168","imageIndex":7,"items":[{"name":"빵의나라","tel":"031-416-2795","addr":"경기도 안산시 상록구 부곡동 686-7번지","indutype":"음료식품 - 제과점","category":"food"}]},{"lat":"37.3325011","long":"126.86143022","imageIndex":7,"items":[{"name":"서신유통","tel":"031-418-5467","addr":"경기도 안산시 상록구 부곡동 667-11번지 101호","indutype":"음료식품 - 농·축·수산품","category":"food"}]},{"lat":"37.322532035","long":"126.85828991","imageIndex":7,"items":[{"name":"서울우유성호동대리점","tel":"031-416-1146","addr":"경기도 안산시 상록구 부곡동 695-19번지 1층","indutype":"음료식품 - 기타음료식품","category":"food"}]},{"lat":"37.3340010227","long":"126.8650156771","imageIndex":7,"items":[{"name":"성대유통","tel":"070-4634-0791","addr":"경기도 안산시 상록구 부곡동 642-1번지","indutype":"도매 및 소매업 - 농공산식품","category":"food"}]},{"lat":"37.339423961","long":"126.8719007","imageIndex":7,"items":[{"name":"성해양조","tel":"031-403-7706","addr":"경기도 안산시 상록구 부곡동 260-4번지","indutype":"음료식품 - 주류 판매점","category":"food"}]},{"lat":"37.333395491","long":"126.86343706","imageIndex":7,"items":[{"name":"세자매누룽지","tel":"","addr":"경기도 안산시 상록구 부곡동 662-3번지 1층 102호","indutype":"음료식품 - 기타음료식품","category":"food"}]},{"lat":"37.330175911","long":"126.86096068","imageIndex":7,"items":[{"name":"세찬씨푸드","tel":"070-4122-7038","addr":"경기도 안산시 상록구 부곡동 677-4번지 301호","indutype":"음료식품 - 농·축·수산품","category":"food"}]},{"lat":"37.335724004","long":"126.85915607","imageIndex":7,"items":[{"name":"소원수산","tel":"031-111-1111","addr":"경기도 안산시 상록구 부곡동 724-11번지","indutype":"음료식품 - 농·축·수산품","category":"food"},{"name":"소은수산","tel":"","addr":"경기도 안산시 상록구 부곡동 724-11번지 104호","indutype":"음료식품 - 농·축·수산품","category":"food"},{"name":"웃자콩","tel":"","addr":"경기도 안산시 상록구 부곡동 724-11번지 휴캐슬 202호","indutype":"건강식품 - 기타건강식품","category":"food"},{"name":"정다운수산","tel":"","addr":"경기도 안산시 상록구 부곡동 724-11번지 301호","indutype":"음료식품 - 농·축·수산품","category":"food"}]},{"lat":"37.343310913","long":"126.86707515","imageIndex":7,"items":[{"name":"시온팜","tel":"031-1111-1111","addr":"경기도 안산시 상록구 부곡동 64-10번지","indutype":"음료식품 - 기타음료식품","category":"food"}]},{"lat":"37.333034418","long":"126.86287354","imageIndex":7,"items":[{"name":"신성푸드","tel":"031-407-1648","addr":"경기도 안산시 상록구 부곡동 665-1","indutype":"음료식품 - 기타음료식품","category":"food"}]},{"lat":"37.328057816","long":"126.86037795","imageIndex":7,"items":[{"name":"아이스크림천국","tel":"02-1111-1111","addr":"경기도 안산시 상록구 부곡동 682-7번지 101호","indutype":"음료식품 - 제과점","category":"food"}]},{"lat":"37.322946407","long":"126.85821014","imageIndex":7,"items":[{"name":"안산롯데유통","tel":"031-417-1263","addr":"경기도 안산시 상록구 부곡동 694번지","indutype":"음료식품 - 기타음료식품","category":"food"}]},{"lat":"37.3246147179","long":"126.8593803156","imageIndex":7,"items":[{"name":"여우와솜사탕","tel":"031-406-8969","addr":"경기도 안산시 상록구 부곡동 692-3번지","indutype":"도매 및 소매업 - 생활,식품잡화,복","category":"food"}]},{"lat":"37.334000885","long":"126.8573765","imageIndex":7,"items":[{"name":"연세우유중앙보급소","tel":"031-402-2670","addr":"경기도 안산시 상록구 부곡동 734-2번지","indutype":"음료식품 - 기타음료식품","category":"food"}]},{"lat":"37.332863105","long":"126.8627723","imageIndex":7,"items":[{"name":"영자네손맛김치","tel":"031-520-7422","addr":"경기도 안산시 상록구 부곡동 665-8번지 102호 상가","indutype":"음료식품 - 기타음료식품","category":"food"}]},{"lat":"37.333035602","long":"126.86387779","imageIndex":7,"items":[{"name":"오복떡방앗간","tel":"031-418-7118","addr":"경기도 안산시 상록구 부곡동 533-10번지 1층","indutype":"음료식품 - 제과점","category":"food"}]},{"lat":"37.341840356","long":"126.86543018","imageIndex":7,"items":[{"name":"오자네왔는가","tel":"031-482-5289","addr":"경기도 안산시 상록구 부곡동 81-12번지","indutype":"음료식품 - 기타음료식품","category":"food"}]},{"lat":"37.327696511","long":"126.85963396","imageIndex":7,"items":[{"name":"완도특산","tel":"031-501-0716","addr":"경기도 안산시 상록구 부곡동 683-6번지 1층","indutype":"음료식품 - 농·축·수산품","category":"food"}]},{"lat":"37.333668298","long":"126.85802032","imageIndex":7,"items":[{"name":"우리자판기","tel":"","addr":"경기도 안산시 상록구 부곡동 734-7번지 104호","indutype":"음료식품 - 기타음료식품","category":"food"},{"name":"우리자판기","tel":"031-410-2131","addr":"경기도 안산시 상록구 부곡동 734-7번지 104호","indutype":"음료식품 - 기타음료식품","category":"food"}]},{"lat":"37.34133605","long":"126.8656568","imageIndex":7,"items":[{"name":"우신F.S","tel":"031-501-5901","addr":"경기도 안산시 상록구 부곡동 75-63","indutype":"음료식품 - 기타음료식품","category":"food"}]},{"lat":"37.340142198","long":"126.86182214","imageIndex":7,"items":[{"name":"일육육에프에스","tel":"031-411-6761","addr":"경기도 안산시 상록구 부곡동 115-12번지","indutype":"음료식품 - 기타음료식품","category":"food"}]},{"lat":"37.332203468","long":"126.86118254","imageIndex":7,"items":[{"name":"자매끼리초콜릿","tel":"","addr":"경기도 안산시 상록구 부곡동 671번지 1층 102호","indutype":"음료식품 - 기타음료식품","category":"food"}]},{"lat":"37.333252692","long":"126.86459955","imageIndex":7,"items":[{"name":"장터정육점","tel":"031-111-1111","addr":"경기도 안산시 상록구 부곡동 642-7번지 1층","indutype":"음료식품 - 정육점","category":"food"}]},{"lat":"37.327814814","long":"126.86060407","imageIndex":7,"items":[{"name":"재도유통","tel":"","addr":"경기도 안산시 상록구 부곡동 620-15번지 102호","indutype":"음료식품 - 기타음료식품","category":"food"}]},{"lat":"37.334784657","long":"126.86479985","imageIndex":7,"items":[{"name":"제일양봉","tel":"031-417-5782","addr":"경기도 안산시 상록구 부곡동 644-11번지","indutype":"건강식품 - 기타건강식품","category":"food"}]},{"lat":"37.33033889","long":"126.86162609","imageIndex":7,"items":[{"name":"제일정육점","tel":"031-052-1373","addr":"경기도 안산시 상록구 부곡동 673-7번지","indutype":"음료식품 - 정육점","category":"food"}]},{"lat":"37.334812528","long":"126.86552197","imageIndex":7,"items":[{"name":"주몽푸드","tel":"031-498-4295","addr":"경기도 안산시 상록구 부곡동 645-2번지 302호","indutype":"음료식품 - 기타음료식품","category":"food"}]},{"lat":"37.34631155","long":"126.86729546","imageIndex":7,"items":[{"name":"주식회사 귀인한우유통","tel":"031-484-4885","addr":"경기도 안산시 상록구 부곡동 2번지 귀인한우촌가든목장 나동","indutype":"음료식품 - 정육점","category":"food"}]},{"lat":"37.340476593","long":"126.86267917","imageIndex":7,"items":[{"name":"주식회사 대신유통","tel":"02-1577-0000","addr":"경기도 안산시 상록구 부곡동 93-22번지","indutype":"음료식품 - 기타음료식품","category":"food"}]},{"lat":"37.340952619","long":"126.86915581","imageIndex":7,"items":[{"name":"주식회사대운에프앤비","tel":"031-481-9585","addr":"경기도 안산시 상록구 부곡동 66-37번지","indutype":"음료식품 - 정육점","category":"food"}]},{"lat":"37.334370232","long":"126.85731937","imageIndex":7,"items":[{"name":"착하면돼지","tel":"031-410-4343","addr":"경기도 안산시 상록구 부곡동 733-11번지 101호","indutype":"음료식품 - 정육점","category":"food"}]},{"lat":"37.336001278","long":"126.86501202","imageIndex":7,"items":[{"name":"천지축산(주)","tel":"031-408-5193","addr":"경기도 안산시 상록구 부곡동 649-10번지","indutype":"음료식품 - 정육점","category":"food"}]},{"lat":"37.33886982","long":"126.87602054","imageIndex":7,"items":[{"name":"청곡농원","tel":"031-413-3133","addr":"경기도 안산시 상록구 부곡동 262-2번지 265","indutype":"음료식품 - 농·축·수산품","category":"food"}]},{"lat":"37.34086125","long":"126.86803877","imageIndex":7,"items":[{"name":"청산곡물센타","tel":"031-405-9495","addr":"경기도 안산시 상록구 부곡동 74-3 나동","indutype":"음료식품 - 미곡상","category":"food"}]},{"lat":"37.323840239","long":"126.85970898","imageIndex":7,"items":[{"name":"카페옆과자점","tel":"","addr":"경기도 안산시 상록구 부곡동 605-11번지 102호","indutype":"음료식품 - 기타음료식품","category":"food"}]},{"lat":"37.335531456","long":"126.86390704","imageIndex":7,"items":[{"name":"크리스탈생수","tel":"031-438-6633","addr":"경기도 안산시 상록구 부곡동 656-4","indutype":"음료식품 - 기타음료식품","category":"food"}]},{"lat":"37.326370589","long":"126.85846308","imageIndex":7,"items":[{"name":"클커피컴퍼니","tel":"031-408-7977","addr":"경기도 안산시 상록구 부곡동 685-11번지 안산제2종합시장 1층 1033호","indutype":"음료식품 - 기타음료식품","category":"food"}]},{"lat":"37.332002532","long":"126.86654261","imageIndex":7,"items":[{"name":"태산유통","tel":"031-502-2087","addr":"경기도 안산시 상록구 부곡동 536-7번지 1층","indutype":"음료식품 - 기타음료식품","category":"food"}]},{"lat":"37.332341978","long":"126.86401447","imageIndex":7,"items":[{"name":"태산축산","tel":"031-415-3376","addr":"경기도 안산시 상록구 부곡동 539-1번지","indutype":"음료식품 - 정육점","category":"food"}]},{"lat":"37.33336862","long":"126.86357251","imageIndex":7,"items":[{"name":"파리바게뜨안산부곡점","tel":"031-406-8249","addr":"경기도 안산시 상록구 부곡동 662-4번지 1층","indutype":"음료식품 - 제과점","category":"food"}]},{"lat":"37.332728991","long":"126.86365268","imageIndex":7,"items":[{"name":"팔도청과","tel":"","addr":"경기도 안산시 상록구 부곡동 538번지 부곡프라자 106호","indutype":"음료식품 - 농·축·수산품","category":"food"}]},{"lat":"37.334613853","long":"126.857601","imageIndex":7,"items":[{"name":"풍네프제과점","tel":"031-439-0095","addr":"경기도 안산시 상록구 부곡동 733번지 101호","indutype":"음료식품 - 제과점","category":"food"}]},{"lat":"37.334225631","long":"126.86446236","imageIndex":7,"items":[{"name":"프랑소아과자점","tel":"031-417-4429","addr":"경기도 안산시 상록구 부곡동 643번지 101호","indutype":"음료식품 - 제과점","category":"food"}]},{"lat":"37.33075162","long":"126.86785374","imageIndex":7,"items":[{"name":"행복유지","tel":"031-410-2400","addr":"경기도 안산시 상록구 부곡동 551-4번지","indutype":"음료식품 - 기타음료식품","category":"food"}]},{"lat":"37.335812812","long":"126.85809519","imageIndex":7,"items":[{"name":"효미네김치","tel":"031-507-8043","addr":"경기도 안산시 상록구 부곡동 715-5번지 102호","indutype":"음료식품 - 기타음료식품","category":"food"}]},{"lat":"37.321981849","long":"126.8578284","imageIndex":7,"items":[{"name":"후레쉬베이커리","tel":"031-416-4455","addr":"경기도 안산시 상록구 부곡동 696-11번지","indutype":"음료식품 - 제과점","category":"food"}]}]