[{"lat":"37.009692562","long":"127.27040499","imageIndex":4,"items":[{"name":"7학년7반떡볶이","tel":"031-677-7722","addr":"경기도 안성시 연지동 120-2번지 2층","indutype":"일반휴게음식 - 일반한식","category":"restaurant"}]},{"lat":"37.010772083","long":"127.27118405","imageIndex":4,"items":[{"name":"js coffee","tel":"031-673-1614","addr":"경기도 안성시 연지동 20-1번지 외2필지 제C호","indutype":"일반휴게음식 - 서양음식","category":"restaurant"},{"name":"작은카페","tel":"031-673-1614","addr":"경기도 안성시 연지동 20-1번지","indutype":"일반휴게음식 - 스넥","category":"restaurant"}]},{"lat":"37.010548087","long":"127.27062147","imageIndex":4,"items":[{"name":"교촌 안성1호점","tel":"031-674-4565","addr":"경기도 안성시 연지동 97번지 1층","indutype":"일반휴게음식 - 스넥","category":"restaurant"},{"name":"샐프레소","tel":"031-676-3070","addr":"경기도 안성시 연지동 97번지 1층","indutype":"일반휴게음식 - 서양음식","category":"restaurant"}]},{"lat":"37.010692002","long":"127.27073433","imageIndex":4,"items":[{"name":"교촌치킨(안성1호점)","tel":"031-674-4565","addr":"경기도 안성시 연지동 94번지","indutype":"일반휴게음식 - 주점","category":"restaurant"},{"name":"김밥나라","tel":"031-671-2201","addr":"경기도 안성시 연지동 94번지","indutype":"일반휴게음식 - 일반한식","category":"restaurant"},{"name":"스마일곱창닭강정","tel":"031-677-2501","addr":"경기도 안성시 연지동 94번지 1층","indutype":"일반휴게음식 - 일반한식","category":"restaurant"}]},{"lat":"37.009277949","long":"127.27045971","imageIndex":4,"items":[{"name":"대천회집","tel":"031-674-9971","addr":"경기도 안성시 연지동 117번지","indutype":"일반휴게음식 - 일식·회집","category":"restaurant"}]},{"lat":"37.009305487","long":"127.2702351","imageIndex":4,"items":[{"name":"더 키밥스","tel":"031-676-9823","addr":"경기도 안성시 연지동 118번지","indutype":"일반휴게음식 - 스넥","category":"restaurant"},{"name":"와이블랙","tel":"031-673-8033","addr":"경기도 안성시 연지동 118번지","indutype":"일반휴게음식 - 스넥","category":"restaurant"}]},{"lat":"37.010133954","long":"127.27046271","imageIndex":4,"items":[{"name":"더본컴퍼니","tel":"","addr":"경기도 안성시 연지동 105번지 ,1,2층","indutype":"일반휴게음식 - 서양음식","category":"restaurant"}]},{"lat":"37.009659022","long":"127.26929254","imageIndex":4,"items":[{"name":"러시아워","tel":"031-674-0789","addr":"경기도 안성시 연지동 157-4번지 1층","indutype":"일반휴게음식 - 서양음식","category":"restaurant"}]},{"lat":"37.009415105","long":"127.26957258","imageIndex":4,"items":[{"name":"부르릉 족발본점","tel":"031-676-5292","addr":"경기도 안성시 연지동 156번지 1층","indutype":"일반휴게음식 - 일반한식","category":"restaurant"}]},{"lat":"37.01085513","long":"127.27031918","imageIndex":4,"items":[{"name":"삼순이","tel":"031-677-2577","addr":"경기도 안성시 연지동 124번지","indutype":"일반휴게음식 - 스넥","category":"restaurant"}]},{"lat":"37.010270631","long":"127.26978905","imageIndex":4,"items":[{"name":"샤넬","tel":"031-675-7285","addr":"경기도 안성시 연지동 142번지","indutype":"일반휴게음식 - 주점","category":"restaurant"},{"name":"춘천닭갈비","tel":"031-676-1172","addr":"경기도 안성시 연지동 142번지","indutype":"일반휴게음식 - 일반한식","category":"restaurant"},{"name":"해피바이러스","tel":"031-676-9647","addr":"경기도 안성시 연지동 142번지","indutype":"일반휴게음식 - 주점","category":"restaurant"}]},{"lat":"37.010243144","long":"127.26999119","imageIndex":4,"items":[{"name":"설악칡냉면&헝그리브라더스","tel":"031-672-6757","addr":"경기도 안성시 연지동 139번지","indutype":"일반휴게음식 - 일반한식","category":"restaurant"}]},{"lat":"37.01077254","long":"127.2709818","imageIndex":4,"items":[{"name":"슈퍼탕수육","tel":"031-674-2333","addr":"경기도 안성시 연지동 91-1번지","indutype":"일반휴게음식 - 중국식","category":"restaurant"}]},{"lat":"37.010637482","long":"127.27093639","imageIndex":4,"items":[{"name":"연지동 국숫집","tel":"031-677-8899","addr":"경기도 안성시 연지동 95번지 1층","indutype":"일반휴게음식 - 일반한식","category":"restaurant"}]},{"lat":"37.010081889","long":"127.26957491","imageIndex":4,"items":[{"name":"오리랑닭이랑","tel":"031-677-8531","addr":"경기도 안성시 연지동 157번지","indutype":"일반휴게음식 - 일반한식","category":"restaurant"}]},{"lat":"37.010603264","long":"127.27012728","imageIndex":4,"items":[{"name":"윤가네","tel":"031-676-0070","addr":"경기도 안성시 연지동 129번지","indutype":"일반휴게음식 - 일반한식","category":"restaurant"}]},{"lat":"37.009387265","long":"127.26993202","imageIndex":4,"items":[{"name":"이춘봉인생치킨(안성점)","tel":"031-676-1230","addr":"경기도 안성시 연지동 152-1번지","indutype":"일반휴게음식 - 스넥","category":"restaurant"}]},{"lat":"37.009250284","long":"127.27074051","imageIndex":4,"items":[{"name":"임실치즈피자 앤 치킨","tel":"031-675-6611","addr":"경기도 안성시 연지동 88번지 1층","indutype":"일반휴게음식 - 서양음식","category":"restaurant"}]},{"lat":"37.010602834","long":"127.27031829","imageIndex":4,"items":[{"name":"장꼬치","tel":"031-676-0058","addr":"경기도 안성시 연지동 127번지 1층","indutype":"일반휴게음식 - 일반한식","category":"restaurant"}]},{"lat":"37.009856876","long":"127.26946176","imageIndex":4,"items":[{"name":"장안면옥","tel":"031-675-4703","addr":"경기도 안성시 연지동 157-2번지","indutype":"일반휴게음식 - 일반한식","category":"restaurant"}]},{"lat":"37.009692132","long":"127.27059599","imageIndex":4,"items":[{"name":"장충동 뚱뚱이 할머니족발","tel":"031-674-7768","addr":"경기도 안성시 연지동 112번지","indutype":"일반휴게음식 - 일반한식","category":"restaurant"},{"name":"흥식당","tel":"031-000-0000","addr":"경기도 안성시 연지동 112번지","indutype":"일반휴게음식 - 일반한식","category":"restaurant"}]},{"lat":"37.011051995","long":"127.27092661","imageIndex":4,"items":[{"name":"쥬싱죠 마리탕","tel":"","addr":"경기도 안성시 연지동 7번지","indutype":"일반휴게음식 - 중국식","category":"restaurant"}]},{"lat":"37.011078646","long":"127.27109524","imageIndex":4,"items":[{"name":"진닭한마리","tel":"031-671-8882","addr":"경기도 안성시 연지동 9번지 1층 우측호","indutype":"일반휴게음식 - 일반한식","category":"restaurant"},{"name":"코바코안성점","tel":"031-672-2234","addr":"경기도 안성시 연지동 9번지","indutype":"일반휴게음식 - 서양음식","category":"restaurant"}]},{"lat":"37.010214923","long":"127.27051918","imageIndex":4,"items":[{"name":"치요남치킨안성점","tel":"031-647-4579","addr":"경기도 안성시 연지동 104번지 2호","indutype":"일반휴게음식 - 스넥","category":"restaurant"},{"name":"피자파는집","tel":"031-673-2934","addr":"경기도 안성시 연지동 104번지 1층","indutype":"일반휴게음식 - 서양음식","category":"restaurant"}]},{"lat":"37.010608824","long":"127.27165538","imageIndex":4,"items":[{"name":"카페드스텔라(cafe de stella)","tel":"031-8052-4214","addr":"경기도 안성시 연지동 18-2번지 1층","indutype":"일반휴게음식 - 서양음식","category":"restaurant"},{"name":"팔도식당","tel":"031-674-2111","addr":"경기도 안성시 연지동 18-2번지","indutype":"일반휴게음식 - 일반한식","category":"restaurant"}]},{"lat":"37.011520545","long":"127.27092825","imageIndex":4,"items":[{"name":"커피(coffee)란","tel":"031-677-6629","addr":"경기도 안성시 연지동 2번지","indutype":"일반휴게음식 - 서양음식","category":"restaurant"}]},{"lat":"37.009159569","long":"127.27100985","imageIndex":4,"items":[{"name":"커피클래스(MK coffee class)","tel":"031-675-4196","addr":"경기도 안성시 연지동 83번지","indutype":"일반휴게음식 - 서양음식","category":"restaurant"}]},{"lat":"37.010608086","long":"127.27198122","imageIndex":4,"items":[{"name":"페리카나치킨3분점","tel":"031-674-9992","addr":"경기도 안성시 연지동 16-1번지","indutype":"일반휴게음식 - 서양음식","category":"restaurant"}]},{"lat":"37.010358991","long":"127.27056463","imageIndex":4,"items":[{"name":"피자스쿨(안성금산교차로점)","tel":"031-674-2382","addr":"경기도 안성시 연지동 102번지","indutype":"일반휴게음식 - 서양음식","category":"restaurant"}]},{"lat":"37.010332947","long":"127.27012634","imageIndex":4,"items":[{"name":"한솥안성금산점","tel":"031-671-0151","addr":"경기도 안성시 연지동 136번지","indutype":"일반휴게음식 - 일반한식","category":"restaurant"}]},{"lat":"37.010078649","long":"127.27101307","imageIndex":4,"items":[{"name":"홍짬 연지점","tel":"031-673-7190","addr":"경기도 안성시 연지동 41번지","indutype":"일반휴게음식 - 중국식","category":"restaurant"}]},{"lat":"37.009662332","long":"127.27182058","imageIndex":4,"items":[{"name":"흥남어머니왕족발","tel":"031-674-0705","addr":"경기도 안성시 연지동 52번지","indutype":"일반휴게음식 - 일반한식","category":"restaurant"}]}]