[{"lat":"37.257716073","long":"127.35885507","items":[{"name":"고급닭집","tel":"031-632-0223","addr":"경기도 이천시 마장면 회억리 230-7번지 102호","category":"일반휴게음식 - 스넥"},{"name":"사카나","tel":"031-631-3112","addr":"경기도 이천시 마장면 회억리 230-7번지","category":"일반휴게음식 - 일식·회집"},{"name":"전주 딱좋아 콩나물국밥","tel":"031-635-5462","addr":"경기도 이천시 마장면 회억리 230-7번지","category":"일반휴게음식 - 일반한식"},{"name":"준당구장","tel":"031-631-5778","addr":"경기도 이천시 마장면 회억리 230-7번지","category":"레저업소 - 당 구 장"},{"name":"창공사","tel":"031-111-1111","addr":"경기도 이천시 마장면 회억리 230-7번지","category":"수리서비스 - 세탁소"}]},{"lat":"37.258575609","long":"127.36066272","items":[{"name":"남덕에스피에프","tel":"031-719-8512","addr":"경기도 이천시 마장면 회억리 239-1","category":"음료식품 - 농·축·수산품"}]},{"lat":"37.253110077","long":"127.36241781","items":[{"name":"단골커피","tel":"02-521-1269","addr":"경기도 이천시 마장면 회억리 194번지","category":"일반휴게음식 - 서양음식"},{"name":"부엉이","tel":"070-8220-3378","addr":"경기도 이천시 마장면 회억리 194번지 나동 1층","category":"일반휴게음식 - 일반한식"}]},{"lat":"37.260328952","long":"127.36483068","items":[{"name":"독도세꼬시","tel":"031-633-9898","addr":"경기도 이천시 마장면 회억리 258-3번지 1동 1층","category":"일반휴게음식 - 일식·회집"},{"name":"소예","tel":"031-338-1101","addr":"경기도 이천시 마장면 회억리 258-3번지 1동 1층","category":"문화.취미 - 문화취미기타"},{"name":"태닝모나코","tel":"","addr":"경기도 이천시 마장면 회억리 258-3번지 1동 102호","category":"보건위생 - 피부미용실"}]},{"lat":"37.263462745","long":"127.37124889","items":[{"name":"레몬트리","tel":"02-1111-1111","addr":"경기도 이천시 마장면 회억리 55-3번지","category":"직물 - 옷감·직물"},{"name":"마이 온 게러지","tel":"02-1111-1111","addr":"경기도 이천시 마장면 회억리 55-3번지","category":"자동차정비 유지 - 자동차시트·타이어"}]},{"lat":"37.256331153","long":"127.35796932","items":[{"name":"마장돼지","tel":"031-634-4423","addr":"경기도 이천시 마장면 회억리 226-7번지","category":"일반휴게음식 - 일반한식"},{"name":"마천한방족발","tel":"031-638-1799","addr":"경기도 이천시 마장면 회억리 226-7번지","category":"일반휴게음식 - 일반한식"}]},{"lat":"37.254050274","long":"127.36138526","items":[{"name":"마장분식","tel":"031-633-9284","addr":"경기도 이천시 마장면 회억리 209번지","category":"일반휴게음식 - 스넥"},{"name":"마장오토바이","tel":"031-633-5343","addr":"경기도 이천시 마장면 회억리 209번지","category":"수리서비스 - 레져용품수리"},{"name":"천마중기","tel":"031-633-6616","addr":"경기도 이천시 마장면 회억리 209","category":"기타 - 기계공구"},{"name":"하림각중화요리","tel":"031-634-7444","addr":"경기도 이천시 마장면 회억리 209번지","category":"일반휴게음식 - 중국식"}]},{"lat":"37.257326772","long":"127.35947321","items":[{"name":"마장스크린골프","tel":"031-632-7907","addr":"경기도 이천시 마장면 회억리 229-1번지","category":"레저업소 - 스크린골프"},{"name":"소담본가","tel":"031-634-7997","addr":"경기도 이천시 마장면 회억리 229-1번지 1동 1층 101호","category":"일반휴게음식 - 일반한식"},{"name":"치킨투어237 이천마장점","tel":"031-634-9298","addr":"경기도 이천시 마장면 회억리 229-1번지 102호","category":"일반휴게음식 - 스넥"},{"name":"태양철물마트","tel":"031-111-1111","addr":"경기도 이천시 마장면 회억리 229-1번지 2동","category":"건축자재 - 목재·석재·철물"}]},{"lat":"37.259217268","long":"127.36002321","items":[{"name":"맛집신코다리네","tel":"031-630-3100","addr":"경기도 이천시 마장면 회억리 234-11번지","category":"일반휴게음식 - 일반한식"},{"name":"지영이네장칼국수","tel":"031-000-0000","addr":"경기도 이천시 마장면 회억리 234-11번지","category":"일반휴게음식 - 일반한식"}]},{"lat":"37.261823922","long":"127.370914","items":[{"name":"바람아래","tel":"031-1111-1111","addr":"경기도 이천시 마장면 회억리 101","category":"문화.취미 - 화원"}]},{"lat":"37.258129861","long":"127.35908246","items":[{"name":"북경","tel":"031-632-7799","addr":"경기도 이천시 마장면 회억리 233-1번지 1동","category":"일반휴게음식 - 중국식"}]},{"lat":"37.266776388","long":"127.37766853","items":[{"name":"비호식당/육군제5779부대","tel":"031-638-5779","addr":"경기도 이천시 마장면 회억리 산113-1번지","category":"일반휴게음식 - 일반한식"},{"name":"육군제5779부대","tel":"031-638-5779","addr":"경기도 이천시 마장면 회억리 산113-1번지","category":"유통업 비영리 - 구내매점(국가기관"},{"name":"육군제5779부대","tel":"031-638-5779","addr":"경기도 이천시 마장면 회억리 산113-1번지","category":"유통업 비영리 - 구내매점(국가기관"}]},{"lat":"37.25949304","long":"127.36119687","items":[{"name":"사자레스토랑","tel":"031-632-3700","addr":"경기도 이천시 마장면 회억리 247번지","category":"일반휴게음식 - 서양음식"}]},{"lat":"37.254193229","long":"127.36474497","items":[{"name":"산타의 자장면","tel":"031-635-0077","addr":"경기도 이천시 마장면 회억리 184-1번지 1, 2동 1층","category":"일반휴게음식 - 일반한식"}]},{"lat":"37.256609046","long":"127.35844406","items":[{"name":"서가건축","tel":"031-634-2821","addr":"경기도 이천시 마장면 회억리 226-2번지","category":"용역 서비스 - 기타용역서비스"}]},{"lat":"37.254108762","long":"127.35992019","items":[{"name":"솔뫼해장촌","tel":"031-634-6080","addr":"경기도 이천시 마장면 회억리 214","category":"일반휴게음식 - 일반한식"}]},{"lat":"37.261882798","long":"127.36643889","items":[{"name":"숙수","tel":"031-633-5209","addr":"경기도 이천시 마장면 회억리 266-1번지 1동 1층","category":"일반휴게음식 - 일반한식"},{"name":"카페담(cafe DAM)","tel":"031-633-5209","addr":"경기도 이천시 마장면 회억리 266-1번지 1동 2층","category":"일반휴게음식 - 일반한식"}]},{"lat":"37.260885475","long":"127.36552099","items":[{"name":"스타무인텔","tel":"031-632-5020","addr":"경기도 이천시 마장면 회억리 261-1번지","category":"숙박업 - 여관/기타숙박업"}]},{"lat":"37.262270173","long":"127.36938303","items":[{"name":"신통치킨 마장점","tel":"031-637-8823","addr":"경기도 이천시 마장면 회억리 96-1번지 1동 101호","category":"일반휴게음식 - 스넥"},{"name":"오늘은국수","tel":"031-638-8508","addr":"경기도 이천시 마장면 회억리 96-1번지","category":"일반휴게음식 - 일반한식"},{"name":"잘난잘난","tel":"031-634-2020","addr":"경기도 이천시 마장면 회억리 96-1번지 2동 1층","category":"일반휴게음식 - 서양음식"},{"name":"폰 온","tel":"031-633-9020","addr":"경기도 이천시 마장면 회억리 96-1번지 1동 101호","category":"사무통신 - 통신기기"}]},{"lat":"37.268331214","long":"127.37030304","items":[{"name":"양촌석유","tel":"031-632-3115","addr":"경기도 이천시 마장면 회억리 318-4번지","category":"연료판매점 - 유류판매"}]},{"lat":"37.254944372","long":"127.36366645","items":[{"name":"자스민","tel":"031-632-6394","addr":"경기도 이천시 마장면 회억리 179번지 1동","category":"일반휴게음식 - 서양음식"}]},{"lat":"37.257492479","long":"127.35830167","items":[{"name":"장가네감자탕","tel":"","addr":"경기도 이천시 마장면 회억리 230-1번지 1동 1층","category":"일반휴게음식 - 일반한식"}]},{"lat":"37.260050155","long":"127.36466025","items":[{"name":"진안추어탕(마장점)","tel":"031-633-7570","addr":"경기도 이천시 마장면 회억리 258-15번지","category":"일반휴게음식 - 일반한식"}]},{"lat":"37.261579082","long":"127.36558068","items":[{"name":"청림","tel":"031-634-9266","addr":"경기도 이천시 마장면 회억리 267번지","category":"일반휴게음식 - 일반한식"}]},{"lat":"37.2666597","long":"127.3688857","items":[{"name":"특전사령부/LION BOOK CAFE","tel":"02-3403-5522","addr":"경기도 이천시 마장면 회억리 산46번지 사서함 138-1호","category":"일반휴게음식 - 서양음식"}]},{"lat":"37.253519256","long":"127.36119113","items":[{"name":"해피우드","tel":"031-632-8401","addr":"경기도 이천시 마장면 회억리 207-3, 422-1","category":"가구 - 일반가구"}]},{"lat":"37.253746282","long":"127.36060607","items":[{"name":"향기로운밥상","tel":"031-634-4605","addr":"경기도 이천시 마장면 회억리 207번지","category":"일반휴게음식 - 일반한식"}]}]