[{"lat":"37.3418080343","long":"126.9719271070","items":[{"name":"(재)의왕시청소년육성재단 (상담복지센터)","tel":"031-477-1881","addr":"경기도 의왕시 고천동 100-1번지","category":"레저업소 - 기타레져업소"},{"name":"재단법인 의왕시청소년육성재단","tel":"031-477-1881","addr":"경기도 의왕시 고천동 100-1번지","category":"레저업소 - 기타레져업소"}]},{"lat":"37.3475306524","long":"126.9767325482","items":[{"name":"(주)디지탈솔루션","tel":"070-4348-2515","addr":"경기도 의왕시 고천동 269-24번지 2층","category":"사무통신 - 컴퓨터"},{"name":"(주)디지탈솔루션/원격지","tel":"031-450-6570","addr":"경기도 의왕시 고천동 269-24번지 안양방송의왕지점","category":"기타 - 기타 전문점"}]},{"lat":"37.3453137304","long":"126.9748937705","items":[{"name":"(주)레드페이스 의왕점","tel":"031-455-5656","addr":"경기도 의왕시 고천동 234-6번지 의왕월드 비전동 103호","category":"레져용품 - 스포츠·레져용품"},{"name":"(주)아이엔에스","tel":"031-475-7206","addr":"경기도 의왕시 고천동 234-6번지 월드비젼 302호","category":"사무통신 - 컴퓨터"},{"name":"(주)알에프아웃도어의왕점","tel":"031-455-5656","addr":"경기도 의왕시 고천동 234-6번지 의왕월드비젼 1층 103호","category":"레져용품 - 스포츠·레져용품"},{"name":"레드페이스의왕점","tel":"031-455-3993","addr":"경기도 의왕시 고천동 234-6번지 의왕월드비젼 103호","category":"레져용품 - 스포츠·레져용품"},{"name":"삼익아이엔씨코(Sam-icKI&CCo)","tel":"031-455-7122","addr":"경기도 의왕시 고천동 234-6번지 월드비젼 606호","category":"기타 - 기타 전문점"},{"name":"서울집","tel":"031-388-1080","addr":"경기도 의왕시 고천동 234-6번지 의왕월드비젼 102호","category":"일반휴게음식 - 일반한식"},{"name":"오휘화장품","tel":"031-457-2533","addr":"경기도 의왕시 고천동 234-6번지 월드비젼 303호","category":"보건위생 - 화장품"},{"name":"월드건업","tel":"031-452-0412","addr":"경기도 의왕시 고천동 234-6 월드비젼빌딩 504호","category":"건축자재 - 인테리어전문"},{"name":"월드비젼식당","tel":"031-453-6697","addr":"경기도 의왕시 고천동 234-6번지 월드비젼 301호","category":"일반휴게음식 - 일반한식"},{"name":"한양초음파","tel":"031-477-4981","addr":"경기도 의왕시 고천동 234-6번지 월드비젼 701호","category":"기타 - 기계공구"},{"name":"한우리","tel":"031-477-9298","addr":"경기도 의왕시 고천동 234-6번지 월드비젼 104호","category":"일반휴게음식 - 일반한식"}]},{"lat":"37.3530058495","long":"126.9656132359","items":[{"name":"(주)성우벤처빌관리단","tel":"031-429-6114","addr":"경기도 의왕시 고천동 332-33번지 성우벤처빌 A동 404호","category":"용역 서비스 - 종합용역"},{"name":"(주)성우벤처빌관리단","tel":"031-429-6114","addr":"경기도 의왕시 고천동 332-33번지 성우벤처빌 A동 401호","category":"자동차정비 유지 - 주차장"},{"name":"미스터마트 의왕고천점","tel":"031-111-1111","addr":"경기도 의왕시 고천동 332-33번지 성우벤처빌 B동 102호","category":"유통업 영리 - 슈퍼마켓"},{"name":"벨리도너츠의왕점","tel":"031-459-0080","addr":"경기도 의왕시 고천동 332-33번지","category":"음료식품 - 제과점"},{"name":"브리즈","tel":"031-458-0866","addr":"경기도 의왕시 고천동 332-33번지","category":"용역 서비스 - 부동산 중개·임대"},{"name":"아름다운세상성우점","tel":"031-477-1418","addr":"경기도 의왕시 고천동 332-33번지 A동 지하층","category":"일반휴게음식 - 위탁급식업"},{"name":"오피스랜드","tel":"031-451-1109","addr":"경기도 의왕시 고천동 332-33번지","category":"서적문구 - 문구용품"},{"name":"위니워터","tel":"031-451-8725","addr":"경기도 의왕시 고천동 332-33번지 성우@형공장A-404","category":"보건위생 - 화장품"},{"name":"주주어클락(JuJu O' Clock)","tel":"031-427-9879","addr":"경기도 의왕시 고천동 332-33번지 성우벤처빌 A동 101-15호","category":"음료식품 - 주류 판매점"},{"name":"피앤씨통상","tel":"031-451-8846","addr":"경기도 의왕시 고천동 332-33번지 성우벤처빌 206호","category":"직물 - 카페트,커튼,천막,지물"}]},{"lat":"37.3478632652","long":"126.9734820810","items":[{"name":"(주)스마트방재","tel":"031-429-0911","addr":"경기도 의왕시 고천동 284-2번지 의왕빌딩 203호","category":"용역 서비스 - 종합용역"},{"name":"주식회사 에코루틴","tel":"031-341-0600","addr":"경기도 의왕시 고천동 284-2번지 의왕빌딩 304호","category":"용역 서비스 - 사무서비스"},{"name":"주식회사 일론(ELON CO.,Ltd.)","tel":"031-458-1015","addr":"경기도 의왕시 고천동 284-2번지 의왕빌딩 306호","category":"의류 - 기타의류"},{"name":"해피마미","tel":"031-278-1196","addr":"경기도 의왕시 고천동 284-2번지 의왕빌딩 206호","category":"용역 서비스 - 종합용역"}]},{"lat":"37.3504217450","long":"126.9718897111","items":[{"name":"(주)신세기자동차정비검사소","tel":"031-427-4344","addr":"경기도 의왕시 고천동 316번지","category":"자동차정비 유지 - 자동차정비"}]},{"lat":"37.3533123362","long":"126.9660645547","items":[{"name":"(주)엔디디코아","tel":"031-347-4641","addr":"경기도 의왕시 고천동 332-33번지 성우벤처빌 에이동 202-7호","category":"신변잡화 - 기타잡화"},{"name":"에스티엠","tel":"031-459-0405","addr":"경기도 의왕시 고천동 332-33번지 A동 301-5호","category":"전기제품 - 기타전기제품"}]},{"lat":"37.3488372276","long":"126.9771948246","items":[{"name":"(주)유티코리아","tel":"031-429-9939","addr":"경기도 의왕시 고천동 519-3번지 1층 1호","category":"전기제품 - 기타전기제품"}]},{"lat":"37.3524193391","long":"126.9630063154","items":[{"name":"(주)의왕개발","tel":"031-456-2222","addr":"경기도 의왕시 고천동 404-2","category":"용역 서비스 - 기타용역서비스"}]},{"lat":"37.3475573283","long":"126.9751750850","items":[{"name":"(주)일우","tel":"031-391-0942","addr":"경기도 의왕시 고천동 275-2번지 2층","category":"서적문구 - 문구용품"},{"name":"공간디자인 살구나무","tel":"031-345-5760","addr":"경기도 의왕시 고천동 275-2번지 1층","category":"건축자재 - 인테리어전문"},{"name":"엠씨인테리어","tel":"031-340-9800","addr":"경기도 의왕시 고천동 275-2번지 1층","category":"건축자재 - 인테리어전문"},{"name":"이가네즉석칼국수","tel":"031-452-1990","addr":"경기도 의왕시 고천동 275-2번지","category":"일반휴게음식 - 일반한식"}]},{"lat":"37.3489538639","long":"126.9750052801","items":[{"name":"(주)청계무비랜드","tel":"031-426-0590","addr":"경기도 의왕시 고천동 295-1번지","category":"문화.취미 - 문화취미기타"},{"name":"먹고삽시다","tel":"031-1566-5675","addr":"경기도 의왕시 고천동 295-1","category":"일반휴게음식 - 일반한식"},{"name":"한라특수여객","tel":"031-445-6952","addr":"경기도 의왕시 고천동 295-1번지 104호","category":"용역 서비스 - 가례서비스업"},{"name":"형제청과","tel":"031-223-5214","addr":"경기도 의왕시 고천동 295-1번지 301호","category":"음료식품 - 농·축·수산품"}]},{"lat":"37.3478631236","long":"126.9729177839","items":[{"name":"(주)피케이패밀리","tel":"031-429-5549","addr":"경기도 의왕시 고천동 439-153번지","category":"음료식품 - 기타음료식품"},{"name":"네오셀(NEOSALE)","tel":"031-459-5549","addr":"경기도 의왕시 고천동 439-153번지","category":"전기제품 - 기타전기제품"}]},{"lat":"37.3518631517","long":"126.9710652008","items":[{"name":"194*F","tel":"031-458-4466","addr":"경기도 의왕시 고천동 317번지","category":"일반휴게음식 - 서양음식"}]},{"lat":"37.3548614142","long":"126.9639757047","items":[{"name":"3총각 아동복","tel":"","addr":"경기도 의왕시 고천동 474번지 1층","category":"의류 - 아동의류"},{"name":"CJ명철유통","tel":"","addr":"경기도 의왕시 고천동 474번지","category":"음료식품 - 기타음료식품"},{"name":"제이비엠(JBM)","tel":"","addr":"경기도 의왕시 고천동 474번지","category":"의류 - 아동의류"}]},{"lat":"37.3471159584","long":"126.9757282530","items":[{"name":"502철판요리","tel":"031-455-7755","addr":"경기도 의왕시 고천동 261-3번지 1층","category":"일반휴게음식 - 일반한식"},{"name":"뮤지컬","tel":"031-451-0479","addr":"경기도 의왕시 고천동 261-3번지","category":"일반휴게음식 - 칵테일바"},{"name":"쉼표","tel":"","addr":"경기도 의왕시 고천동 261-3번지","category":"일반휴게음식 - 일반한식"},{"name":"풍덩순대","tel":"031-459-4459","addr":"경기도 의왕시 고천동 261-3번지","category":"일반휴게음식 - 일반한식"}]},{"lat":"37.3535634873","long":"126.9625880986","items":[{"name":"CAM HOUSE","tel":"031-429-9854","addr":"경기도 의왕시 고천동 397 비동1층","category":"기타 - 기계공구"},{"name":"알룩스포츠(ALROOKSPORTS)","tel":"031-427-4213","addr":"경기도 의왕시 고천동 397번지","category":"레져용품 - 스포츠·레져용품"},{"name":"의왕베이스볼아카데미","tel":"031-000-0000","addr":"경기도 의왕시 고천동 397번지 (주)모든테크 B동 5층","category":"레저업소 - 기타레져업소"}]},{"lat":"37.3497020087","long":"126.9763142048","items":[{"name":"DC천국","tel":"031-453-0343","addr":"경기도 의왕시 고천동 299-23번지","category":"신변잡화 - 기타잡화"},{"name":"EM영수학원","tel":"031-453-2052","addr":"경기도 의왕시 고천동 299-23번지 3층","category":"학원 - 보습학원"}]},{"lat":"37.3480617315","long":"126.9744751693","items":[{"name":"GS25의왕고천점","tel":"","addr":"경기도 의왕시 고천동 280-7번지","category":"유통업 영리 - 편 의 점"}]},{"lat":"37.3490355073","long":"126.9774543378","items":[{"name":"LG공조","tel":"031-451-1140","addr":"경기도 의왕시 고천동 491-10번지 101호","category":"전기제품 - 냉열기기"}]},{"lat":"37.3489180992","long":"126.9762016201","items":[{"name":"PJ상사","tel":"063-466-0020","addr":"경기도 의왕시 고천동 299-35번지 지층 104호","category":"신변잡화 - 기타잡화"}]},{"lat":"37.3527270729","long":"126.9673628078","items":[{"name":"U P Tech","tel":"070-8210-5236","addr":"경기도 의왕시 고천동 332-61번지 경일산업(주) A동 2층","category":"전기제품 - 기타전기제품"}]},{"lat":"37.3471966629","long":"126.9740917766","items":[{"name":"US미군용품","tel":"031-426-7114","addr":"경기도 의왕시 고천동 283-5번지 서상빌딩 104호","category":"신변잡화 - 기념품점"},{"name":"배터리할인마트","tel":"031-477-2390","addr":"경기도 의왕시 고천동 283-5번지 서상빌딩 102호","category":"자동차정비 유지 - 자동차부품"},{"name":"서울스포츠","tel":"031-455-1946","addr":"경기도 의왕시 고천동 283-5번지 서상빌딩 1층 5","category":"레져용품 - 스포츠·레져용품"},{"name":"월드수족관","tel":"031-453-3911","addr":"경기도 의왕시 고천동 283-5번지 서상빌딩 1층 3호","category":"문화.취미 - 수족관"},{"name":"인애가족상담센터","tel":"031-426-7991","addr":"경기도 의왕시 고천동 283-5번지 승은빌딩 401호","category":"보건위생 - 기타대인서비스"}]},{"lat":"37.3491424834","long":"126.9725899774","items":[{"name":"YK테크놀로지","tel":"031-000-0000","addr":"경기도 의왕시 고천동 290-2번지 대영골든벨리 1004호","category":"전기제품 - 기타전기제품"},{"name":"sky 골프","tel":"031-450-6700","addr":"경기도 의왕시 고천동 290-2번지 2층","category":"레저업소 - 스크린골프"},{"name":"김금희원경영","tel":"070-8884-4194","addr":"경기도 의왕시 고천동 290-2번지","category":"서적문구 - 일반서적"},{"name":"대영골든밸리관리단","tel":"","addr":"경기도 의왕시 고천동 290-2번지","category":"자동차정비 유지 - 주차장"},{"name":"대영삼겹살","tel":"031-450-6588","addr":"경기도 의왕시 고천동 290-2번지 대영골든밸리 1층 105호","category":"일반휴게음식 - 일반한식"},{"name":"대진시스템","tel":"031-429-1007","addr":"경기도 의왕시 고천동 290-2번지 대영골든밸리 4층 402호","category":"전기제품 - 기타전기제품"},{"name":"대진시스템/원격지","tel":"031-429-1007","addr":"경기도 의왕시 고천동 290-2번지 대영골든밸리 4층 402호","category":"기타 - 기타 전문점"},{"name":"만나푸드","tel":"031-450-6664","addr":"경기도 의왕시 고천동 290-2번지 B109호","category":"일반휴게음식 - 일반한식"},{"name":"만나해물칼국수","tel":"031-450-6820","addr":"경기도 의왕시 고천동 290-2번지 대영빌딩 126호","category":"일반휴게음식 - 일반한식"},{"name":"만나해물칼국수","tel":"031-450-6820","addr":"경기도 의왕시 고천동 290-2번지 대영골든밸리 126호","category":"일반휴게음식 - 일반한식"},{"name":"메인 체육센타","tel":"031-842-1282","addr":"경기도 의왕시 고천동 290-2번지 대영골든밸리 7층 705호","category":"학원 - 기타 교육기관"},{"name":"밥사모한식부페","tel":"031-450-6664","addr":"경기도 의왕시 고천동 290-2번지 제지 1층 109호 비","category":"일반휴게음식 - 일반한식"},{"name":"블랙골드","tel":"031-450-6555","addr":"경기도 의왕시 고천동 290-2번지 대영골든밸리 1층 114호","category":"일반휴게음식 - 서양음식"},{"name":"비스토리","tel":"031-413-5713","addr":"경기도 의왕시 고천동 290-2번지 대영골든밸리 1층 108호","category":"용역 서비스 - 종합용역"},{"name":"사이언스파크 코리아","tel":"031-604-5630","addr":"경기도 의왕시 고천동 290-2번지 대영골든밸리 1108호","category":"서적문구 - 과학기자재"},{"name":"세븐일레븐의왕고천점","tel":"","addr":"경기도 의왕시 고천동 290-2번지 대영골든밸리 1층 113호","category":"유통업 영리 - 편 의 점"},{"name":"송암교역","tel":"031-450-6681","addr":"경기도 의왕시 고천동 290-2번지 대영골든밸리 1005호","category":"서적문구 - 과학기자재"},{"name":"스카이 노래연습장","tel":"031-450-6696","addr":"경기도 의왕시 고천동 290-2번지 대영골든밸리 101호","category":"레저업소 - 노 래 방"},{"name":"스페이스시스/원격지","tel":"070-4206-6722","addr":"경기도 의왕시 고천동 290-2번지 대영골든밸리 106호","category":"기타 - 기타 전문점"},{"name":"오피스디자인","tel":"031-450-6668","addr":"경기도 의왕시 고천동 290-2번지 대영골든밸리 124호","category":"서적문구 - 출판 및 인쇄물"},{"name":"오피스써플라이 의왕군포점","tel":"031-450-6669","addr":"경기도 의왕시 고천동 290-2번지 대영골든밸리 123호 124호","category":"사무통신 - 기타 사무용품"},{"name":"의왕요리학원","tel":"031-420-6969","addr":"경기도 의왕시 고천동 290-2번지 대영골든밸리 202호","category":"회원제형태 - 학원"},{"name":"장수촌","tel":"031-450-6886","addr":"경기도 의왕시 고천동 290-2.123.124호","category":"일반휴게음식 - 일반한식"},{"name":"주식회사 비전북스","tel":"031-346-7677","addr":"경기도 의왕시 고천동 290-2번지 대영골든밸리 B101호","category":"서적문구 - 일반서적"},{"name":"주식회사 영은산업","tel":"031-450-6745","addr":"경기도 의왕시 고천동 290-2번지 대영골든밸리 11층 1108호","category":"음료식품 - 기타음료식품"},{"name":"주식회사한국창의력교육개발원","tel":"031-477-0161","addr":"경기도 의왕시 고천동 290-2번지 대영골든밸리 104호","category":"서적문구 - 과학기자재"},{"name":"쿠키라인","tel":"031-424-0424","addr":"경기도 의왕시 고천동 290-2번지 대명골든벨리 202호","category":"음료식품 - 제과점"},{"name":"크로스핏 라피드","tel":"031-000-0000","addr":"경기도 의왕시 고천동 290-2번지 지층 B105호","category":"레저업소 - 헬스클럽"},{"name":"프로메이트코리아(Promate Korea)","tel":"031-450-6502","addr":"경기도 의왕시 고천동 290-2번지 대영골든밸리 10층 1008호","category":"보건위생 - 의료용품"},{"name":"한식당수라","tel":"031-450-6614","addr":"경기도 의왕시 고천동 290-2번지 대영골든밸리 119,120호","category":"일반휴게음식 - 일반한식"},{"name":"해마루","tel":"031-450-6979","addr":"경기도 의왕시 고천동 290-2번지 대영골든밸리 1동 213호","category":"일반휴게음식 - 일식·회집"}]},{"lat":"37.3471972437","long":"126.9765859479","items":[{"name":"강남","tel":"031-452-3124","addr":"경기도 의왕시 고천동 266-4번지 1층","category":"일반휴게음식 - 일반한식"}]},{"lat":"37.3486758718","long":"126.9813368657","items":[{"name":"건강누리의왕시립노인요양원","tel":"031-451-2103","addr":"경기도 의왕시 고천동 497-1번지 1층","category":"기타의료기관 - 기타의료기관 및 기타"},{"name":"희망나래장애인복지관","tel":"031-477-8510","addr":"경기도 의왕시 고천동 497-1번지","category":"기타의료기관 - 기타의료기관 및 기타"}]},{"lat":"37.3488100203","long":"126.9763935218","items":[{"name":"건용합기도장","tel":"031-453-2898","addr":"경기도 의왕시 고천동 299-27번지","category":"학원 - 예·체능계학원"},{"name":"성림종합환경","tel":"031-455-6931","addr":"경기도 의왕시 고천동 299-27번지","category":"용역 서비스 - 종합용역"}]},{"lat":"37.3488096425","long":"126.9747570396","items":[{"name":"검은머리(쿠로카미)","tel":"031-427-1018","addr":"경기도 의왕시 고천동 295-51번지 내제1층 116호","category":"보건위생 - 미용원"},{"name":"고천흑염소","tel":"031-58-3941","addr":"경기도 의왕시 고천동 295-51번지","category":"건강식품 - 기타건강식품"},{"name":"그린종합화장품","tel":"031-459-0477","addr":"경기도 의왕시 고천동 295-51번지","category":"보건위생 - 화장품"},{"name":"까치분식","tel":"031-458-2975","addr":"경기도 의왕시 고천동 295-51번지","category":"일반휴게음식 - 스넥"},{"name":"동우분식","tel":"031-53-7857","addr":"경기도 의왕시 고천동 295-51번지","category":"일반휴게음식 - 일반한식"},{"name":"멘토학원","tel":"070-8782-0414","addr":"경기도 의왕시 고천동 295-51번지 202,206호","category":"학원 - 보습학원"},{"name":"삼호건강원","tel":"031-458-3941","addr":"경기도 의왕시 고천동 295-51번지 의왕종합쇼핑센터 117호","category":"건강식품 - 기타건강식품"},{"name":"손숙헤어","tel":"031-388-9853","addr":"경기도 의왕시 고천동 295-51번지 의왕종합쇼핑센터 1층 110호","category":"보건위생 - 미용원"},{"name":"이태리피아노교습소","tel":"031-456-8797","addr":"경기도 의왕시 고천동 295-51번지 의왕종합쇼핑센터 202호","category":"학원 - 예·체능계학원"},{"name":"정읍순대국","tel":"031-427-3065","addr":"경기도 의왕시 고천동 295-51번지 의왕종합쇼핑센터 105호","category":"일반휴게음식 - 일반한식"},{"name":"포도나무카페(청소년카페)","tel":"031-456-3007","addr":"경기도 의왕시 고천동 295-51번지 의왕종합쇼핑센터 2층 201호","category":"일반휴게음식 - 서양음식"}]},{"lat":"37.3487558651","long":"126.9759759560","items":[{"name":"경기냉동공조","tel":"031-458-6660","addr":"경기도 의왕시 고천동 299-32","category":"용역 서비스 - 기타용역서비스"},{"name":"백두냉동전기시스템","tel":"031-424-4021","addr":"경기도 의왕시 고천동 299-32번지 1층","category":"전기제품 - 냉열기기"}]},{"lat":"37.3472552944","long":"126.9595330043","items":[{"name":"경기외국어고등학교","tel":"031-361-0668","addr":"경기도 의왕시 고천동 438-1번지","category":"학원 - 초중고교육기관"},{"name":"케이유통","tel":"031-702-1913","addr":"경기도 의왕시 고천동 438-1번지","category":"음료식품 - 기타음료식품"},{"name":"학교법인 봉암학원","tel":"031-361-0500","addr":"경기도 의왕시 고천동 438-1번지 경기외국어고등학교","category":"학원 - 초중고교육기관"}]},{"lat":"37.3476744020","long":"126.9749267519","items":[{"name":"경임이분식","tel":"031-453-8802","addr":"경기도 의왕시 고천동 275-1번지","category":"일반휴게음식 - 스넥"},{"name":"승호엠앤아이","tel":"031-297-7918","addr":"경기도 의왕시 고천동 275-1번지 에이동상가1층","category":"용역 서비스 - 기타용역서비스"},{"name":"우리사무기","tel":"031-461-1999","addr":"경기도 의왕시 고천동 275-1번지 1층 A호 상가","category":"사무통신 - 컴퓨터"}]},{"lat":"37.3468092395","long":"126.9741483534","items":[{"name":"경진산업","tel":"031-1588-6455","addr":"경기도 의왕시 고천동 258-3번지 영남빌딩 302호","category":"주방용구 - 주방용식기"},{"name":"대산건축사사무소","tel":"031-452-3808","addr":"경기도 의왕시 고천동 258-3번지 영남빌딩 401호","category":"용역 서비스 - 법률회계서비스(개인)"},{"name":"오렌지버그","tel":"031-429-3009","addr":"경기도 의왕시 고천동 258-3번지 영남빌딩 201호","category":"자동차정비 유지 - 카인테리어"}]},{"lat":"37.3485301727","long":"126.9741138394","items":[{"name":"고천24우동 짜장","tel":"","addr":"경기도 의왕시 고천동 294-3번지 보왕빌딩","category":"일반휴게음식 - 스넥"},{"name":"신촌약국","tel":"031-454-8338","addr":"경기도 의왕시 고천동 294-3번지","category":"약국 - 약국"},{"name":"의왕간호학원","tel":"031-347-1555","addr":"경기도 의왕시 고천동 294-3번지 보왕빌딩 3층 2호","category":"학원 - 기능학원"},{"name":"의왕요양보호사교육원","tel":"031-347-1555","addr":"경기도 의왕시 고천동 294-3번지 3층","category":"학원 - 기능학원"},{"name":"천하명당복권방","tel":"031-453-0915","addr":"경기도 의왕시 고천동 294-3.12번지","category":"기타 - 기타 전문점"},{"name":"케이엠(KM)인테리어필름","tel":"031-455-6644","addr":"경기도 의왕시 고천동 294-3번지 1층","category":"건축자재 - 인테리어전문"}]},{"lat":"37.3477286548","long":"126.9757506042","items":[{"name":"고천동주민자치위원회","tel":"031-345-3134","addr":"경기도 의왕시 고천동 272-2번지 1층","category":"문화.취미 - 문화취미기타"}]},{"lat":"37.3482869339","long":"126.9742606503","items":[{"name":"고천약국","tel":"031-452-4005","addr":"경기도 의왕시 고천동 294-5번지","category":"약국 - 약국"},{"name":"마중물유통","tel":"031-429-4808","addr":"경기도 의왕시 고천동 294-5번지","category":"음료식품 - 기타음료식품"},{"name":"아람인쇄","tel":"031-456-9611","addr":"경기도 의왕시 고천동 294-5번지","category":"서적문구 - 출판 및 인쇄물"},{"name":"주식회사푸리(PURIE)","tel":"02-742-0238","addr":"경기도 의왕시 고천동 294-5번지 오봉빌딩 2층","category":"음료식품 - 기타음료식품"},{"name":"태성하우징","tel":"031-452-6667","addr":"경기도 의왕시 고천동 294-5번지 오봉빌딩 201호","category":"용역 서비스 - 기타용역서비스"}]},{"lat":"37.3532231311","long":"126.9690668727","items":[{"name":"고천자원","tel":"031-427-9789","addr":"경기도 의왕시 고천동 354-3","category":"건축자재 - 목재·석재·철물"}]},{"lat":"37.3484763835","long":"126.9752537495","items":[{"name":"고천초등학교","tel":"031-457-1984","addr":"경기도 의왕시 고천동 296-1번지 고천초등학교","category":"학원 - 초중고교육기관"},{"name":"고천초등학교병설유치원[아이행복]","tel":"031-458-6648","addr":"경기도 의왕시 고천동 296-1번지 고천초등학교","category":"학원 - 유치원"}]},{"lat":"37.3494757955","long":"126.9723415474","items":[{"name":"고천카센타","tel":"031-458-0444","addr":"경기도 의왕시 고천동 290-1번지","category":"자동차정비 유지 - 자동차정비"},{"name":"성도자동차유리","tel":"031-452-6615","addr":"경기도 의왕시 고천동 290-1번지 조아빌딩","category":"자동차정비 유지 - 자동차부품"},{"name":"카이즈(car is)","tel":"031-455-0136","addr":"경기도 의왕시 고천동 290-1번지 103호 103호~104호","category":"자동차정비 유지 - 카인테리어"}]},{"lat":"37.3474222258","long":"126.9753895664","items":[{"name":"고천타일","tel":"031-457-0636","addr":"경기도 의왕시 고천동 276-1번지","category":"건축자재 - 건축용 요업제품"},{"name":"별천지주막","tel":"031-349-8086","addr":"경기도 의왕시 고천동 276-1번지 1층","category":"일반휴게음식 - 일반한식"}]},{"lat":"37.3490350844","long":"126.9755582699","items":[{"name":"구영탄푸드","tel":"031-405-4404","addr":"경기도 의왕시 고천동 303-44번지 1층 5호","category":"일반휴게음식 - 일반한식"},{"name":"군포 조립식판넬 총판","tel":"031-457-5200","addr":"경기도 의왕시 고천동 303-44번지","category":"건축자재 - 기타건축자재"}]},{"lat":"37.3496752747","long":"126.9776685601","items":[{"name":"구워묵세","tel":"031-427-8592","addr":"경기도 의왕시 고천동 484-4번지","category":"일반휴게음식 - 일반한식"}]},{"lat":"37.3464218488","long":"126.9743403585","items":[{"name":"굿샷골프","tel":"031-455-5070","addr":"경기도 의왕시 고천동 240-5번지 태보빌딩 2층","category":"레저업소 - 스크린골프"},{"name":"주식회사 메디윙스","tel":"031-344-7366","addr":"경기도 의왕시 고천동 240-5번지 태보빌딩 3층","category":"보건위생 - 의료용품"},{"name":"주식회사 차메디컬","tel":"031-457-3600","addr":"경기도 의왕시 고천동 240-5번지 태보빌딩 4층 1호","category":"보건위생 - 의료용품"}]},{"lat":"37.3477011353","long":"126.9736965767","items":[{"name":"권기운내과의원","tel":"031-456-8885","addr":"경기도 의왕시 고천동 283-4번지 창덕빌딩 2층","category":"의원 - 의원"},{"name":"뉴욕보강치과","tel":"031-459-3994","addr":"경기도 의왕시 고천동 283-4번지","category":"의원 - 치과의원"},{"name":"류이비인후과의원","tel":"031-453-0505","addr":"경기도 의왕시 고천동 283-4창덕빌딩3","category":"의원 - 의원"},{"name":"신우기업","tel":"031-458-2282","addr":"경기도 의왕시 고천동 283-4번지 창덕빌딩 1층 6","category":"건축자재 - 페인트"},{"name":"의왕건강생활","tel":"031-427-3670","addr":"경기도 의왕시 고천동 283-4번지 창덕빌딩 5층","category":"건강식품 - 기타건강식품"},{"name":"의왕문고","tel":"031-427-7724","addr":"경기도 의왕시 고천동 283-4번지 창덕빌딩 지하1층","category":"서적문구 - 일반서적"},{"name":"이너데코","tel":"031-427-8317","addr":"경기도 의왕시 고천동 283-4번지","category":"의류 - 내의판매"},{"name":"효성온누리약국","tel":"031-455-9955","addr":"경기도 의왕시 고천동 283-4번지","category":"약국 - 약국"}]},{"lat":"37.3481163056","long":"126.9766984871","items":[{"name":"글로리헤어","tel":"031-457-5836","addr":"경기도 의왕시 고천동 269-37번지","category":"보건위생 - 미용원"}]},{"lat":"37.3489183679","long":"126.9774205190","items":[{"name":"기픈맛푸드","tel":"031-477-6754","addr":"경기도 의왕시 고천동 491-15번지","category":"음료식품 - 정육점"},{"name":"우리샤시","tel":"031-424-6340","addr":"경기도 의왕시 고천동 491-15번지 1층 1호","category":"용역 서비스 - 기타용역서비스"}]},{"lat":"37.3471429499","long":"126.9755589557","items":[{"name":"꼬꼬리치 옛날통닭","tel":"070-7760-5527","addr":"경기도 의왕시 고천동 260-10번지 102호","category":"일반휴게음식 - 스넥"},{"name":"청솔영양탕","tel":"031-453-4321","addr":"경기도 의왕시 고천동 260-10번지","category":"일반휴게음식 - 일반한식"}]},{"lat":"37.3487555005","long":"126.9744184774","items":[{"name":"내고향건강원","tel":"031-458-8835","addr":"경기도 의왕시 고천동 295-11번지 1층","category":"건강식품 - 기타건강식품"},{"name":"닭 튀기는 공장","tel":"031-429-7049","addr":"경기도 의왕시 고천동 295-11번지 102호","category":"일반휴게음식 - 일반한식"},{"name":"중앙쌀상회","tel":"031-452-4853","addr":"경기도 의왕시 고천동 295-11번지","category":"음료식품 - 미곡상"}]},{"lat":"37.3478907806","long":"126.9755022550","items":[{"name":"다연푸드","tel":"031-300-3958","addr":"경기도 의왕시 고천동 273-2번지 1층 일부","category":"음료식품 - 기타음료식품"}]},{"lat":"37.3509775992","long":"126.9626684858","items":[{"name":"단풍전기조명","tel":"031-452-7544","addr":"경기도 의왕시 고천동 420-5번지","category":"전기제품 - 기타전기제품"},{"name":"본가추어탕","tel":"031-458-1818","addr":"경기도 의왕시 고천동 420-5번지","category":"일반휴게음식 - 일반한식"}]},{"lat":"37.3471698567","long":"126.9750285115","items":[{"name":"대림무역(주)","tel":"031-456-7212","addr":"경기도 의왕시 고천동 276-8번지","category":"회원제형태 - 레져업소"},{"name":"무림당구클럽","tel":"070-4246-2646","addr":"경기도 의왕시 고천동 276-8번지 대림빌딩 201호","category":"레저업소 - 당 구 장"},{"name":"보보헤어앤메이크업","tel":"031-442-1010","addr":"경기도 의왕시 고천동 276-8번지 대림빌딩 102호","category":"보건위생 - 미용원"},{"name":"비.제이","tel":"031-455-7755","addr":"경기도 의왕시 고천동 276-8번지 대림빌딩 302호","category":"레저업소 - 헬스클럽"},{"name":"힐링","tel":"031-451-5510","addr":"경기도 의왕시 고천동 276-8번지 대림빌딩 401호","category":"보건위생 - 기타대인서비스"}]},{"lat":"37.3491427698","long":"126.9737298770","items":[{"name":"대영적재함","tel":"031-451-8200","addr":"경기도 의왕시 고천동 308-1번지","category":"자동차정비 유지 - 자동차부품"}]},{"lat":"37.3457552099","long":"126.9748146072","items":[{"name":"대원카센타 세차장","tel":"070-8264-9491","addr":"경기도 의왕시 고천동 234-7번지","category":"자동차정비 유지 - 자동차정비"}]},{"lat":"37.3490077606","long":"126.9743168072","items":[{"name":"댓잎왕갈비","tel":"031-459-1757","addr":"경기도 의왕시 고천동 295-27번지","category":"일반휴게음식 - 일반한식"},{"name":"제이헤어(J헤어)","tel":"","addr":"경기도 의왕시 고천동 295-27번지 1층","category":"보건위생 - 미용원"},{"name":"훼미리노래연습장","tel":"031-452-4102","addr":"경기도 의왕시 고천동 295-27번지","category":"레저업소 - 노 래 방"}]},{"lat":"37.3513916062","long":"126.9613364613","items":[{"name":"덴트공간","tel":"031-451-7270","addr":"경기도 의왕시 고천동 414번지","category":"자동차정비 유지 - 카인테리어"},{"name":"씨유의왕대로점","tel":"031-425-9040","addr":"경기도 의왕시 고천동 414번지","category":"유통업 영리 - 편 의 점"},{"name":"종가집돼지국밥","tel":"031-464-4606","addr":"경기도 의왕시 고천동 414번지 1층 111~114호","category":"일반휴게음식 - 일반한식"},{"name":"커피여여","tel":"031-429-8113","addr":"경기도 의왕시 고천동 414번지 1층","category":"일반휴게음식 - 서양음식"}]},{"lat":"37.3488906530","long":"126.9744184264","items":[{"name":"동원종합인테리어","tel":"031-452-9916","addr":"경기도 의왕시 고천동 295-24번지","category":"건축자재 - 인테리어전문"},{"name":"백금당","tel":"031-58-3792","addr":"경기도 의왕시 고천동 295-24번지","category":"신변잡화 - 시계"},{"name":"프린스","tel":"031-429-6559","addr":"경기도 의왕시 고천동 295-24번지","category":"의류 - 맞춤복점"}]},{"lat":"37.3472873026","long":"126.9763940569","items":[{"name":"디에스 음향 렌탈","tel":"070-8223-5186","addr":"경기도 의왕시 고천동 266-5번지","category":"전기제품 - 가전제품"}]},{"lat":"37.3413389089","long":"126.9697267310","items":[{"name":"디에스북스","tel":"031-461-6867","addr":"경기도 의왕시 고천동 154-1번지 101호","category":"서적문구 - 일반서적"}]},{"lat":"37.3493416326","long":"126.9764497658","items":[{"name":"띠아모","tel":"031-0000-0000","addr":"경기도 의왕시 고천동 299-6번지","category":"의류 - 정장"}]},{"lat":"37.3540051644","long":"126.9631183451","items":[{"name":"라온디자인","tel":"031-451-0238","addr":"경기도 의왕시 고천동 394-1번지","category":"건축자재 - 인테리어전문"}]},{"lat":"37.3530595933","long":"126.9646199778","items":[{"name":"롯데푸드(주)카페칸타타","tel":"02-3469-3595","addr":"경기도 의왕시 고천동 332-2번지","category":"일반휴게음식 - 서양음식"},{"name":"주식회사 아트로","tel":"031-427-2301","addr":"경기도 의왕시 고천동 332-2번지","category":"기타 - 기타 전문점"}]},{"lat":"37.3478364774","long":"126.9744752542","items":[{"name":"리틀오아시스 심리상담연구소","tel":"031-429-3206","addr":"경기도 의왕시 고천동 279-3번지 한국빌딩 403호","category":"보건위생 - 기타대인서비스"},{"name":"밝은미래소아청소년과의원","tel":"031-453-9027","addr":"경기도 의왕시 고천동 279-3번지 외 5필지 한국빌딩 2층 202호","category":"의원 - 의원"},{"name":"새의왕로타리클럽","tel":"031-429-4861","addr":"경기도 의왕시 고천동 279-3번지 한국빌딩","category":"기타 - 비영리/비대상"},{"name":"샛별사","tel":"031-452-9036","addr":"경기도 의왕시 고천동 279-3번지","category":"신변잡화 - 시계"},{"name":"이레약국","tel":"031-455-7473","addr":"경기도 의왕시 고천동 279-3번지 한국빌딩 2층","category":"약국 - 약국"},{"name":"찬란한 새참","tel":"02-1111-1111","addr":"경기도 의왕시 고천동 279-3번지 1층 102,103호","category":"일반휴게음식 - 일반한식"},{"name":"하메스피아(HAMES PIA)","tel":"02-778-7378","addr":"경기도 의왕시 고천동 279-3번지 한국빌딩 303호","category":"보건위생 - 의료용품"}]},{"lat":"37.3484221054","long":"126.9743396011","items":[{"name":"만물사","tel":"031-453-6196","addr":"경기도 의왕시 고천동 295-7번지","category":"기타 - 기계공구"}]},{"lat":"37.3497019756","long":"126.9761674840","items":[{"name":"만수쌈밥","tel":"031-459-2111","addr":"경기도 의왕시 고천동 299-11번지","category":"일반휴게음식 - 일반한식"},{"name":"청송안마원","tel":"031-421-6346","addr":"경기도 의왕시 고천동 299-11번지 3층","category":"보건위생 - 안마시술소"},{"name":"치킨호프포장마차","tel":"031-427-3565","addr":"경기도 의왕시 고천동 299-11번지","category":"일반휴게음식 - 주점"}]},{"lat":"37.3490352058","long":"126.9760887175","items":[{"name":"맥학습심리상담센터 의왕지점","tel":"031-349-3499","addr":"경기도 의왕시 고천동 299-33번지","category":"학원 - 기타 교육기관"}]},{"lat":"37.3483958316","long":"126.9776689880","items":[{"name":"메타로드(Metalord)","tel":"070-4842-7580","addr":"경기도 의왕시 고천동 503번지 바른보습학원 102호","category":"일반휴게음식 - 서양음식"},{"name":"블링뷰티","tel":"070-4842-7580","addr":"경기도 의왕시 고천동 503번지 바른보습학원 1층 102호","category":"보건위생 - 화장품"},{"name":"블링블링","tel":"070-4842-7580","addr":"경기도 의왕시 고천동 503번지 영광 상가 102호","category":"의류 - 정장"}]},{"lat":"37.3509521731","long":"126.9677022364","items":[{"name":"명가 교동짬뽕 (의왕점)","tel":"031-427-3559","addr":"경기도 의왕시 고천동 328-7번지","category":"일반휴게음식 - 중국식"},{"name":"이조삼계탕","tel":"031-427-8533","addr":"경기도 의왕시 고천동 328-7번지 1층","category":"일반휴게음식 - 일반한식"}]},{"lat":"37.3495581498","long":"126.9777024578","items":[{"name":"명성종합공사","tel":"031-457-0753","addr":"경기도 의왕시 고천동 492번지","category":"용역 서비스 - 기타용역서비스"}]},{"lat":"37.3491699544","long":"126.9743618903","items":[{"name":"명진슈퍼","tel":"031-452-8813","addr":"경기도 의왕시 고천동 295-26번지","category":"유통업 영리 - 슈퍼마켓"},{"name":"블루제이","tel":"031-454-6607","addr":"경기도 의왕시 고천동 295-26번지","category":"일반휴게음식 - 주점"},{"name":"알치기당구장","tel":"031-341-4489","addr":"경기도 의왕시 고천동 295-26번지 지하1층","category":"레저업소 - 당 구 장"}]},{"lat":"37.3521132164","long":"126.9636723855","items":[{"name":"모니트랙","tel":"031-462-2516","addr":"경기도 의왕시 고천동 376-14번지","category":"기타 - 기계공구"}]},{"lat":"37.3485842802","long":"126.9743056816","items":[{"name":"모닝글로리(고천점)","tel":"031-458-2199","addr":"경기도 의왕시 고천동 295-8번지","category":"서적문구 - 문구용품"},{"name":"종합건축사사무소에이원","tel":"031-429-3204","addr":"경기도 의왕시 고천동 295-8번지","category":"용역 서비스 - 사무서비스"},{"name":"주식회사 월드테크","tel":"031-427-7639","addr":"경기도 의왕시 고천동 295-8번지 오성빌딩 2층","category":"건축자재 - 인테리어전문"},{"name":"한국종이문화원","tel":"031-427-4027","addr":"경기도 의왕시 고천동 295-8번지 오성빌딩 1층 2호","category":"문화.취미 - 문화취미기타"},{"name":"호식이두마리치킨","tel":"031-451-9696","addr":"경기도 의왕시 고천동 295-8번지 오성빌딩 101호","category":"일반휴게음식 - 스넥"}]},{"lat":"37.3488639562","long":"126.9758404843","items":[{"name":"미즈테이블(Ms.table)","tel":"070-7807-3454","addr":"경기도 의왕시 고천동 303-10번지 1층","category":"음료식품 - 기타음료식품"}]},{"lat":"37.3496440495","long":"126.9625337626","items":[{"name":"민속두부마을","tel":"031-429-5429","addr":"경기도 의왕시 고천동 424번지","category":"일반휴게음식 - 일반한식"}]},{"lat":"37.3490348831","long":"126.9747005249","items":[{"name":"박영권베이커리","tel":"031-454-4378","addr":"경기도 의왕시 고천동 295-4번지","category":"음료식품 - 제과점"},{"name":"박영권베이커리","tel":"031-454-4378","addr":"경기도 의왕시 고천동 295-4번지","category":"음료식품 - 제과점"},{"name":"외할배보쌈 순대국","tel":"031-429-0088","addr":"경기도 의왕시 고천동 295-4번지 1층 3호","category":"일반휴게음식 - 일반한식"},{"name":"커피콩","tel":"02-1111-1111","addr":"경기도 의왕시 고천동 295-4번지 104호","category":"일반휴게음식 - 서양음식"}]},{"lat":"37.3481698805","long":"126.9745879884","items":[{"name":"박일윤치과의원","tel":"031-456-2875","addr":"경기도 의왕시 고천동 280-2번지 2층","category":"의원 - 치과의원"},{"name":"예린음악학원","tel":"031-453-5225","addr":"경기도 의왕시 고천동 280-2번지","category":"학원 - 예·체능계학원"}]},{"lat":"37.3495312193","long":"126.9781764870","items":[{"name":"밥먹고술먹고","tel":"031-427-9576","addr":"경기도 의왕시 고천동 494번지","category":"일반휴게음식 - 스넥"}]},{"lat":"37.3447265061","long":"126.9689239726","items":[{"name":"백운하늘샘어린이집[아이행복]","tel":"031-426-9575","addr":"경기도 의왕시 고천동 171번지 의왕시청 560 백운지구 B블럭 1층","category":"학원 - 유아원"},{"name":"의왕시 청계종합사회복지관","tel":"031-345-2182","addr":"경기도 의왕시 고천동 171번지 의왕시청","category":"학원 - 기타 교육기관"},{"name":"의왕시인재육성재단/청소년수련관","tel":"031-477-1881","addr":"경기도 의왕시 고천동 171번지 의왕시청 3층","category":"학원 - 기타 교육기관"},{"name":"의왕시인재육성재단/청소년지원센터","tel":"031-458-5037","addr":"경기도 의왕시 고천동 171번지 의왕시청 3층","category":"보건위생 - 기타대인서비스"},{"name":"의왕시청","tel":"031-345-2485","addr":"경기도 의왕시 고천동 171번지 의왕시청","category":"레저업소 - 기타레져업소"},{"name":"의왕시청","tel":"031-345-3842","addr":"경기도 의왕시 고천동 171","category":"문화.취미 - 티켓"},{"name":"의왕시청","tel":"031-345-2291","addr":"경기도 의왕시 고천동 171번지","category":"회원제형태 - 학원"},{"name":"의왕시청/민원지적과","tel":"031-345-2312","addr":"경기도 의왕시 고천동 171번지 민원지적과","category":"용역 서비스 - 사무서비스"},{"name":"의왕시청/의왕조류생태과학관내매점","tel":"031-345-3853","addr":"경기도 의왕시 고천동 171번지","category":"음료식품 - 기타음료식품"},{"name":"하이브","tel":"","addr":"경기도 의왕시 고천동 171번지 의왕시청","category":"일반휴게음식 - 서양음식"}]},{"lat":"37.3518351686","long":"126.9677018242","items":[{"name":"베스트카서비스","tel":"031-477-7762","addr":"경기도 의왕시 고천동 332-25","category":"자동차정비 유지 - 카인테리어"},{"name":"베스트카세차장","tel":"031-427-2352","addr":"경기도 의왕시 고천동 332-25번지","category":"자동차정비 유지 - 세차장"}]},{"lat":"37.3493959065","long":"126.9774203577","items":[{"name":"벼리축산","tel":"031-451-2060","addr":"경기도 의왕시 고천동 491번지","category":"음료식품 - 정육점"}]},{"lat":"37.3495580528","long":"126.9772510100","items":[{"name":"복천지 미용가발 전문점","tel":"031-427-5359","addr":"경기도 의왕시 고천동 487번지","category":"보건위생 - 미용재료"}]},{"lat":"37.3443133403","long":"126.9738107423","items":[{"name":"봉덕칼국수","tel":"031-456-8464","addr":"경기도 의왕시 고천동 84-2번지","category":"일반휴게음식 - 일반한식"},{"name":"주식회사봉덕","tel":"031-456-8464","addr":"경기도 의왕시 고천동 84-2번지","category":"일반휴게음식 - 일반한식"}]},{"lat":"37.3387530672","long":"126.9700099824","items":[{"name":"부연설렁탕","tel":"031-455-8300","addr":"경기도 의왕시 고천동 123번지 , 1,2층","category":"일반휴게음식 - 일반한식"}]},{"lat":"37.3478636341","long":"126.9750056833","items":[{"name":"부전고추떡방앗간","tel":"031-453-4373","addr":"경기도 의왕시 고천동 274-2번지","category":"음료식품 - 제과점"}]},{"lat":"37.3536996669","long":"126.9657257610","items":[{"name":"비에스테크","tel":"070-8726-8114","addr":"경기도 의왕시 고천동 332-34번지 씬시어빌딩 3층 303호","category":"전기제품 - 기타전기제품"},{"name":"정원푸드","tel":"031-427-1418","addr":"경기도 의왕시 고천동 332-34번지 씬시어빌딩 2층","category":"일반휴게음식 - 일반한식"}]},{"lat":"37.3471429055","long":"126.9753670966","items":[{"name":"뼈다귀전문점도마다리","tel":"031-429-3197","addr":"경기도 의왕시 고천동 260-1 276-8","category":"일반휴게음식 - 일반한식"}]},{"lat":"37.3493141116","long":"126.9743392634","items":[{"name":"뽀꼬까꼬미용실","tel":"031-429-8482","addr":"경기도 의왕시 고천동 295-25번지","category":"보건위생 - 미용원"},{"name":"서울떡집","tel":"031-453-5118","addr":"경기도 의왕시 고천동 295-25번지","category":"음료식품 - 제과점"},{"name":"태극힐링의왕점","tel":"031-111-1111","addr":"경기도 의왕시 고천동 295-25번지 201호","category":"전기제품 - 기타전기제품"},{"name":"한아름","tel":"031-454-7443","addr":"경기도 의왕시 고천동 295-25번지","category":"의류 - 내의판매"}]},{"lat":"37.3494223201","long":"126.9747003801","items":[{"name":"사거리곱창","tel":"031-454-3097","addr":"경기도 의왕시 고천동 305-8번지","category":"일반휴게음식 - 일반한식"},{"name":"삼성휴대폰아울렛","tel":"031-429-9012","addr":"경기도 의왕시 고천동 305-8번지 1층","category":"사무통신 - 통신기기"},{"name":"포톤테라피","tel":"031-429-6770","addr":"경기도 의왕시 고천동 305-8번지 2층","category":"보건위생 - 피부미용실"}]},{"lat":"37.3465094809","long":"126.9654810186","items":[{"name":"사단법인 한국불교석예문화원","tel":"031-452-4814","addr":"경기도 의왕시 고천동 191-8번지","category":"용역 서비스 - 가례서비스업"},{"name":"오봉산추모공원","tel":"031-452-4814","addr":"경기도 의왕시 고천동 191-8번지","category":"회원제형태 - 기타4"},{"name":"주식회사 석예원","tel":"031-452-4814","addr":"경기도 의왕시 고천동 191-8번지","category":"회원제형태 - 기타4"}]},{"lat":"37.3397533121","long":"126.9704270814","items":[{"name":"산아래샤브샤브","tel":"031-452-9300","addr":"경기도 의왕시 고천동 125번지","category":"일반휴게음식 - 일반한식"}]},{"lat":"37.3547264608","long":"126.9645852707","items":[{"name":"삼성보링자동차공업사","tel":"031-454-5482","addr":"경기도 의왕시 고천동 470번지","category":"자동차정비 유지 - 자동차정비"}]},{"lat":"37.3497291198","long":"126.9766753544","items":[{"name":"삼일광고기획","tel":"031-427-3131","addr":"경기도 의왕시 고천동 301-15번지","category":"용역 서비스 - 종합용역"}]},{"lat":"37.3508082298","long":"126.9684472049","items":[{"name":"삼호종합건재상사","tel":"031-429-4261","addr":"경기도 의왕시 고천동 330-16번지","category":"건축자재 - 목재·석재·철물"}]},{"lat":"37.3473681280","long":"126.9752315839","items":[{"name":"샘물복지용구","tel":"031-346-2007","addr":"경기도 의왕시 고천동 276-3번지","category":"기타의료기관 - 기타의료기관 및 기타"}]},{"lat":"37.3490579471","long":"126.9612587445","items":[{"name":"서울소년원직원회","tel":"031-450-6138","addr":"경기도 의왕시 고천동 430번지","category":"음료식품 - 기타음료식품"}]},{"lat":"37.3480614888","long":"126.9734820037","items":[{"name":"서원주방","tel":"031-459-4598","addr":"경기도 의왕시 고천동 285-3번지","category":"주방용구 - 주방용구"}]},{"lat":"37.3497291621","long":"126.9768672202","items":[{"name":"세이프존","tel":"070-8749-5851","addr":"경기도 의왕시 고천동 301-1번지","category":"건축자재 - 건축용 요업제품"},{"name":"월드컵노래연습장","tel":"031-454-6864","addr":"경기도 의왕시 고천동 301-1번지","category":"레저업소 - 노 래 방"},{"name":"종점순대국","tel":"031-453-7389","addr":"경기도 의왕시 고천동 301-1번지","category":"일반휴게음식 - 일반한식"}]},{"lat":"37.3472594225","long":"126.9728390229","items":[{"name":"세일식품","tel":"031-456-0866","addr":"경기도 의왕시 고천동 253-25번지","category":"음료식품 - 기타음료식품"}]},{"lat":"37.3536986011","long":"126.9624751582","items":[{"name":"세진공압기계","tel":"031-449-0592","addr":"경기도 의왕시 고천동 395-2번지","category":"기타 - 기계공구"}]},{"lat":"37.3493141982","long":"126.9747004205","items":[{"name":"순천밥상","tel":"031-457-4109","addr":"경기도 의왕시 고천동 305-4번지","category":"일반휴게음식 - 일반한식"},{"name":"슈즈뱅크","tel":"031-454-7443","addr":"경기도 의왕시 고천동 305-4번지","category":"신변잡화 - 신발"},{"name":"아디닥스치킨","tel":"031-454-3378","addr":"경기도 의왕시 고천동 305-4번지 1층","category":"일반휴게음식 - 서양음식"},{"name":"카멜레온","tel":"031-111-1111","addr":"경기도 의왕시 고천동 305-4번지 1층","category":"의류 - 정장"}]},{"lat":"37.3537523383","long":"126.9615383230","items":[{"name":"순천한식뷔페","tel":"031-457-1141","addr":"경기도 의왕시 고천동 396-5번지 대윤빌딩","category":"일반휴게음식 - 일반한식"}]},{"lat":"37.3487290465","long":"126.9769239957","items":[{"name":"스타원바디","tel":"02-334-8620","addr":"경기도 의왕시 고천동 518번지","category":"광학제품 - 사진관"}]},{"lat":"37.3472510406","long":"126.9754234863","items":[{"name":"시골밥상","tel":"031-452-7778","addr":"경기도 의왕시 고천동 276-2번지","category":"일반휴게음식 - 일반한식"}]},{"lat":"37.3471157638","long":"126.9748931015","items":[{"name":"신한세무회계사무소","tel":"031-455-0304","addr":"경기도 의왕시 고천동 259-1번지 태림빌딩 301호","category":"용역 서비스 - 법률회계서비스(개인)"},{"name":"으뜸50안경 의왕점","tel":"031-454-6552","addr":"경기도 의왕시 고천동 259-1번지 태림빌딩 103,104호","category":"보건위생 - 안경"},{"name":"주식회사 인큐브","tel":"031-111-1111","addr":"경기도 의왕시 고천동 259-1번지 태림빌딩 301-2호","category":"가구 - 일반가구"},{"name":"주식회사반디투어","tel":"031-477-7162","addr":"경기도 의왕시 고천동 259-1번지 태림빌딩 2층","category":"여행 - 관광여행"}]},{"lat":"37.3478640708","long":"126.9769242936","items":[{"name":"아이꽃","tel":"070-7561-7358","addr":"경기도 의왕시 고천동 269-40번지 103호","category":"문화.취미 - 화원"}]},{"lat":"37.3495576241","long":"126.9753436428","items":[{"name":"아이스박스 의왕 고천점","tel":"031-345-9191","addr":"경기도 의왕시 고천동 304-4번지 102호","category":"음료식품 - 기타음료식품"},{"name":"열창노래연습장","tel":"031-456-6530","addr":"경기도 의왕시 고천동 304-4번지","category":"레저업소 - 노 래 방"},{"name":"장강","tel":"031-458-3332","addr":"경기도 의왕시 고천동 304-4번지","category":"일반휴게음식 - 중국식"}]},{"lat":"37.3518696814","long":"126.9628937407","items":[{"name":"아이컴/원격지","tel":"","addr":"경기도 의왕시 고천동 407-1","category":"기타 - 기타 전문점"},{"name":"주식회사 한국산업시험기기","tel":"031-360-6875","addr":"경기도 의왕시 고천동 407-1번지 성진아파트형공장 503호","category":"기타 - 기계공구"}]},{"lat":"37.3495040527","long":"126.9775331831","items":[{"name":"아이티 솔루션","tel":"031-455-0214","addr":"경기도 의왕시 고천동 491-2번지","category":"사무통신 - 사무용 OA기기"}]},{"lat":"37.3496117556","long":"126.9756483505","items":[{"name":"안성철물","tel":"031-458-1594","addr":"경기도 의왕시 고천동 303-33번지 백운다세대 상가","category":"기타 - 기타 전문점"}]},{"lat":"37.3495846913","long":"126.9755016397","items":[{"name":"양평해장국","tel":"031-453-4800","addr":"경기도 의왕시 고천동 304-2번지","category":"일반휴게음식 - 일반한식"}]},{"lat":"37.3480347281","long":"126.9745880391","items":[{"name":"에벤에셀숙녀복","tel":"031-0000-0000","addr":"경기도 의왕시 고천동 280-6번지","category":"의류 - 정장"}]},{"lat":"37.3481154082","long":"126.9729176836","items":[{"name":"에스티씨오(STCO)의왕상설점","tel":"031-427-0003","addr":"경기도 의왕시 고천동 287-1번지 ,2,3층","category":"의류 - 스포츠의류"}]},{"lat":"37.3492243316","long":"126.9757049212","items":[{"name":"엔에스파워","tel":"031-452-5520","addr":"경기도 의왕시 고천동 303-41번지","category":"자동차정비 유지 - 자동차부품"}]},{"lat":"37.3451966381","long":"126.9750630972","items":[{"name":"엘티제이","tel":"070-4236-7880","addr":"경기도 의왕시 고천동 234-6번지 B1층 106호","category":"보건위생 - 미용재료"}]},{"lat":"37.3480079075","long":"126.9754796405","items":[{"name":"열쇠은행","tel":"031-451-9070","addr":"경기도 의왕시 고천동 273-1번지 401호","category":"수리서비스 - 기타수리서비스"},{"name":"캐리어에어콘","tel":"070-7655-2615","addr":"경기도 의왕시 고천동 273-1번지","category":"전기제품 - 냉열기기"}]},{"lat":"37.3479177744","long":"126.9753442418","items":[{"name":"영동건강원","tel":"031-459-3069","addr":"경기도 의왕시 고천동 273-8번지","category":"건강식품 - 기타건강식품"},{"name":"현대열쇠","tel":"031-459-1304","addr":"경기도 의왕시 고천동 273-8번지","category":"건축자재 - 목재·석재·철물"}]},{"lat":"37.3468903447","long":"126.9742047515","items":[{"name":"영풍전자안양대리점","tel":"031-458-6464","addr":"경기도 의왕시 고천동 257-2번지 101호","category":"전기제품 - 가전제품"}]},{"lat":"37.3495582072","long":"126.9779733266","items":[{"name":"오!전","tel":"031-457-5215","addr":"경기도 의왕시 고천동 493-1번지 101호","category":"일반휴게음식 - 일반한식"}]},{"lat":"37.3496748837","long":"126.9758966244","items":[{"name":"오꼬삼","tel":"031-427-1999","addr":"경기도 의왕시 고천동 303-1번지 1층 일부","category":"일반휴게음식 - 일반한식"},{"name":"의왕백운부동산중개인사무소","tel":"031-454-7008","addr":"경기도 의왕시 고천동 303-1번지 1층","category":"용역 서비스 - 부동산 중개·임대"},{"name":"제이트윙스(J.Twings)","tel":"031-429-5237","addr":"경기도 의왕시 고천동 303-1번지 1층","category":"일반휴게음식 - 일반한식"}]},{"lat":"37.3521693993","long":"126.9707039007","items":[{"name":"오렌지토탈카클리닝","tel":"031-453-0223","addr":"경기도 의왕시 고천동 349-6번지 1층","category":"자동차정비 유지 - 세차장"}]},{"lat":"37.3492837848","long":"126.9629515432","items":[{"name":"오봉산장","tel":"031-457-5650","addr":"경기도 의왕시 고천동 425-2번지","category":"일반휴게음식 - 일반한식"}]},{"lat":"37.3543655781","long":"126.9631407288","items":[{"name":"오토코리아","tel":"031-457-6363","addr":"경기도 의왕시 고천동 392-11번지","category":"자동차정비 유지 - 자동차정비"}]},{"lat":"37.3474496941","long":"126.9773420139","items":[{"name":"오투수도난방배관클린센터","tel":"","addr":"경기도 의왕시 고천동 506번지 가든빌라 303호","category":"용역 서비스 - 종합용역"}]},{"lat":"37.3476202928","long":"126.9747236256","items":[{"name":"올가skin","tel":"070-7848-9304","addr":"경기도 의왕시 고천동 279-7번지","category":"보건위생 - 화장품"},{"name":"의왕정체원","tel":"031-459-7259","addr":"경기도 의왕시 고천동 279-7번지 1층","category":"보건위생 - 피부미용실"}]},{"lat":"37.3415925163","long":"126.9748387269","items":[{"name":"우보푸드","tel":"070-4282-2467","addr":"경기도 의왕시 고천동 71-1번지","category":"일반휴게음식 - 일반한식"}]},{"lat":"37.3485584035","long":"126.9795649897","items":[{"name":"우성고 매점","tel":"02-1111-1111","addr":"경기도 의왕시 고천동 496번지 우성고등학교","category":"음료식품 - 기타음료식품"},{"name":"우성고등학교","tel":"031-361-9100","addr":"경기도 의왕시 고천동 496번지 우성고등학교","category":"학원 - 초중고교육기관"}]},{"lat":"37.3480347550","long":"126.9747008988","items":[{"name":"우성전자","tel":"031-58-0695","addr":"경기도 의왕시 고천동 280-3번지","category":"기타 - 기타 전문점"},{"name":"율마","tel":"070-7697-7721","addr":"경기도 의왕시 고천동 280-3번지","category":"의류 - 정장"}]},{"lat":"37.3479536957","long":"126.9748363606","items":[{"name":"원칼라현상소","tel":"031-458-9684","addr":"경기도 의왕시 고천동 280-4번지","category":"광학제품 - 사진관"}]},{"lat":"37.3525568053","long":"126.9705908689","items":[{"name":"의왕 현대자동차공업(주)","tel":"031-453-5971","addr":"경기도 의왕시 고천동 349-4번지","category":"자동차정비 유지 - 자동차정비"}]},{"lat":"37.3505919068","long":"126.9681764313","items":[{"name":"의왕경찰서","tel":"031-8086-0225","addr":"경기도 의왕시 고천동 328-10번지","category":"유통업 비영리 - 구내매점(국가기관"}]},{"lat":"37.3422038856","long":"126.9697263506","items":[{"name":"의왕시 중앙도서관","tel":"031-345-3643","addr":"경기도 의왕시 고천동 159번지","category":"일반휴게음식 - 위탁급식업"},{"name":"의왕시 중앙도서관 매점","tel":"031-427-6627","addr":"경기도 의왕시 고천동 159번지 1층","category":"음료식품 - 기타음료식품"}]},{"lat":"37.3427542459","long":"126.9724796923","items":[{"name":"의왕시아름채노인복지회관","tel":"031-427-0853","addr":"경기도 의왕시 고천동 100번지","category":"기타의료기관 - 기타의료기관 및 기타"}]},{"lat":"37.3522585888","long":"126.9675097544","items":[{"name":"인경상사","tel":"031-394-3265","addr":"경기도 의왕시 고천동 332-57번지","category":"자동차정비 유지 - 자동차부품"}]},{"lat":"37.3474218702","long":"126.9738998306","items":[{"name":"인디안의왕점","tel":"031-456-8006","addr":"경기도 의왕시 고천동 283-7번지 태영빌딩 2층","category":"의류 - 스포츠의류"},{"name":"초심독서실","tel":"031-342-1137","addr":"경기도 의왕시 고천동 283-7번지 태영빌딩 6층","category":"학원 - 독서실"}]},{"lat":"37.3522584972","long":"126.9672050162","items":[{"name":"인스엘이디 주식회사","tel":"031-689-4482","addr":"경기도 의왕시 고천동 332-55번지 3층","category":"건축자재 - 조명기구"},{"name":"해피론홈패션(주)","tel":"031-452-4480","addr":"경기도 의왕시 고천동 332-55번지 (주)동영기전","category":"직물 - 침구·수예점"},{"name":"해피론홈패션(주)","tel":"031-452-4480","addr":"경기도 의왕시 고천동 332-55번지","category":"직물 - 침구·수예점"}]},{"lat":"37.3418974155","long":"126.9692863684","items":[{"name":"일품향가든","tel":"031-458-5666","addr":"경기도 의왕시 고천동 160번지","category":"일반휴게음식 - 일반한식"}]},{"lat":"37.3490083789","long":"126.9770029023","items":[{"name":"장성종합보수","tel":"031-429-4385","addr":"경기도 의왕시 고천동 521번지","category":"용역 서비스 - 기타용역서비스"},{"name":"정현이네분식","tel":"031-427-9544","addr":"경기도 의왕시 고천동 521번지","category":"일반휴게음식 - 스넥"}]},{"lat":"37.3538336295","long":"126.9621139071","items":[{"name":"정다운식당","tel":"031-429-0712","addr":"경기도 의왕시 고천동 395번지","category":"일반휴게음식 - 일반한식"}]},{"lat":"37.3483415171","long":"126.9765065466","items":[{"name":"정미용","tel":"031-452-4645","addr":"경기도 의왕시 고천동 269-34번지","category":"보건위생 - 미용원"}]},{"lat":"37.3484766392","long":"126.9763710669","items":[{"name":"제일정화합자회사","tel":"031-459-9988","addr":"경기도 의왕시 고천동 269-21번지 103호","category":"용역 서비스 - 종합용역"}]},{"lat":"37.3473680216","long":"126.9747801492","items":[{"name":"종로에스디","tel":"031-454-4171","addr":"경기도 의왕시 고천동 275-5번지","category":"용역 서비스 - 종합용역"}]},{"lat":"37.3511126978","long":"126.9625104037","items":[{"name":"주식회사 대영어패럴","tel":"031-427-8171","addr":"경기도 의왕시 고천동 411-6번지 1층","category":"의류 - 스포츠의류"}]},{"lat":"37.3501695925","long":"126.9723976977","items":[{"name":"주식회사 타이어나라 안양의왕지점","tel":"031-462-3605","addr":"경기도 의왕시 고천동 310-2번지","category":"자동차정비 유지 - 자동차시트·타이어"}]},{"lat":"37.3525026825","long":"126.9703651593","items":[{"name":"주식회사쁘레꼬숑","tel":"031-458-3009","addr":"경기도 의왕시 고천동 348-7번지 (주)지비오 401호","category":"음료식품 - 농·축·수산품"}]},{"lat":"37.3520599490","long":"126.9661441724","items":[{"name":"주식회사씨엘","tel":"031-458-0576","addr":"경기도 의왕시 고천동 332-44번지","category":"전기제품 - 기타전기제품"}]},{"lat":"37.3493140045","long":"126.9738991032","items":[{"name":"중고타이어","tel":"031-452-4319","addr":"경기도 의왕시 고천동 295-39번지","category":"자동차정비 유지 - 자동차시트·타이어"}]},{"lat":"37.3497561176","long":"126.9765286241","items":[{"name":"진진카프라자","tel":"031-454-5993","addr":"경기도 의왕시 고천동 302-3번지","category":"자동차정비 유지 - 자동차정비"}]},{"lat":"37.3493953937","long":"126.9751405509","items":[{"name":"청기와집뼈감자탕","tel":"031-451-8111","addr":"경기도 의왕시 고천동 305-1번지 덕은빌딩 1층","category":"일반휴게음식 - 일반한식"}]},{"lat":"37.3492516902","long":"126.9771721111","items":[{"name":"칠갑산국수","tel":"031-452-4414","addr":"경기도 의왕시 고천동 490번지 의왕종합상가 A-102호","category":"음료식품 - 기타음료식품"},{"name":"한미정육식당","tel":"031-451-9293","addr":"경기도 의왕시 고천동 490번지","category":"일반휴게음식 - 일반한식"},{"name":"한미축산도매센터","tel":"031-451-9293","addr":"경기도 의왕시 고천동 490번지","category":"음료식품 - 정육점"},{"name":"후루룩국수","tel":"031-341-5048","addr":"경기도 의왕시 고천동 490번지","category":"일반휴게음식 - 스넥"}]},{"lat":"37.3496752215","long":"126.9774202634","items":[{"name":"카와커피","tel":"031-427-2688","addr":"경기도 의왕시 고천동 484-2번지 1층","category":"일반휴게음식 - 서양음식"},{"name":"팬더","tel":"031-427-2557","addr":"경기도 의왕시 고천동 484-2번지 주화상가 102호","category":"일반휴게음식 - 중국식"}]},{"lat":"37.3474223222","long":"126.9758071438","items":[{"name":"커피로드","tel":"031-293-2742","addr":"경기도 의왕시 고천동 264번지 1층","category":"일반휴게음식 - 서양음식"}]},{"lat":"37.3538065132","long":"126.9618656114","items":[{"name":"케이텍(K-tech)","tel":"031-429-5354","addr":"경기도 의왕시 고천동 396-4번지 A동 1층","category":"기타 - 기계공구"}]},{"lat":"37.3395100590","long":"126.9705061789","items":[{"name":"코나헤이븐 고천점","tel":"031-424-3356","addr":"경기도 의왕시 고천동 124번지","category":"일반휴게음식 - 서양음식"}]},{"lat":"37.3498899480","long":"126.9711450374","items":[{"name":"코리아열처리","tel":"031-455-1072","addr":"경기도 의왕시 고천동 320-2 321-1","category":"건축자재 - 기타건축자재"}]},{"lat":"37.3496737945","long":"126.9714837149","items":[{"name":"코리아열처리","tel":"031-455-1072","addr":"경기도 의왕시 고천동 321-1번지","category":"기타 - 기계공구"}]},{"lat":"37.3530060749","long":"126.9663355854","items":[{"name":"코튼 투 키즈","tel":"031-455-6215","addr":"경기도 의왕시 고천동 332-41번지","category":"회원제형태 - 기타4"}]},{"lat":"37.3519510597","long":"126.9637514758","items":[{"name":"태산현대자동차정비","tel":"031-455-1306","addr":"경기도 의왕시 고천동 376-5번지","category":"자동차정비 유지 - 자동차정비"}]},{"lat":"37.3438622495","long":"126.9715312766","items":[{"name":"태성유통","tel":"031-453-1209","addr":"경기도 의왕시 고천동 164-1번지 226-2,227-3","category":"음료식품 - 기타음료식품"}]},{"lat":"37.3495038281","long":"126.9765061399","items":[{"name":"포겟미낫(Forget Me Not)","tel":"02-563-0720","addr":"경기도 의왕시 고천동 299-4번지 101호","category":"문화.취미 - 화원"}]},{"lat":"37.3405096315","long":"126.9685309022","items":[{"name":"푸른광고기획","tel":"02-541-6667","addr":"경기도 의왕시 고천동 144-1번지","category":"용역 서비스 - 종합용역"}]},{"lat":"37.3506191047","long":"126.9687520229","items":[{"name":"푸지트 Peugitt","tel":"070-4232-2008","addr":"경기도 의왕시 고천동 330-1번지","category":"자동차정비 유지 - 자동차정비"},{"name":"한진사","tel":"031-453-0053","addr":"경기도 의왕시 고천동 330-1번지","category":"자동차정비 유지 - 자동차정비"},{"name":"형제카공업사","tel":"031-452-9268","addr":"경기도 의왕시 고천동 330-1","category":"자동차정비 유지 - 자동차정비"}]},{"lat":"37.3484482246","long":"126.9707844914","items":[{"name":"플러스-업","tel":"031-459-8123","addr":"경기도 의왕시 고천동 324-6,월드비젼9층","category":"전기제품 - 기타전기제품"}]},{"lat":"37.3471425606","long":"126.9739225097","items":[{"name":"한국프라자공업사","tel":"031-457-2772","addr":"경기도 의왕시 고천동 283-2번지","category":"자동차정비 유지 - 자동차정비"}]},{"lat":"37.3541671599","long":"126.9625652021","items":[{"name":"한길모터스","tel":"031-451-3114","addr":"경기도 의왕시 고천동 394-3번지","category":"자동차정비 유지 - 자동차정비"}]},{"lat":"37.3517813760","long":"126.9686160583","items":[{"name":"한양애드컴","tel":"031-455-3551","addr":"경기도 의왕시 고천동 439-212번지 1층 일부","category":"용역 서비스 - 종합용역"}]},{"lat":"37.3523127972","long":"126.9680063398","items":[{"name":"한진부란자","tel":"031-455-0212","addr":"경기도 의왕시 고천동 364-1번지 한진화학(주) A동","category":"자동차정비 유지 - 자동차정비"},{"name":"한진자동차정비","tel":"031-459-7200","addr":"경기도 의왕시 고천동 364-1번지","category":"자동차정비 유지 - 자동차정비"}]},{"lat":"37.3485900214","long":"126.9630083410","items":[{"name":"해담쭈꾸미","tel":"031-477-2323","addr":"경기도 의왕시 고천동 426-1번지","category":"일반휴게음식 - 일반한식"}]},{"lat":"37.3475032408","long":"126.9750622460","items":[{"name":"행복지압안마원","tel":"031-455-4795","addr":"경기도 의왕시 고천동 275-6번지","category":"보건위생 - 안마시술소"}]}]