[{"lat":"37.68365798","long":"126.70090865","imageIndex":0,"items":[{"name":"구산자동차공업사","tel":"031-975-3154","addr":"경기도 고양시 일산서구 구산동 582-6번지","indutype":"자동차정비 유지 - 자동차정비","category":"car"}]},{"lat":"37.682517245","long":"126.70227365","imageIndex":0,"items":[{"name":"구산점현대자동차","tel":"031-923-9669","addr":"경기도 고양시 일산서구 구산동","indutype":"자동차정비 유지 - 자동차정비","category":"car"},{"name":"코크핏(COCKPIT)","tel":"070-7757-1001","addr":"경기도 고양시 일산서구 구산동 602-5번지","indutype":"자동차정비 유지 - 자동차부품","category":"car"}]},{"lat":"37.682795493","long":"126.70541272","imageIndex":0,"items":[{"name":"다다모터스","tel":"031-905-0851","addr":"경기도 고양시 일산서구 구산동 1139-3번지","indutype":"자동차정비 유지 - 자동차부품","category":"car"}]},{"lat":"37.695682113","long":"126.70299152","imageIndex":0,"items":[{"name":"대종테크","tel":"031-922-0671","addr":"경기도 고양시 일산서구 구산동 336번지","indutype":"자동차정비 유지 - 자동차부품","category":"car"}]},{"lat":"37.694486668","long":"126.70410748","imageIndex":0,"items":[{"name":"더트리톤(THE TRITON)","tel":"070-7743-7272","addr":"경기도 고양시 일산서구 구산동 366-5번지","indutype":"자동차정비 유지 - 세차장","category":"car"}]},{"lat":"37.682849759","long":"126.70194355","imageIndex":0,"items":[{"name":"디자인카","tel":"031-1599-0791","addr":"경기도 고양시 일산서구 구산동 574-1번지","indutype":"자동차정비 유지 - 자동차부품","category":"car"},{"name":"한솔카크리닉","tel":"031-923-9880","addr":"경기도 고양시 일산서구 구산동 574-1번지","indutype":"자동차정비 유지 - 자동차정비","category":"car"}]},{"lat":"37.682096686","long":"126.69988338","imageIndex":0,"items":[{"name":"서울진공","tel":"031-946-1120","addr":"경기도 고양시 일산서구 구산동 627-25번지","indutype":"자동차정비 유지 - 자동차부품","category":"car"}]},{"lat":"37.690460732","long":"126.71185589","imageIndex":0,"items":[{"name":"세기델코","tel":"031-918-6070","addr":"경기도 고양시 일산서구 구산동","indutype":"자동차정비 유지 - 자동차부품","category":"car"}]},{"lat":"37.695318333","long":"126.70879822","imageIndex":0,"items":[{"name":"아마테라스코리아","tel":"031-922-2258","addr":"경기도 고양시 일산서구 구산동 204-13번지","indutype":"자동차정비 유지 - 카인테리어","category":"car"}]},{"lat":"37.683237794","long":"126.68168363","imageIndex":0,"items":[{"name":"에반스레이싱","tel":"070-8808-2018","addr":"경기도 고양시 일산서구 구산동 1526번지","indutype":"자동차정비 유지 - 자동차부품","category":"car"}]},{"lat":"37.694458001","long":"126.70346132","imageIndex":0,"items":[{"name":"엠제트 퍼포먼스","tel":"02-6217-2000","addr":"경기도 고양시 일산서구 구산동 409-1번지","indutype":"자동차정비 유지 - 자동차정비","category":"car"}]},{"lat":"37.694958773","long":"126.71276805","imageIndex":0,"items":[{"name":"우주이앤씨","tel":"031-919-1351","addr":"경기도 고양시 일산서구 구산동 6-7번지","indutype":"자동차정비 유지 - 자동차부품","category":"car"}]},{"lat":"37.682933383","long":"126.6823878","imageIndex":0,"items":[{"name":"원무역","tel":"031-922-1008","addr":"경기도 고양시 일산서구 구산동 1525-7번지","indutype":"자동차정비 유지 - 자동차시트·타이어","category":"car"}]},{"lat":"37.692899988","long":"126.70371702","imageIndex":0,"items":[{"name":"원진운송","tel":"031-898-7171","addr":"경기도 고양시 일산서구 구산동 380-1번지","indutype":"자동차정비 유지 - 견인서비스","category":"car"},{"name":"타이어명가","tel":"031-921-2238","addr":"경기도 고양시 일산서구 구산동 380-1번지","indutype":"자동차정비 유지 - 자동차시트·타이어","category":"car"}]},{"lat":"37.682400179","long":"126.70229679","imageIndex":0,"items":[{"name":"일산아지트 (AZIT)","tel":"070-5099-5097","addr":"경기도 고양시 일산서구 구산동 1163-1번지","indutype":"자동차정비 유지 - 자동차부품","category":"car"}]},{"lat":"37.683374387","long":"126.68221585","imageIndex":0,"items":[{"name":"자유로오토월드","tel":"032-925-1266","addr":"경기도 고양시 일산서구 구산동 1525번지","indutype":"자동차정비 유지 - 자동차정비","category":"car"}]},{"lat":"37.683205638","long":"126.68311217","imageIndex":0,"items":[{"name":"정수상사","tel":"031-922-7720","addr":"경기도 고양시 일산서구 구산동 1522-3번지","indutype":"자동차정비 유지 - 자동차부품","category":"car"}]},{"lat":"37.680157423","long":"126.68871392","imageIndex":0,"items":[{"name":"천하상사","tel":"032-227-5001","addr":"경기도 고양시 일산서구 구산동 1689-1번지","indutype":"자동차정비 유지 - 자동차부품","category":"car"}]},{"lat":"37.694984085","long":"126.70485381","imageIndex":0,"items":[{"name":"카티에스(Car TS)","tel":"031-925-5382","addr":"경기도 고양시 일산서구 구산동 364-4번지","indutype":"자동차정비 유지 - 카인테리어","category":"car"}]},{"lat":"37.692320844","long":"126.70272161","imageIndex":0,"items":[{"name":"타이어뱅크21","tel":"031-924-2964","addr":"경기도 고양시 일산서구 구산동 917번지","indutype":"자동차정비 유지 - 자동차시트·타이어","category":"car"}]},{"lat":"37.696762564","long":"126.70988102","imageIndex":0,"items":[{"name":"티엠산업주식회사","tel":"031-925-1861","addr":"경기도 고양시 일산서구 구산동 274-1번지","indutype":"자동차정비 유지 - 자동차부품","category":"car"}]},{"lat":"37.69709315","long":"126.70876854","imageIndex":0,"items":[{"name":"한국상사","tel":"02-322-9573","addr":"경기도 고양시 일산서구 구산동","indutype":"자동차정비 유지 - 자동차부품","category":"car"}]},{"lat":"37.682906012","long":"126.70280489","imageIndex":0,"items":[{"name":"한양카센타","tel":"031-923-6133","addr":"경기도 고양시 일산서구 구산동 1133-10번지","indutype":"자동차정비 유지 - 자동차정비","category":"car"}]},{"lat":"37.694129088","long":"126.71244248","imageIndex":0,"items":[{"name":"현대카모터스","tel":"031-923-5757","addr":"경기도 고양시 일산서구 구산동 10-8번지","indutype":"자동차정비 유지 - 자동차정비","category":"car"}]}]