[{"lat":"37.958571088","long":"126.92304862","imageIndex":0,"items":[{"name":"남경자동차정비(적성점)","tel":"031-958-8600","addr":"경기도 파주시 적성면 구읍리 578-4번지","indutype":"자동차정비 유지 - 자동차정비","category":"car"}]},{"lat":"37.958427294","long":"126.92357219","imageIndex":0,"items":[{"name":"대원공업사","tel":"031-959-4589","addr":"경기도 파주시 적성면 구읍리 577-4","indutype":"자동차정비 유지 - 자동차정비","category":"car"}]},{"lat":"37.955984358","long":"126.92146983","imageIndex":0,"items":[{"name":"만물카프라자","tel":"031-959-4706","addr":"경기도 파주시 적성면 구읍리 588-7번지","indutype":"자동차정비 유지 - 자동차정비","category":"car"}]},{"lat":"37.95629342","long":"126.92554295","imageIndex":0,"items":[{"name":"서울카센타","tel":"031-958-7850","addr":"경기도 파주시 적성면 구읍리 604-13번지","indutype":"자동차정비 유지 - 자동차시트·타이어","category":"car"}]},{"lat":"37.965067838","long":"126.92469164","imageIndex":0,"items":[{"name":"우민카센타","tel":"031-953-6218","addr":"경기도 파주시 적성면 구읍리 413번지","indutype":"자동차정비 유지 - 자동차정비","category":"car"}]},{"lat":"37.955150817","long":"126.92796771","imageIndex":0,"items":[{"name":"현대자동차공업사","tel":"031-959-1577","addr":"경기도 파주시 적성면 구읍리 157-1번지","indutype":"자동차정비 유지 - 자동차정비","category":"car"}]}]