[{"lat":"37.3739244","long":"127.2382299","imageIndex":17,"items":[{"name":"(주)씨앤와이","tel":"031-4814-3265","addr":"경기도 광주시 오포읍 고산리 144-13번지","indutype":"직물 - 침구·수예점","category":"other"}]},{"lat":"37.37231047","long":"127.2387894","imageIndex":17,"items":[{"name":"(주)위드엠","tel":"031-768-0145","addr":"경기도 광주시 오포읍 고산리 136-4번지","indutype":"전기제품 - 냉열기기","category":"other"}]},{"lat":"37.37478837","long":"127.2387294","imageIndex":17,"items":[{"name":"(주)하이베스","tel":"031-768-3571","addr":"경기도 광주시 오포읍 고산리 146-3번지","indutype":"건축자재 - 건축용 요업제품","category":"other"}]},{"lat":"37.36903603","long":"127.2315315","imageIndex":17,"items":[{"name":"(합)진건축사사무소","tel":"031-768-2980","addr":"경기도 광주시 오포읍 고산리 254-6","indutype":"용역 서비스 - 법률회계서비스(법인)","category":"other"},{"name":"버스텍주식회사","tel":"031-798-6988","addr":"경기도 광주시 오포읍 고산리 254-6번지 3층","indutype":"건축자재 - 조명기구","category":"other"}]},{"lat":"37.37794985","long":"127.2437297","imageIndex":17,"items":[{"name":"D.M창호산업","tel":"031-765-9722","addr":"경기도 광주시 오포읍 고산리 7-1번지 1층","indutype":"건축자재 - 기타건축자재","category":"other"}]},{"lat":"37.37411403","long":"127.2425094","imageIndex":17,"items":[{"name":"I.N.I.테크","tel":"031-763-3837","addr":"경기도 광주시 오포읍 고산리 108-1번지 외1필지","indutype":"전기제품 - 기타전기제품","category":"other"}]},{"lat":"37.37861643","long":"127.2438108","imageIndex":17,"items":[{"name":"JB인터내셔널","tel":"031-765-4573","addr":"경기도 광주시 오포읍 고산리 5-54번지","indutype":"주방용구 - 주방용구","category":"other"}]},{"lat":"37.36926159","long":"127.2313742","imageIndex":17,"items":[{"name":"광주시노인복지관(흙토람 광주도예공방)","tel":"031-766-4127","addr":"경기도 광주시 오포읍 고산리 253-3번지","indutype":"문화.취미 - 문화취미기타","category":"other"}]},{"lat":"37.37442288","long":"127.2367525","imageIndex":17,"items":[{"name":"근풍종합공구","tel":"031-768-8080","addr":"경기도 광주시 오포읍 고산리 152-26번지","indutype":"건축자재 - 목재·석재·철물","category":"other"}]},{"lat":"37.37303724","long":"127.2403158","imageIndex":17,"items":[{"name":"글라스헛","tel":"031-765-7433","addr":"경기도 광주시 오포읍 고산리 128-2","indutype":"주방용구 - 주방용구","category":"other"}]},{"lat":"37.3788954","long":"127.2439811","imageIndex":17,"items":[{"name":"금호산업","tel":"031-769-6275","addr":"경기도 광주시 오포읍 고산리 5-11번지","indutype":"건축자재 - 유리","category":"other"}]},{"lat":"37.37033813","long":"127.2291196","imageIndex":17,"items":[{"name":"낙생산업","tel":"031-765-8290","addr":"경기도 광주시 오포읍 고산리 318-3번지","indutype":"기타 - 기계공구","category":"other"}]},{"lat":"37.36906132","long":"127.2229519","imageIndex":17,"items":[{"name":"넥스빌","tel":"031-767-0361","addr":"경기도 광주시 오포읍 고산리 278번지","indutype":"가구 - 일반가구","category":"other"}]},{"lat":"37.3707287","long":"127.2321689","imageIndex":17,"items":[{"name":"다모아","tel":"","addr":"경기도 광주시 오포읍 고산리 182-4번지 우림아파트","indutype":"의류 - 정장","category":"other"}]},{"lat":"37.37108698","long":"127.2238158","imageIndex":17,"items":[{"name":"다산종합공사","tel":"031-702-5979","addr":"경기도 광주시 오포읍 고산리 289번지","indutype":"건축자재 - 기타건축자재","category":"other"}]},{"lat":"37.36872586","long":"127.2335062","imageIndex":17,"items":[{"name":"대명조명","tel":"031-765-4496","addr":"경기도 광주시 오포읍 고산리 230-3번지","indutype":"건축자재 - 조명기구","category":"other"}]},{"lat":"37.37120082","long":"127.2349475","imageIndex":17,"items":[{"name":"대성정밀","tel":"031-766-3879","addr":"경기도 광주시 오포읍 고산리 190번지","indutype":"기타 - 기계공구","category":"other"}]},{"lat":"37.37592314","long":"127.2434522","imageIndex":17,"items":[{"name":"더지디자인 경기광주점","tel":"031-763-7901","addr":"경기도 광주시 오포읍 고산리 99번지 2층(100-3)","indutype":"가구 - 일반가구","category":"other"}]},{"lat":"37.37181573","long":"127.2338092","imageIndex":17,"items":[{"name":"디자인가구 라움","tel":"031-8027-6668","addr":"경기도 광주시 오포읍 고산리 174-3번지","indutype":"가구 - 일반가구","category":"other"}]},{"lat":"37.36872899","long":"127.2318918","imageIndex":17,"items":[{"name":"롯데엔지니어링","tel":"031-767-8277","addr":"경기도 광주시 오포읍 고산리 234-11","indutype":"건축자재 - 보일러·펌프·샷시","category":"other"}]},{"lat":"37.3797317","long":"127.2447854","imageIndex":17,"items":[{"name":"리버휠스크린골프","tel":"031-767-6267","addr":"경기도 광주시 오포읍 고산리 4-1번지","indutype":"회원제형태 - 레져업소","category":"other"}]},{"lat":"37.37408547","long":"127.2248181","imageIndex":17,"items":[{"name":"리틀스타팩토리","tel":"","addr":"경기도 광주시 오포읍 고산리 427번지","indutype":"수리서비스 - 세탁소","category":"other"}]},{"lat":"37.37123146","long":"127.2236469","imageIndex":17,"items":[{"name":"명진기획","tel":"031-767-3613","addr":"경기도 광주시 오포읍 고산리 289-1","indutype":"용역 서비스 - 종합용역","category":"other"}]},{"lat":"37.37450357","long":"127.236956","imageIndex":17,"items":[{"name":"미래ENG","tel":"031-765-4121","addr":"경기도 광주시 오포읍 고산리 152-25번지","indutype":"기타 - 기계공구","category":"other"},{"name":"미래산업","tel":"031-765-4121","addr":"경기도 광주시 오포읍 고산리 152-25번지","indutype":"기타 - 기계공구","category":"other"}]},{"lat":"37.38072531","long":"127.2435579","imageIndex":17,"items":[{"name":"미림아트","tel":"031-768-2589","addr":"경기도 광주시 오포읍 고산리 1-1번지 A","indutype":"건축자재 - 인테리어전문","category":"other"}]},{"lat":"37.37344704","long":"127.2192617","imageIndex":17,"items":[{"name":"미송","tel":"","addr":"경기도 광주시 오포읍 고산리 449번지","indutype":"용역 서비스 - 기타용역서비스","category":"other"}]},{"lat":"37.37458862","long":"127.2349466","imageIndex":17,"items":[{"name":"베닉스","tel":"031-762-0793","addr":"경기도 광주시 오포읍 고산리 155-1번지","indutype":"가구 - 일반가구","category":"other"},{"name":"에이치알엔진주식회사","tel":"031-763-3241","addr":"경기도 광주시 오포읍 고산리 155-1번지 204호","indutype":"회원제형태 - 기타4","category":"other"}]},{"lat":"37.37594869","long":"127.2160399","imageIndex":17,"items":[{"name":"상일석재","tel":"031-768-9121","addr":"경기도 광주시 오포읍 고산리 523번지","indutype":"건축자재 - 기타건축자재","category":"other"}]},{"lat":"37.36917001","long":"127.2226474","imageIndex":17,"items":[{"name":"성산코딘(주)","tel":"031-767-0705","addr":"경기도 광주시 오포읍 고산리 279","indutype":"건축자재 - 건축용 요업제품","category":"other"}]},{"lat":"37.38080827","long":"127.2381498","imageIndex":17,"items":[{"name":"수호엔지니어링","tel":"031-798-2308","addr":"경기도 광주시 오포읍 고산리 32-3번지","indutype":"전기제품 - 냉열기기","category":"other"}]},{"lat":"37.3691702","long":"127.2320399","imageIndex":17,"items":[{"name":"신생부동산,오포연탄","tel":"031-766-4005","addr":"경기도 광주시 오포읍 고산리 234-1","indutype":"용역 서비스 - 부동산 중개·임대","category":"other"},{"name":"오포세탁소","tel":"031-766-3168","addr":"경기도 광주시 오포읍 고산리 234-1번지","indutype":"수리서비스 - 세탁소","category":"other"}]},{"lat":"37.36956276","long":"127.2340393","imageIndex":17,"items":[{"name":"아이비제이","tel":"070-7771-3200","addr":"경기도 광주시 오포읍 고산리 229-2번지","indutype":"신변잡화 - 기타잡화","category":"other"}]},{"lat":"37.37119921","long":"127.226424","imageIndex":17,"items":[{"name":"에이치(H)스포츠","tel":"031-767-1872","addr":"경기도 광주시 오포읍 고산리 303-4번지","indutype":"레져용품 - 스포츠·레져용품","category":"other"}]},{"lat":"37.37056247","long":"127.2295944","imageIndex":17,"items":[{"name":"엘사랑인테리어","tel":"","addr":"경기도 광주시 오포읍 고산리 319-5번지 1층 103호","indutype":"직물 - 카페트,커튼,천막,지물","category":"other"}]},{"lat":"37.3695584","long":"127.231646","imageIndex":17,"items":[{"name":"오포농업협동조합","tel":"031-766-4008","addr":"경기도 광주시 오포읍 고산리 235-7번지 오포농업협동조합","indutype":"유통업 비영리 - 농,축협 직영매장","category":"other"},{"name":"오포농업협동조합","tel":"031-766-4008","addr":"경기도 광주시 오포읍 고산리 235-7번지 오포농업협동조합","indutype":"유통업 비영리 - 농,축협 직영매장","category":"other"},{"name":"오포농업협동조합","tel":"031-766-4008","addr":"경기도 광주시 오포읍 고산리 235-7번지","indutype":"유통업 비영리 - 농,축협 직영매장","category":"other"}]},{"lat":"37.37970069","long":"127.2423126","imageIndex":17,"items":[{"name":"우리꽃화훼","tel":"02-929-2238","addr":"경기도 광주시 오포읍 고산리 13-2번지 101호","indutype":"문화.취미 - 화원","category":"other"}]},{"lat":"37.37233971","long":"127.2187617","imageIndex":17,"items":[{"name":"우성흙침대","tel":"031-765-6004","addr":"경기도 광주시 오포읍 고산리 468번지","indutype":"가구 - 일반가구","category":"other"}]},{"lat":"37.38086462","long":"127.2415034","imageIndex":17,"items":[{"name":"유진콘베아","tel":"031-768-1697","addr":"경기도 광주시 오포읍 고산리 20-3번지","indutype":"신변잡화 - 기타잡화","category":"other"},{"name":"진스크린골프","tel":"031-766-4207","addr":"경기도 광주시 오포읍 고산리 20-3번지","indutype":"회원제형태 - 레져업소","category":"other"}]},{"lat":"37.37089839","long":"127.2282633","imageIndex":17,"items":[{"name":"일만건재철물","tel":"031-768-2531","addr":"경기도 광주시 오포읍 고산리 324-7번지","indutype":"건축자재 - 건축용 요업제품","category":"other"}]},{"lat":"37.37056119","long":"127.2349004","imageIndex":17,"items":[{"name":"제일조경","tel":"031-768-0020","addr":"경기도 광주시 오포읍 고산리 188-6번지","indutype":"건축자재 - 인테리어전문","category":"other"}]},{"lat":"37.36930857","long":"127.2350094","imageIndex":17,"items":[{"name":"조이크래프트","tel":"031-765-8732","addr":"경기도 광주시 오포읍 고산리 220-3번지","indutype":"기타 - 기계공구","category":"other"}]},{"lat":"37.37353602","long":"127.2387029","imageIndex":17,"items":[{"name":"주식회사 대신우드","tel":"031-766-2440","addr":"경기도 광주시 오포읍 고산리 142-1번지","indutype":"건축자재 - 목재·석재·철물","category":"other"}]},{"lat":"37.37248139","long":"127.2389254","imageIndex":17,"items":[{"name":"주식회사 웰메이드코리아","tel":"031-8084-0395","addr":"경기도 광주시 오포읍 고산리 136-2번지 나동","indutype":"신변잡화 - 기타잡화","category":"other"}]},{"lat":"37.3726149","long":"127.2210092","imageIndex":17,"items":[{"name":"주식회사경안","tel":"031-764-3412","addr":"경기도 광주시 오포읍 고산리 산7-1번지 고산빌딩 101","indutype":"가구 - 일반가구","category":"other"}]},{"lat":"37.37467434","long":"127.237171","imageIndex":17,"items":[{"name":"중원세라믹","tel":"031-761-1068","addr":"경기도 광주시 오포읍 고산리 152-3번지","indutype":"건축자재 - 건축용 요업제품","category":"other"},{"name":"콤프종합상사","tel":"031-765-9745","addr":"경기도 광주시 오포읍 고산리 152-3번지","indutype":"기타 - 기계공구","category":"other"}]},{"lat":"37.37369786","long":"127.2388728","imageIndex":17,"items":[{"name":"진명발전기","tel":"031-765-5483","addr":"경기도 광주시 오포읍 고산리 76-3번지","indutype":"전기제품 - 기타전기제품","category":"other"}]},{"lat":"37.37362162","long":"127.2409498","imageIndex":17,"items":[{"name":"포인트","tel":"031-765-0402","addr":"경기도 광주시 오포읍 고산리 90-4번지","indutype":"직물 - 카페트,커튼,천막,지물","category":"other"}]},{"lat":"37.38047881","long":"127.2407005","imageIndex":17,"items":[{"name":"한강공조","tel":"","addr":"경기도 광주시 오포읍 고산리 45-3번지","indutype":"용역 서비스 - 기타용역서비스","category":"other"}]},{"lat":"37.37061933","long":"127.232812","imageIndex":17,"items":[{"name":"한생인","tel":"031-797-9280","addr":"경기도 광주시 오포읍 고산리 244-1번지","indutype":"회원제형태 - 기타4","category":"other"}]},{"lat":"37.37383707","long":"127.2178403","imageIndex":17,"items":[{"name":"한우리","tel":"070-7433-7132","addr":"경기도 광주시 오포읍 고산리 503-3번지","indutype":"유통업 영리 - 기타유통업","category":"other"}]},{"lat":"37.37448324","long":"127.2381188","imageIndex":17,"items":[{"name":"한울ENG","tel":"031-734-0042","addr":"경기도 광주시 오포읍 고산리 147-5번지 1층","indutype":"기타 - 기계공구","category":"other"}]},{"lat":"37.3808957","long":"127.2439536","imageIndex":17,"items":[{"name":"해공스포츠","tel":"031-765-7003","addr":"경기도 광주시 오포읍 고산리 1-5","indutype":"레져용품 - 스포츠·레져용품","category":"other"}]},{"lat":"37.37520358","long":"127.2428403","imageIndex":17,"items":[{"name":"홈데코","tel":"031-768-7121","addr":"경기도 광주시 오포읍 고산리 104-2","indutype":"가구 - 일반가구","category":"other"}]}]