[{"lat":"37.506689533","long":"127.50133754","imageIndex":17,"items":[{"name":"고려휀스","tel":"031-771-4948","addr":"경기도 양평군 양평읍 덕평리 133-1번지","indutype":"용역 서비스 - 기타용역서비스","category":"other"}]},{"lat":"37.505471349","long":"127.49533539","imageIndex":17,"items":[{"name":"길목갤러리","tel":"","addr":"경기도 양평군 양평읍 덕평리 320-4번지 1층","indutype":"문화.취미 - 화랑","category":"other"}]},{"lat":"37.503942554","long":"127.49247541","imageIndex":17,"items":[{"name":"비봉급수(물차)","tel":"02-6340-5385","addr":"경기도 양평군 양평읍 덕평리 351-9번지","indutype":"용역 서비스 - 종합용역","category":"other"},{"name":"삼호금속지앤디","tel":"031-774-3890","addr":"경기도 양평군 양평읍 덕평리 351-9번지","indutype":"건축자재 - 기타건축자재","category":"other"},{"name":"주식회사 그린넷","tel":"031-772-5030","addr":"경기도 양평군 양평읍 덕평리 351-9","indutype":"가구 - 일반가구","category":"other"}]},{"lat":"37.507415047","long":"127.49375348","imageIndex":17,"items":[{"name":"삼화철강","tel":"031-771-7171","addr":"경기도 양평군 양평읍 덕평리 252-1번지","indutype":"건축자재 - 기타건축자재","category":"other"}]},{"lat":"37.506691835","long":"127.49433685","imageIndex":17,"items":[{"name":"씨유양평우정점","tel":"031-238-9960","addr":"경기도 양평군 양평읍 덕평리 258-1번지","indutype":"유통업 영리 - 편 의 점","category":"other"}]},{"lat":"37.505299909","long":"127.50183722","imageIndex":17,"items":[{"name":"아기별스튜디오","tel":"031-774-4100","addr":"경기도 양평군 양평읍 덕평리 113-2번지","indutype":"광학제품 - 사진관","category":"other"}]},{"lat":"37.505050875","long":"127.49244872","imageIndex":17,"items":[{"name":"예인씽크가구","tel":"031-771-0153","addr":"경기도 양평군 양평읍 덕평리 259-31번지","indutype":"주방용구 - 주방용구","category":"other"}]},{"lat":"37.507715962","long":"127.49505608","imageIndex":4,"items":[{"name":"돌다리보리밥","tel":"031-773-6993","addr":"경기도 양평군 양평읍 덕평리 280-1번지","indutype":"일반휴게음식 - 일반한식","category":"restaurant"}]},{"lat":"37.510826786","long":"127.49012258","imageIndex":4,"items":[{"name":"비아지오","tel":"","addr":"경기도 양평군 양평읍 덕평리 474-5번지","indutype":"일반휴게음식 - 서양음식","category":"restaurant"}]},{"lat":"37.503942554","long":"127.49247541","imageIndex":4,"items":[{"name":"알고파 커피","tel":"031-771-8549","addr":"경기도 양평군 양평읍 덕평리 351-9번지 가동 102호","indutype":"일반휴게음식 - 서양음식","category":"restaurant"}]},{"lat":"37.504216251","long":"127.48286427","imageIndex":4,"items":[{"name":"용칼국수","tel":"031-771-3120","addr":"경기도 양평군 양평읍 덕평리 586-5번지","indutype":"일반휴게음식 - 일반한식","category":"restaurant"}]},{"lat":"37.509852257","long":"127.49047817","imageIndex":4,"items":[{"name":"카페모던숲","tel":"031-777-7777","addr":"경기도 양평군 양평읍 덕평리 469-5번지","indutype":"일반휴게음식 - 서양음식","category":"restaurant"}]},{"lat":"37.505603902","long":"127.50025591","imageIndex":4,"items":[{"name":"푸짐한황태마을","tel":"031-771-2183","addr":"경기도 양평군 양평읍 덕평리 100번지","indutype":"일반휴게음식 - 일반한식","category":"restaurant"}]},{"lat":"37.507494967","long":"127.49619692","imageIndex":0,"items":[{"name":"삼진플랜트","tel":"031-771-9162","addr":"경기도 양평군 양평읍 덕평리 292-2번지 1층","indutype":"자동차정비 유지 - 중장비수리","category":"car"}]},{"lat":"37.504716564","long":"127.49700423","imageIndex":0,"items":[{"name":"양평카스크랩","tel":"031-771-6622","addr":"경기도 양평군 양평읍 덕평리 332-2번지","indutype":"자동차정비 유지 - 자동차부품","category":"car"}]},{"lat":"37.512327474","long":"127.50186138","imageIndex":7,"items":[{"name":"상지유통","tel":"031-771-5412","addr":"경기도 양평군 양평읍 덕평리 712.1층","indutype":"음료식품 - 기타음료식품","category":"food"}]}]