[{"lat":"37.619556177","long":"126.83242373","imageIndex":4,"items":[{"name":"골목길","tel":"031-972-3037","addr":"경기도 고양시 덕양구 행신로","indutype":"일반휴게음식 - 일반한식","category":"restaurant"}]},{"lat":"37.621637135","long":"126.84517339","imageIndex":4,"items":[{"name":"짠","tel":"031-978-2594","addr":"경기도 고양시 덕양구 행신로","indutype":"일반휴게음식 - 일반한식","category":"restaurant"}]},{"lat":"37.619500862","long":"126.84445299","imageIndex":4,"items":[{"name":"참나라","tel":"031-972-2230","addr":"경기도 고양시 덕양구 행신로","indutype":"일반휴게음식 - 일반한식","category":"restaurant"}]},{"lat":"37.620690706","long":"126.84486956","imageIndex":4,"items":[{"name":"청풍명월","tel":"031-943-6265","addr":"경기도 고양시 덕양구 행신로","indutype":"일반휴게음식 - 일반한식","category":"restaurant"}]},{"lat":"37.612722424","long":"126.82340132","imageIndex":17,"items":[{"name":"동막골풀잎사랑","tel":"031-978-4245","addr":"경기도 고양시 덕양구 행신로","indutype":"문화.취미 - 화원","category":"other"}]},{"lat":"37.61074644","long":"126.82153735","imageIndex":17,"items":[{"name":"씨엠컴퍼니(CM company)","tel":"02-2677-8888","addr":"경기도 고양시 덕양구 행신로","indutype":"의류 - 아동의류","category":"other"}]},{"lat":"37.619357292","long":"126.83195978","imageIndex":17,"items":[{"name":"플렉스짐","tel":"031-974-9682","addr":"경기도 고양시 덕양구 행신로","indutype":"회원제형태 - 레져업소","category":"other"}]},{"lat":"37.619249618","long":"126.83226586","imageIndex":13,"items":[{"name":"따봉","tel":"031-979-2299","addr":"경기도 고양시 덕양구 행신로","indutype":"레저업소 - 노 래 방","category":"leisure"}]},{"lat":"37.617636225","long":"126.82571145","imageIndex":16,"items":[{"name":"소리샘피아노학원","tel":"031-974-8700","addr":"경기도 고양시 덕양구 행신로","indutype":"학원 - 예·체능계학원","category":"study"}]},{"lat":"37.619195838","long":"126.83245853","imageIndex":16,"items":[{"name":"해법북경중국어교습소","tel":"031-974-5153","addr":"경기도 고양시 덕양구 행신로","indutype":"회원제형태 - 학원","category":"study"}]},{"lat":"37.619610725","long":"126.83276341","imageIndex":13,"items":[{"name":"엄지검지네일#","tel":"031-979-4153","addr":"경기도 고양시 덕양구 행신로","indutype":"보건위생 - 피부미용실","category":"beauty"}]}]