[{"lat":"37.515456301","long":"126.8033763","items":[{"name":"(주)디지털삼성 오정지점","tel":"062-673-4900","addr":"경기도 부천시 여월동 48-7번지 GJS빌딩","category":"전기제품 - 가전제품"},{"name":"GJS스크린골프/GJS빌딩","tel":"032-682-4849","addr":"경기도 부천시 여월동 48-7번지","category":"회원제형태 - 레져업소"},{"name":"뷰티라이프","tel":"032-671-6434","addr":"경기도 부천시 여월동 48-7번지 GJS빌딩 101호","category":"회원제형태 - 건강식품"},{"name":"지제이에스 스크린골프","tel":"032-682-4849","addr":"경기도 부천시 여월동 48-7번지 GJS빌딩 3층","category":"레저업소 - 스크린골프"},{"name":"템피아","tel":"032-201-3652","addr":"경기도 부천시 여월동 48-7번지 GJS빌딩 1층","category":"전기제품 - 냉열기기"}]},{"lat":"37.518926393","long":"126.79885372","items":[{"name":"(주)영일기업","tel":"032-676-6244","addr":"경기도 부천시 여월동 7-56번지","category":"건축자재 - 보일러·펌프·샷시"}]},{"lat":"37.511289893","long":"126.80646384","items":[{"name":"(주)웰바이오스","tel":"032-1899-3272","addr":"경기도 부천시 여월동 335번지 두오파크프라자 B101호","category":"주방용구 - 주방용구"},{"name":"BHC치킨여월작동점","tel":"032-677-8292","addr":"경기도 부천시 여월동 335번지 두오파크프라자 101호","category":"일반휴게음식 - 스넥"},{"name":"다비다","tel":"032-677-4775","addr":"경기도 부천시 여월동 335번지 정방프라자 1층","category":"의류 - 정장"},{"name":"용인대 준 태권도","tel":"032-674-0234","addr":"경기도 부천시 여월동 335번지 두오파크프라자 2층 206호","category":"학원 - 예·체능계학원"},{"name":"차스매쓰캔수학교습소","tel":"032-678-2002","addr":"경기도 부천시 여월동 335번지 두오파크프라자 정방프라자 2층 202호 일부","category":"학원 - 보습학원"},{"name":"차스어학원","tel":"032-678-2002","addr":"경기도 부천시 여월동 335 정방프라자203호,205호","category":"회원제형태 - 학원"},{"name":"파리바게뜨부천여월점","tel":"032-676-8202","addr":"경기도 부천시 여월동 335번지 두오파크프라자 102호 정방프라자","category":"음료식품 - 제과점"},{"name":"파리바게트 부천여월점","tel":"032-676-8202","addr":"경기도 부천시 여월동 335번지 두오파크프라자 1층 102호","category":"음료식품 - 제과점"},{"name":"한국복사기프린터렌탈/토너인","tel":"032-677-5353","addr":"경기도 부천시 여월동 335번지 두오파크프라자 B102호","category":"사무통신 - 사무용 OA기기"},{"name":"해법에듀셀파우등생초등보습학원","tel":"070-8829-5829","addr":"경기도 부천시 여월동 335번지 정방프라자 2층 203호","category":"학원 - 보습학원"}]},{"lat":"37.519952125","long":"126.79804779","items":[{"name":"365정보통신","tel":"032-677-4010","addr":"경기도 부천시 여월동 3-39번지","category":"사무통신 - 통신기기"},{"name":"별노래연습장","tel":"032-677-7885","addr":"경기도 부천시 여월동 3-39번지 지하층","category":"레저업소 - 노 래 방"},{"name":"쎄시봉","tel":"032-676-7917","addr":"경기도 부천시 여월동 3-39번지 2층","category":"일반휴게음식 - 주점"},{"name":"전의세상","tel":"032-279-6618","addr":"경기도 부천시 여월동 3-39번지 1층","category":"일반휴게음식 - 일반한식"}]},{"lat":"37.519899788","long":"126.79904337","items":[{"name":"AVA(아바)","tel":"032-677-3216","addr":"경기도 부천시 여월동 2-20번지 1층","category":"보건위생 - 미용원"},{"name":"체크포인트","tel":"032-678-9758","addr":"경기도 부천시 여월동 2-20번지","category":"의류 - 정장"}]},{"lat":"37.511676997","long":"126.80627055","items":[{"name":"EiE(이아이이)국제어학원","tel":"032-681-3323","addr":"경기도 부천시 여월동 334번지 여월프라자 2층 203호,7층701호 일부","category":"학원 - 외국어학원"},{"name":"경희석사백호태권도","tel":"032-675-2117","addr":"경기도 부천시 여월동 334번지 여월프라자 5층","category":"학원 - 예·체능계학원"},{"name":"김밥천국","tel":"032-684-8880","addr":"경기도 부천시 여월동 334번지 여월프라자 105호","category":"일반휴게음식 - 스넥"},{"name":"도자기굽는고양이","tel":"","addr":"경기도 부천시 여월동 334번지 여월프라자 109호","category":"문화.취미 - 문화취미기타"},{"name":"떡주까","tel":"032-678-2111","addr":"경기도 부천시 여월동 334번지 여월프라자 110호","category":"음료식품 - 제과점"},{"name":"멍냥이공작소","tel":"032-676-7323","addr":"경기도 부천시 여월동 334번지 여월프라자 1층 109호","category":"문화.취미 - 애완동물"},{"name":"본죽 (부천여월점)","tel":"032-679-6288","addr":"경기도 부천시 여월동 334번지 여월프라자 101호","category":"일반휴게음식 - 일반한식"},{"name":"부천이화약국","tel":"032-676-6433","addr":"경기도 부천시 여월동 334번지 여월프라자 107호","category":"약국 - 약국"},{"name":"색연필","tel":"032-679-3555","addr":"경기도 부천시 여월동 334번지 여월프라자 103호","category":"서적문구 - 문구용품"},{"name":"서울수가정의학과의원","tel":"032-677-8575","addr":"경기도 부천시 여월동 334번지 여월프라자 302호","category":"의원 - 의원"},{"name":"서울수치과의원","tel":"032-679-2875","addr":"경기도 부천시 여월동 334번지 여월프라자 303호","category":"의원 - 치과의원"},{"name":"애플어학원","tel":"032-678-0509","addr":"경기도 부천시 여월동 334번지 여월프라자 5층 504호","category":"학원 - 외국어학원"},{"name":"에스지제이티 스크린골프","tel":"070-7757-0753","addr":"경기도 부천시 여월동 334번지 여월프라자 5층 501호","category":"레저업소 - 스크린골프"},{"name":"여월고기집","tel":"032-678-9668","addr":"경기도 부천시 여월동 334번지 여월프라자 201호","category":"일반휴게음식 - 일반한식"},{"name":"여월독서실","tel":"070-4643-2117","addr":"경기도 부천시 여월동 334번지 여월프라자 2층","category":"학원 - 독서실"},{"name":"여월미래보습학원","tel":"032-674-2222","addr":"경기도 부천시 여월동 334번지 여월프라자 4층 403호","category":"학원 - 보습학원"},{"name":"이-매쓰영어수학보습학원","tel":"032-671-9505","addr":"경기도 부천시 여월동 334번지 여월프라자 3층 301호","category":"학원 - 보습학원"},{"name":"토마토도시락 부천여월점","tel":"032-676-6665","addr":"경기도 부천시 여월동 334번지 여월프라자 102호","category":"일반휴게음식 - 일반한식"},{"name":"피자마루여월지구점","tel":"032-677-1253","addr":"경기도 부천시 여월동 334번지 여월프라자 104호","category":"일반휴게음식 - 서양음식"},{"name":"한우리독서토론논술학원","tel":"032-671-1909","addr":"경기도 부천시 여월동 334번지 여월프라자 4층 401호","category":"학원 - 기타 교육기관"},{"name":"햇빛과단비성곡캠퍼스음악학원","tel":"032-675-7593","addr":"경기도 부천시 여월동 334번지 여월프라자 6층 601호","category":"학원 - 예·체능계학원"},{"name":"황대철 아동청소년상담센터","tel":"032-681-3323","addr":"경기도 부천시 여월동 334번지 여월프라자 7층 701호","category":"보건위생 - 기타대인서비스"}]},{"lat":"37.520005694","long":"126.79776485","items":[{"name":"GS25부천여월점","tel":"02-2006-2485","addr":"경기도 부천시 여월동 3-30번지","category":"유통업 영리 - 편 의 점"},{"name":"굿타임호프","tel":"032-681-8991","addr":"경기도 부천시 여월동 3-30번지","category":"일반휴게음식 - 주점"},{"name":"아이비보습학원","tel":"032-681-8174","addr":"경기도 부천시 여월동 3-30번지 주영빌딩 3층","category":"학원 - 기타 교육기관"},{"name":"칸 노래연습장","tel":"","addr":"경기도 부천시 여월동 3-30번지 주영빌딩 2층 202호","category":"레저업소 - 노 래 방"}]},{"lat":"37.518536952","long":"126.79768969","items":[{"name":"I.Com","tel":"032-684-2388","addr":"경기도 부천시 여월동 5-5번지","category":"사무통신 - 컴퓨터"},{"name":"크리스","tel":"032-676-1172","addr":"경기도 부천시 여월동 5-5번지","category":"의류 - 정장"}]},{"lat":"37.51384384","long":"126.7982907","items":[{"name":"LG샷다","tel":"032-675-4691","addr":"경기도 부천시 여월동 76-19번지","category":"건축자재 - 기타건축자재"}]},{"lat":"37.518452507","long":"126.79576695","items":[{"name":"S.Y코리아","tel":"032-667-7782","addr":"경기도 부천시 여월동 53-7번지","category":"보건위생 - 미용재료"},{"name":"다성 시스템","tel":"032-676-1337","addr":"경기도 부천시 여월동 53-7번지 2층","category":"용역 서비스 - 기타용역서비스"},{"name":"대륜아이티","tel":"032-678-1910","addr":"경기도 부천시 여월동 53-7번지","category":"전기제품 - 기타전기제품"},{"name":"두레C&F","tel":"032-1577-6091","addr":"경기도 부천시 여월동 53-7번지 B동상가","category":"음료식품 - 정육점"},{"name":"미남미녀헤어샵","tel":"032-671-5866","addr":"경기도 부천시 여월동 53-7번지","category":"보건위생 - 미용원"}]},{"lat":"37.51992539","long":"126.79821754","items":[{"name":"SBS노래연습장","tel":"032-675-8333","addr":"경기도 부천시 여월동 3-40번지 지하","category":"레저업소 - 노 래 방"},{"name":"돈코순대국","tel":"032-674-2400","addr":"경기도 부천시 여월동 3-40번지","category":"일반휴게음식 - 일반한식"},{"name":"뚝닭식당","tel":"","addr":"경기도 부천시 여월동 3-40번지 1층","category":"일반휴게음식 - 일반한식"}]},{"lat":"37.516203564","long":"126.80304629","items":[{"name":"SPC네트웍스중부","tel":"02-1544-7884","addr":"경기도 부천시 여월동 10-40번지 대성빌딩 3층 301호 302호","category":"사무통신 - 통신기기"},{"name":"아이탑컴퓨터전산회계학원","tel":"032-674-7942","addr":"경기도 부천시 여월동 10-40번지 5층","category":"학원 - 보습학원"}]},{"lat":"37.519647044","long":"126.79877258","items":[{"name":"e 편한안경","tel":"032-671-0610","addr":"경기도 부천시 여월동 7번지 대림뷰 상가 1층","category":"보건위생 - 안경"},{"name":"돌산실내마차","tel":"032-673-0737","addr":"경기도 부천시 여월동 7번지 대림뷰","category":"일반휴게음식 - 일반한식"}]},{"lat":"37.515701141","long":"126.79902086","items":[{"name":"가온벼리","tel":"032-204-6068","addr":"경기도 부천시 여월동 296번지 여월휴먼시아1단지","category":"자동차정비 유지 - 자동차부품"},{"name":"녹색상품코너","tel":"","addr":"경기도 부천시 여월동 296번지 여월휴먼시아1단지","category":"신변잡화 - 기타잡화"},{"name":"더조은 방충망 경기총판","tel":"","addr":"경기도 부천시 여월동 296번지 여월휴먼시아1단지","category":"용역 서비스 - 기타용역서비스"},{"name":"미소트리(miso tree)","tel":"070-4144-4359","addr":"경기도 부천시 여월동 296번지 여월휴먼시아1단지","category":"문화.취미 - 화원"},{"name":"뿜뿜세차","tel":"","addr":"경기도 부천시 여월동 296번지 여월휴먼시아1단지","category":"자동차정비 유지 - 세차장"},{"name":"상장례의전법인배웅","tel":"02-1644-4044","addr":"경기도 부천시 여월동 296번지 여월휴먼시아1단지","category":"회원제형태 - 기타4"},{"name":"아림헤어아트","tel":"032-679-5652","addr":"경기도 부천시 여월동 296번지 휴먼시아1단지 상가동 105호","category":"보건위생 - 미용원"},{"name":"일단지식당","tel":"032-681-0707","addr":"경기도 부천시 여월동 296번지 휴먼시아1단지 상가 106호","category":"일반휴게음식 - 스넥"},{"name":"제일마트","tel":"032-671-2110","addr":"경기도 부천시 여월동 296 휴먼시아1단지 상가동105호","category":"유통업 영리 - 슈퍼마켓"},{"name":"조아스포츠","tel":"","addr":"경기도 부천시 여월동 296번지 여월휴먼시아1단지","category":"레져용품 - 스포츠·레져용품"},{"name":"주식회사 현대지엔에스","tel":"032-675-2030","addr":"경기도 부천시 여월동 296번지 여월휴먼시아1단지 상가동 202호","category":"용역 서비스 - 종합용역"},{"name":"한빛정보","tel":"02-861-5949","addr":"경기도 부천시 여월동 296번지 여월휴먼시아1단지","category":"회원제형태 - 기타3"}]},{"lat":"37.519255076","long":"126.79616064","items":[{"name":"가위클럽","tel":"032-684-9472","addr":"경기도 부천시 여월동 52-22번지 1층","category":"보건위생 - 미용원"}]},{"lat":"37.516873669","long":"126.79974159","items":[{"name":"갈비명가서서갈비","tel":"032-673-9297","addr":"경기도 부천시 여월동 42-6번지 외1필지 1층 전체","category":"일반휴게음식 - 일반한식"}]},{"lat":"37.516757725","long":"126.8004319","items":[{"name":"강원종합인테리어","tel":"032-673-4199","addr":"경기도 부천시 여월동 44-21번지","category":"건축자재 - 인테리어전문"},{"name":"동진목재","tel":"032-684-6363","addr":"경기도 부천시 여월동 44-21번지","category":"건축자재 - 목재·석재·철물"}]},{"lat":"37.509258156","long":"126.79849549","items":[{"name":"개미카센타","tel":"032-613-0449","addr":"경기도 부천시 여월동 312번지","category":"자동차정비 유지 - 자동차정비"},{"name":"매직인텍","tel":"032-673-9366","addr":"경기도 부천시 여월동 312번지 여월주유소","category":"자동차정비 유지 - 자동차정비"}]},{"lat":"37.519895744","long":"126.79671315","items":[{"name":"개성진찹쌀순대","tel":"032-676-8007","addr":"경기도 부천시 여월동 6-1번지 성원맨션타운","category":"일반휴게음식 - 일반한식"}]},{"lat":"37.519285397","long":"126.79804961","items":[{"name":"경기공업사","tel":"032-674-2315","addr":"경기도 부천시 여월동 6-23번지 로얄골드빌 101호","category":"용역 서비스 - 기타용역서비스"},{"name":"새현대이용원","tel":"032-676-8710","addr":"경기도 부천시 여월동 6-23번지 로얄골드빌","category":"보건위생 - 이용원"},{"name":"하늘자전거여월점","tel":"032-681-5557","addr":"경기도 부천시 여월동 6-23번지 로얄골드빌 1층 102호","category":"일반휴게음식 - 일반한식"}]},{"lat":"37.51717332","long":"126.80109814","items":[{"name":"경일상사","tel":"032-423-2255","addr":"경기도 부천시 여월동 9-10번지 부원아트빌","category":"사무통신 - 사무용 OA기기"},{"name":"국제에띠임","tel":"070-7690-8515","addr":"경기도 부천시 여월동 9-10번지 부원아트빌 401호","category":"의류 - 내의판매"}]},{"lat":"37.518315244","long":"126.79973768","items":[{"name":"경휘음악학원","tel":"032-681-1909","addr":"경기도 부천시 여월동 8번지 3층","category":"학원 - 예·체능계학원"},{"name":"태비태권도","tel":"032-674-8487","addr":"경기도 부천시 여월동 8번지 3층","category":"학원 - 예·체능계학원"}]},{"lat":"37.520032192","long":"126.79745936","items":[{"name":"고래고래노래연습장","tel":"032-683-5387","addr":"경기도 부천시 여월동 3-22번지 지하1층","category":"레저업소 - 노 래 방"},{"name":"화랑인테리어","tel":"032-674-3224","addr":"경기도 부천시 여월동 3-22번지 1층 일부","category":"건축자재 - 인테리어전문"}]},{"lat":"37.519730891","long":"126.79518652","items":[{"name":"공릉동원조멸치국수(여월점)","tel":"","addr":"경기도 부천시 여월동 52-8번지 로얄하이츠 1층 101호","category":"일반휴게음식 - 스넥"}]},{"lat":"37.517703197","long":"126.80010131","items":[{"name":"광성에너지","tel":"032-684-3002","addr":"경기도 부천시 여월동 9번지 1층","category":"건축자재 - 보일러·펌프·샷시"}]},{"lat":"37.519123847","long":"126.79841203","items":[{"name":"광천미싱","tel":"032-674-1863","addr":"경기도 부천시 여월동 6-30번지 소산빌딩","category":"기타 - 기계공구"},{"name":"여월수산","tel":"032-219-1333","addr":"경기도 부천시 여월동 6-30번지 1층 일부호","category":"일반휴게음식 - 일식·회집"},{"name":"퀸헤어","tel":"","addr":"경기도 부천시 여월동 6-30번지","category":"보건위생 - 미용원"}]},{"lat":"37.519700673","long":"126.79852357","items":[{"name":"구광내과의원","tel":"032-673-4942","addr":"경기도 부천시 여월동 6-28번지","category":"의원 - 의원"},{"name":"믿음열쇠","tel":"032-681-4514","addr":"경기도 부천시 여월동 6-28번지 1층","category":"기타 - 기계공구"},{"name":"세종노래연습장","tel":"032-681-0776","addr":"경기도 부천시 여월동 6-28번지 지층","category":"레저업소 - 노 래 방"},{"name":"이불사랑","tel":"032-678-0045","addr":"경기도 부천시 여월동 6-28번지 1층","category":"직물 - 침구·수예점"},{"name":"프로방스 베이커리","tel":"032-682-7412","addr":"경기도 부천시 여월동 6-28번지 1층 2호","category":"음료식품 - 제과점"}]},{"lat":"37.519705568","long":"126.7961594","items":[{"name":"국제축산유통 주식회사","tel":"032-674-5007","addr":"경기도 부천시 여월동 52-30번지 엘지타운 5동 102호","category":"음료식품 - 정육점"}]},{"lat":"37.517983061","long":"126.79523661","items":[{"name":"굿피플","tel":"","addr":"경기도 부천시 여월동 53-24번지 대원빌라 101호","category":"수리서비스 - 기타수리서비스"}]},{"lat":"37.508958849","long":"126.79735398","items":[{"name":"그린나래","tel":"032-611-7376","addr":"경기도 부천시 여월동 98-8번지 1층","category":"문화.취미 - 문화취미기타"},{"name":"바늘이 천을 콕 찌를 때","tel":"","addr":"경기도 부천시 여월동 98-8번지","category":"문화.취미 - 문화취미기타"},{"name":"박만순옻칠공방","tel":"032-664-5725","addr":"경기도 부천시 여월동 98-8번지 무형문화재부천전수관 1층","category":"문화.취미 - 민예·공예품"}]},{"lat":"37.509978161","long":"126.79804112","items":[{"name":"그린데이","tel":"070-4145-4940","addr":"경기도 부천시 여월동 92-3번지","category":"문화.취미 - 화원"},{"name":"꼬맹이야생화","tel":"070-7797-8936","addr":"경기도 부천시 여월동 92-3번지","category":"문화.취미 - 화원"},{"name":"노란나비다육","tel":"070-9435-5340","addr":"경기도 부천시 여월동 92-3번지","category":"문화.취미 - 화원"},{"name":"부천젬마꽃도매","tel":"032-681-1677","addr":"경기도 부천시 여월동 92-3번지","category":"문화.취미 - 화원"},{"name":"신생꽃농원","tel":"032-676-9955","addr":"경기도 부천시 여월동 92-3번지","category":"문화.취미 - 화원"},{"name":"예진화원","tel":"032-673-7122","addr":"경기도 부천시 여월동 92-3번지","category":"문화.취미 - 화원"},{"name":"예향원","tel":"032-678-3146","addr":"경기도 부천시 여월동 92-3,91","category":"문화.취미 - 화원"},{"name":"힐링야생화","tel":"032-675-3330","addr":"경기도 부천시 여월동 92-3번지 1층","category":"문화.취미 - 화원"}]},{"lat":"37.520728596","long":"126.79898456","items":[{"name":"그린마트","tel":"032-677-2472","addr":"경기도 부천시 여월동 2번지","category":"유통업 영리 - 슈퍼마켓"}]},{"lat":"37.519533494","long":"126.80085424","items":[{"name":"그린모터스","tel":"032-677-6773","addr":"경기도 부천시 여월동 7-32번지 1층","category":"자동차정비 유지 - 자동차정비"}]},{"lat":"37.519816054","long":"126.79751651","items":[{"name":"그린호프타운","tel":"032-672-4659","addr":"경기도 부천시 여월동 6-11번지 2층","category":"일반휴게음식 - 주점"},{"name":"역전할머니맥주","tel":"063-682-7624","addr":"경기도 부천시 여월동 6-11번지","category":"일반휴게음식 - 주점"},{"name":"연리지헤어","tel":"032-676-0825","addr":"경기도 부천시 여월동 6-11번지","category":"보건위생 - 미용원"},{"name":"파파돈","tel":"032-676-3933","addr":"경기도 부천시 여월동 6-11번지 1층 일부","category":"일반휴게음식 - 일반한식"}]},{"lat":"37.512926113","long":"126.80432183","items":[{"name":"극동음향","tel":"032-613-6062","addr":"경기도 부천시 여월동 320번지 여월휴먼시아2단지아파트","category":"전기제품 - 기타전기제품"},{"name":"미래유통","tel":"02-6347-7040","addr":"경기도 부천시 여월동 320번지 여월휴먼시아2단지아파트","category":"음료식품 - 기타음료식품"},{"name":"미미헤어","tel":"032-673-3161","addr":"경기도 부천시 여월동 320번지 여월휴먼시아제 상가동 105호","category":"보건위생 - 미용원"},{"name":"부천홍","tel":"032-0000-0000","addr":"경기도 부천시 여월동 320번지 여월휴먼시아2단지아파트","category":"의류 - 정장"},{"name":"샘물부천가맹점","tel":"031-000-0000","addr":"경기도 부천시 여월동 320번지 여월휴먼시아2단지아파트","category":"유통업 영리 - 기타유통업"},{"name":"세한상회","tel":"031-000-0000","addr":"경기도 부천시 여월동 320번지 여월휴먼시아2단지아파트","category":"음료식품 - 농·축·수산품"},{"name":"신림","tel":"032-312-9399","addr":"경기도 부천시 여월동 320번지 여월휴먼시아2단지아파트","category":"회원제형태 - 기타4"},{"name":"유정꽃농원","tel":"032-672-1380","addr":"경기도 부천시 여월동 320번지 여월휴먼시아2단지아파트","category":"문화.취미 - 화원"},{"name":"청년닷컴협동조합","tel":"070-4632-6855","addr":"경기도 부천시 여월동 320번지 여월휴먼시아2단지아파트","category":"서적문구 - 출판 및 인쇄물"}]},{"lat":"37.519733073","long":"126.79643081","items":[{"name":"금희경피부샵","tel":"032-672-0000","addr":"경기도 부천시 여월동 5-29번지 1층 4호","category":"회원제형태 - 기타4"},{"name":"서울메디칼의원","tel":"032-674-1175","addr":"경기도 부천시 여월동 5-29번지","category":"의원 - 의원"},{"name":"아름다운약국","tel":"032-681-0009","addr":"경기도 부천시 여월동 5-29번지1층1호~2호","category":"약국 - 약국"},{"name":"애니캔에듀보습학원","tel":"032-679-4747","addr":"경기도 부천시 여월동 5-29번지 3층","category":"학원 - 보습학원"},{"name":"에셀나무","tel":"032-201-1630","addr":"경기도 부천시 여월동 5-29번지","category":"보건위생 - 미용원"},{"name":"해밀","tel":"070-4046-4778","addr":"경기도 부천시 여월동 5-29번지","category":"보건위생 - 화장품"}]},{"lat":"37.512429528","long":"126.79843029","items":[{"name":"기와집오리촌","tel":"032-675-5292","addr":"경기도 부천시 여월동 79번지","category":"일반휴게음식 - 일반한식"},{"name":"청기와오리촌","tel":"032-677-6727","addr":"경기도 부천시 여월동 79번지","category":"일반휴게음식 - 일반한식"}]},{"lat":"37.52111948","long":"126.79579352","items":[{"name":"길 당구클럽","tel":"031-111-1111","addr":"경기도 부천시 여월동 4번지 나성빌딩 지층 B1호","category":"레저업소 - 당 구 장"},{"name":"대박포차","tel":"032-678-1264","addr":"경기도 부천시 여월동 4번지 나성빌딩","category":"일반휴게음식 - 일반한식"},{"name":"동양인테리어","tel":"032-683-5703","addr":"경기도 부천시 여월동 4번지 유성빌딩 104호","category":"건축자재 - 인테리어전문"},{"name":"썬노래연습장","tel":"","addr":"경기도 부천시 여월동 4번지 나성빌딩 2층","category":"레저업소 - 노 래 방"},{"name":"아이쁘다헤어","tel":"070-7321-7533","addr":"경기도 부천시 여월동 4번지 나성빌딩 1층","category":"보건위생 - 미용원"},{"name":"이마트24 부천성곡로점","tel":"","addr":"경기도 부천시 여월동 4번지 나성빌딩","category":"유통업 영리 - 편 의 점"}]},{"lat":"37.517118371","long":"126.80057797","items":[{"name":"길주로 금속","tel":"032-675-9765","addr":"경기도 부천시 여월동 9-40번지 1층 4호","category":"용역 서비스 - 기타용역서비스"},{"name":"미래가전","tel":"011-***-****","addr":"경기도 부천시 여월동 9-40번지 4호","category":"수리서비스 - 가정용품수리"},{"name":"보일러프로","tel":"032-672-9007","addr":"경기도 부천시 여월동 9-40번지 1층 101,102호","category":"건축자재 - 보일러·펌프·샷시"},{"name":"영일이앤지주식회사","tel":"032-677-1930","addr":"경기도 부천시 여월동 9-40번지 지하1층","category":"용역 서비스 - 기타용역서비스"}]},{"lat":"37.519339024","long":"126.79780061","items":[{"name":"김밥나라","tel":"032-674-9791","addr":"경기도 부천시 여월동 6-35번지 1층","category":"일반휴게음식 - 스넥"},{"name":"티피엠(TPM)수학교습소","tel":"032-679-6673","addr":"경기도 부천시 여월동 6-35번지 2층","category":"학원 - 보습학원"}]},{"lat":"37.519893645","long":"126.79551411","items":[{"name":"김밥친구","tel":"032-679-7940","addr":"경기도 부천시 여월동 52-13번지","category":"일반휴게음식 - 스넥"},{"name":"끝장스터디(study)보습학원","tel":"032-683-0979","addr":"경기도 부천시 여월동 52-13번지 2층","category":"학원 - 보습학원"},{"name":"따봉당구장","tel":"032-682-0750","addr":"경기도 부천시 여월동 52-13번지 지하","category":"레저업소 - 당 구 장"},{"name":"블루클럽","tel":"032-679-6012","addr":"경기도 부천시 여월동 52-13번지 1층","category":"보건위생 - 미용원"},{"name":"스토리","tel":"070-8807-7411","addr":"경기도 부천시 여월동 52-13번지 1층","category":"신변잡화 - 기타잡화"},{"name":"영화무예아카데미(백무관)","tel":"032-672-7778","addr":"경기도 부천시 여월동 52-13번지 3층 302호","category":"학원 - 예·체능계학원"},{"name":"추억 82","tel":"","addr":"경기도 부천시 여월동 52-13번지 1층","category":"일반휴게음식 - 서양음식"},{"name":"한빛텔레콤","tel":"032-671-4917","addr":"경기도 부천시 여월동 52-13번지 1층","category":"사무통신 - 통신기기"}]},{"lat":"37.518291062","long":"126.79618593","items":[{"name":"깨금족발","tel":"070-8908-0074","addr":"경기도 부천시 여월동 54-1번지","category":"음료식품 - 기타음료식품"},{"name":"힘찬어린이체육교실","tel":"032-673-9738","addr":"경기도 부천시 여월동 54-1번지","category":"회원제형태 - 학원"}]},{"lat":"37.520094592","long":"126.79707458","items":[{"name":"꼬꼬숯불닭바베큐","tel":"032-678-3667","addr":"경기도 부천시 여월동 3-13번지 1층","category":"일반휴게음식 - 일반한식"},{"name":"마이스타일","tel":"032-214-6055","addr":"경기도 부천시 여월동 3-13번지 1층","category":"의류 - 정장"}]},{"lat":"37.516339094","long":"126.80327215","items":[{"name":"꿈꾸는커피마을(시니어카페)","tel":"032-678-6622","addr":"경기도 부천시 여월동 10-46번지 1층 일부호 오정구노인종합복지회관","category":"일반휴게음식 - 서양음식"}]},{"lat":"37.518117125","long":"126.79979478","items":[{"name":"나래커텐","tel":"032-671-0750","addr":"경기도 부천시 여월동 8-44번지 1층","category":"직물 - 카페트,커튼,천막,지물"}]},{"lat":"37.519954179","long":"126.79923552","items":[{"name":"남양분유서부제8전문점","tel":"032-672-2887","addr":"경기도 부천시 여월동 2-19번지","category":"음료식품 - 기타음료식품"},{"name":"머릿결사랑","tel":"032-676-7092","addr":"경기도 부천시 여월동 2-19번지","category":"보건위생 - 미용원"},{"name":"영화방앗간","tel":"032-671-1366","addr":"경기도 부천시 여월동 2-19번지","category":"음료식품 - 제과점"},{"name":"영화세탁소","tel":"032-674-5478","addr":"경기도 부천시 여월동 2-19번지","category":"수리서비스 - 세탁소"},{"name":"정진속셈학원","tel":"032-677-7920","addr":"경기도 부천시 여월동 2-19번지 영화빌딩 3층","category":"학원 - 기타 교육기관"}]},{"lat":"37.519899456","long":"126.79885107","items":[{"name":"네네치킨","tel":"032-682-4492","addr":"경기도 부천시 여월동 2-21번지 1층","category":"일반휴게음식 - 스넥"},{"name":"크로바노래연습장","tel":"032-684-3729","addr":"경기도 부천시 여월동 2-21번지 2층","category":"레저업소 - 노 래 방"}]},{"lat":"37.509783554","long":"126.80013405","items":[{"name":"네모칸","tel":"","addr":"경기도 부천시 여월동 313번지 여월휴먼시아4단지아파트","category":"용역 서비스 - 사무서비스"}]},{"lat":"37.519893168","long":"126.79524263","items":[{"name":"네일처럼","tel":"032-327-0425","addr":"경기도 부천시 여월동 52번지","category":"보건위생 - 피부미용실"},{"name":"디어몬드(Dear.mond)","tel":"070-7423-6603","addr":"경기도 부천시 여월동 52번지 2층","category":"일반휴게음식 - 서양음식"},{"name":"떴다노래방","tel":"032-677-8916","addr":"경기도 부천시 여월동 52번지","category":"레저업소 - 노 래 방"},{"name":"본스치킨","tel":"032-675-7824","addr":"경기도 부천시 여월동 52번지","category":"일반휴게음식 - 스넥"},{"name":"언니포차","tel":"032-682-9728","addr":"경기도 부천시 여월동 52번지 1층","category":"일반휴게음식 - 일반한식"},{"name":"피자마루","tel":"032-675-1082","addr":"경기도 부천시 여월동 52번지 1층","category":"일반휴게음식 - 서양음식"},{"name":"하늘하늘","tel":"032-202-8917","addr":"경기도 부천시 여월동 52번지 1층 일부","category":"의류 - 정장"}]},{"lat":"37.518977804","long":"126.79732651","items":[{"name":"놀작마이아트팡팡미술교습소","tel":"032-674-8487","addr":"경기도 부천시 여월동 5-18번지 105호","category":"학원 - 예·체능계학원"}]},{"lat":"37.511037014","long":"126.80610257","items":[{"name":"뉴욕야시장II","tel":"032-677-0067","addr":"경기도 부천시 여월동 332번지 1층 에버그린 103-105호","category":"일반휴게음식 - 일반한식"},{"name":"동영밴딩","tel":"031-111-1111","addr":"경기도 부천시 여월동 332번지 에버그린 6층","category":"음료식품 - 기타음료식품"},{"name":"카페제이","tel":"032-677-7423","addr":"경기도 부천시 여월동 332번지 에버그린 101호","category":"일반휴게음식 - 서양음식"},{"name":"컴포즈커피 여월점","tel":"070-2430-6376","addr":"경기도 부천시 여월동 332번지 1층 110,111호","category":"일반휴게음식 - 서양음식"},{"name":"크린에코","tel":"070-7396-5947","addr":"경기도 부천시 여월동 332번지 1층 113호,114호","category":"수리서비스 - 세탁소"},{"name":"피부미인","tel":"","addr":"경기도 부천시 여월동 332번지 에버그린 112호","category":"보건위생 - 피부미용실"}]},{"lat":"37.521266462","long":"126.79741073","items":[{"name":"니하오중국어교습","tel":"032-683-0986","addr":"경기도 부천시 여월동 1-4번지 부강빌라가동 102호~102호 가동 102호","category":"회원제형태 - 학원"}]},{"lat":"37.520147684","long":"126.79652016","items":[{"name":"달리는마차","tel":"032-677-7900","addr":"경기도 부천시 여월동 4-49번지 1층 일부","category":"일반휴게음식 - 일반한식"},{"name":"영남","tel":"032-683-3194","addr":"경기도 부천시 여월동 4-49번지","category":"회원제형태 - 레져업소"}]},{"lat":"37.519869011","long":"126.7968829","items":[{"name":"닭쟁이피자쟁이","tel":"032-672-9989","addr":"경기도 부천시 여월동 6-2번지 유호유스빌 102호","category":"일반휴게음식 - 스넥"},{"name":"밀리내감자탕","tel":"032-677-5455","addr":"경기도 부천시 여월동 6-2번지 유호유스빌 101호","category":"일반휴게음식 - 일반한식"}]},{"lat":"37.518483893","long":"126.79826672","items":[{"name":"대감님댁푸줏간","tel":"032-676-9092","addr":"경기도 부천시 여월동 47-7번지 그린파크 1층","category":"일반휴게음식 - 일반한식"}]},{"lat":"37.515122516","long":"126.80312835","items":[{"name":"대도꽃농원","tel":"032-674-2734","addr":"경기도 부천시 여월동 48-17번지","category":"문화.취미 - 화원"},{"name":"리디아즈(LYDIAS)","tel":"","addr":"경기도 부천시 여월동 48-17번지 1층 2호","category":"의류 - 정장"},{"name":"비움뷰티센터","tel":"032-681-5521","addr":"경기도 부천시 여월동 48-17번지 3층","category":"보건위생 - 화장품"},{"name":"세정아트","tel":"032-675-7164","addr":"경기도 부천시 여월동 48-17번지 1층 2호","category":"가구 - 기타가구"},{"name":"여월중앙자동차정비공","tel":"032-674-1472","addr":"경기도 부천시 여월동 48-17번지","category":"자동차정비 유지 - 자동차정비"},{"name":"으뜸광고","tel":"032-671-9028","addr":"경기도 부천시 여월동 48-17번지","category":"건축자재 - 인테리어전문"}]},{"lat":"37.516310839","long":"126.80254831","items":[{"name":"대동천막기업","tel":"032-678-0837","addr":"경기도 부천시 여월동 10-19번지","category":"직물 - 카페트,커튼,천막,지물"}]},{"lat":"37.519316677","long":"126.79532341","items":[{"name":"대명산업","tel":"032-676-9729","addr":"경기도 부천시 여월동 52-4번지 106호","category":"주방용구 - 주방용구"},{"name":"신토리토속순대국","tel":"032-674-4385","addr":"경기도 부천시 여월동 52-4번지","category":"일반휴게음식 - 일반한식"},{"name":"왔다짜장","tel":"032-678-6006","addr":"경기도 부천시 여월동 52-4번지","category":"일반휴게음식 - 스넥"},{"name":"페리카나치킨","tel":"032-678-9292","addr":"경기도 부천시 여월동 52-4번지 1층","category":"일반휴게음식 - 스넥"}]},{"lat":"37.521588051","long":"126.79582616","items":[{"name":"대박","tel":"032-677-5151","addr":"경기도 부천시 여월동 1번지 1층","category":"신변잡화 - 기타잡화"},{"name":"허슬핏","tel":"032-677-5151","addr":"경기도 부천시 여월동 1번지 3층","category":"레저업소 - 헬스클럽"}]},{"lat":"37.521322601","long":"126.79860964","items":[{"name":"대박농수산물","tel":"032-682-7636","addr":"경기도 부천시 여월동 1-7번지 금보맨션 가동 201호","category":"음료식품 - 농·축·수산품"}]},{"lat":"37.519976437","long":"126.7964867","items":[{"name":"대박싱싱통닭","tel":"031-982-6516","addr":"경기도 부천시 여월동 6번지 1층","category":"일반휴게음식 - 스넥"},{"name":"주주노래연습장","tel":"032-677-1626","addr":"경기도 부천시 여월동 6화창빌딩지하1층","category":"레저업소 - 노 래 방"},{"name":"주주총회횟집","tel":"032-679-1626","addr":"경기도 부천시 여월동 6번지 화창빌딩 1층","category":"일반휴게음식 - 일식·회집"}]},{"lat":"37.519039216","long":"126.79637616","items":[{"name":"대신수지","tel":"032-675-9582","addr":"경기도 부천시 여월동 53-21번지 1층 2호","category":"직물 - 기타직물"},{"name":"이마트24 부천여월점","tel":"","addr":"경기도 부천시 여월동 53-21번지 1층","category":"유통업 영리 - 편 의 점"},{"name":"이마트24부천여월점","tel":"032-0000-0000","addr":"경기도 부천시 여월동 53-21번지 1층","category":"유통업 영리 - 편 의 점"}]},{"lat":"37.507091121","long":"126.79582097","items":[{"name":"대신철강","tel":"032-674-9266","addr":"경기도 부천시 여월동 131-4번지","category":"건축자재 - 기타건축자재"}]},{"lat":"37.516623071","long":"126.79552316","items":[{"name":"대추골","tel":"032-684-8855","addr":"경기도 부천시 여월동 62-21번지","category":"일반휴게음식 - 일반한식"}]},{"lat":"37.519203188","long":"126.79740507","items":[{"name":"대한공조","tel":"02-1588-8914","addr":"경기도 부천시 여월동 5-17번지","category":"전기제품 - 냉열기기"},{"name":"압구정김밥전문점","tel":"032-672-7771","addr":"경기도 부천시 여월동 5-17번지 1층","category":"일반휴게음식 - 스넥"},{"name":"진중관용성도장","tel":"032-671-8199","addr":"경기도 부천시 여월동 5-17번지 3층","category":"학원 - 예·체능계학원"},{"name":"퀸즈","tel":"032-682-9088","addr":"경기도 부천시 여월동 5-17번지","category":"의류 - 정장"},{"name":"피닉스정보통신","tel":"","addr":"경기도 부천시 여월동 5-17번지 정문좌측첫번째","category":"사무통신 - 통신기기"},{"name":"호식이두마리치킨여월점","tel":"032-672-7292","addr":"경기도 부천시 여월동 5-17번지","category":"일반휴게음식 - 스넥"}]},{"lat":"37.519675459","long":"126.79957563","items":[{"name":"대한상사","tel":"031-1899-6126","addr":"경기도 부천시 여월동 7-5번지","category":"신변잡화 - 기타잡화"},{"name":"어린이나라","tel":"032-671-3364","addr":"경기도 부천시 여월동 7-5번지","category":"의류 - 아동의류"},{"name":"토종참숯불구이","tel":"032-673-0031","addr":"경기도 부천시 여월동 7-5번지 현대타운 1동 101호","category":"일반휴게음식 - 일반한식"}]},{"lat":"37.519122395","long":"126.79757497","items":[{"name":"댕기머리헤어샵","tel":"032-683-0010","addr":"경기도 부천시 여월동 5-20번지 103호","category":"보건위생 - 미용원"},{"name":"무지개노래연습장","tel":"","addr":"경기도 부천시 여월동 5-20번지 지하","category":"레저업소 - 노 래 방"},{"name":"브랜드 스포츠 상사","tel":"032-683-3760","addr":"경기도 부천시 여월동 5-20번지 4층 401호","category":"레져용품 - 스포츠·레져용품"},{"name":"성일상사","tel":"032-681-5458","addr":"경기도 부천시 여월동 5-20번지","category":"자동차정비 유지 - 자동차시트·타이어"},{"name":"세븐일레븐부천여월점","tel":"","addr":"경기도 부천시 여월동 5-20번지 1014호","category":"유통업 영리 - 편 의 점"},{"name":"송원포차","tel":"032-671-6331","addr":"경기도 부천시 여월동 5-20번지 1층 101호","category":"일반휴게음식 - 일반한식"},{"name":"원종검도관","tel":"032-683-3760","addr":"경기도 부천시 여월동 5-20번지","category":"학원 - 예·체능계학원"},{"name":"원플러스원","tel":"032-679-2766","addr":"경기도 부천시 여월동 5-20번지 1층 105호","category":"일반휴게음식 - 주점"},{"name":"태비 바른아이 태권도장","tel":"032-674-8478","addr":"경기도 부천시 여월동 5-20번지 301호","category":"학원 - 예·체능계학원"}]},{"lat":"37.519010104","long":"126.79518852","items":[{"name":"동남상사","tel":"032-681-2828","addr":"경기도 부천시 여월동 53번지 숲예찬","category":"음료식품 - 기타음료식품"},{"name":"새한광학","tel":"032-678-5003","addr":"경기도 부천시 여월동 53번지 숲예찬","category":"신변잡화 - 시계"},{"name":"우리동네빵집","tel":"032-504-0204","addr":"경기도 부천시 여월동 53번지 숲예찬 1층 101호","category":"음료식품 - 제과점"}]},{"lat":"37.51106947","long":"126.79868283","items":[{"name":"동방꽃식물원","tel":"032-675-3831","addr":"경기도 부천시 여월동 89-18","category":"문화.취미 - 화원"},{"name":"유한돌풀원","tel":"032-673-0730","addr":"경기도 부천시 여월동 89-18","category":"문화.취미 - 화원"}]},{"lat":"37.519701806","long":"126.79917965","items":[{"name":"동서지물인테리어","tel":"032-677-2282","addr":"경기도 부천시 여월동 7-4번지 1층","category":"건축자재 - 인테리어전문"},{"name":"등룡체육관","tel":"032-674-6609","addr":"경기도 부천시 여월동 7-4번지","category":"레저업소 - 헬스클럽"},{"name":"빌보드꼬치전문점","tel":"032-678-5265","addr":"경기도 부천시 여월동 7-4번지 1층 일부","category":"일반휴게음식 - 주점"}]},{"lat":"37.507594114","long":"126.80543301","items":[{"name":"동욱홀","tel":"031-1234-1234","addr":"경기도 부천시 여월동 242-2번지 지하1층","category":"일반휴게음식 - 서양음식"},{"name":"미꼬담 부천까치울점","tel":"032-000-0000","addr":"경기도 부천시 여월동 242-2번지","category":"일반휴게음식 - 일반한식"},{"name":"부천화훼농장","tel":"032-679-2100","addr":"경기도 부천시 여월동 242-2번지","category":"문화.취미 - 화원"}]},{"lat":"37.519621867","long":"126.79984726","items":[{"name":"둘리 애견","tel":"032-683-4524","addr":"경기도 부천시 여월동 7-18번지 그린아트타운 101호","category":"문화.취미 - 애완동물"},{"name":"포장마차GO부천점","tel":"032-677-4873","addr":"경기도 부천시 여월동 7-18번지 그린아트타운 101호","category":"일반휴게음식 - 일반한식"}]},{"lat":"37.509396974","long":"126.80595984","items":[{"name":"드림피아","tel":"","addr":"경기도 부천시 여월동 340번지 여월휴먼시아3단지아파트","category":"용역 서비스 - 종합용역"},{"name":"마술피리음악학원","tel":"032-673-7709","addr":"경기도 부천시 여월동 340번지 201,202호","category":"학원 - 예·체능계학원"},{"name":"삼진토건","tel":"","addr":"경기도 부천시 여월동 340번지 여월휴먼시아3단지아파트","category":"기타 - 기계공구"},{"name":"씨유여월주공점","tel":"032-677-3334","addr":"경기도 부천시 여월동 340 여월주공3단지 106","category":"유통업 영리 - 편 의 점"},{"name":"아이에디트 디자인","tel":"032-328-1334","addr":"경기도 부천시 여월동 340번지 여월휴먼시아3단지아파트","category":"용역 서비스 - 사무서비스"},{"name":"이레기획","tel":"032-665-3000","addr":"경기도 부천시 여월동 340번지 여월휴먼시아3단지아파트","category":"회원제형태 - 기타4"},{"name":"주공휴먼시아세탁","tel":"032-672-5445","addr":"경기도 부천시 여월동 340번지 여월휴먼시아3단지 상가 101호","category":"수리서비스 - 세탁소"},{"name":"현대건기","tel":"032-672-4790","addr":"경기도 부천시 여월동 340번지 여월휴먼시아3단지아파트","category":"수리서비스 - 기타수리서비스"},{"name":"홍선생미술(홍선생미술아트센터미술교습소)","tel":"032-674-1088","addr":"경기도 부천시 여월동 340번지 여월휴먼시아 상가동 205호","category":"회원제형태 - 서적"},{"name":"화영라이프","tel":"032-679-9737","addr":"경기도 부천시 여월동 340번지 여월휴먼시아3단지아파트","category":"용역 서비스 - 가례서비스업"}]},{"lat":"37.511451053","long":"126.80585265","items":[{"name":"디아르떼보스헤어부천여월점","tel":"032-672-6672","addr":"경기도 부천시 여월동 333번지 DS타워 1층 107호","category":"보건위생 - 미용원"},{"name":"마리동물병원","tel":"032-672-7379","addr":"경기도 부천시 여월동 333번지 DS타워 108호","category":"기타의료기관 - 동물병원"},{"name":"뷰셀헤어","tel":"032-674-7566","addr":"경기도 부천시 여월동 333번지 디에스타워 103호","category":"보건위생 - 미용원"},{"name":"안경과시선","tel":"032-678-1658","addr":"경기도 부천시 여월동 333번지 디에스타워 109호","category":"보건위생 - 안경"},{"name":"올가뷰티","tel":"032-343-8059","addr":"경기도 부천시 여월동 333번지 디에스타워 6층 612호","category":"보건위생 - 화장품"},{"name":"이안메디칼","tel":"","addr":"경기도 부천시 여월동 333번지 DS타워 406호","category":"보건위생 - 의료용품"},{"name":"조치원파닭&피자","tel":"031-678-3367","addr":"경기도 부천시 여월동 333번지 DS타워 106호","category":"일반휴게음식 - 스넥"},{"name":"카페르봉(cafe le bon)","tel":"032-677-3367","addr":"경기도 부천시 여월동 333번지","category":"일반휴게음식 - 서양음식"}]},{"lat":"37.516428523","long":"126.80287602","items":[{"name":"디자인가온","tel":"070-1111-1111","addr":"경기도 부천시 여월동 10-20번지 1층","category":"용역 서비스 - 사무서비스"}]},{"lat":"37.510927971","long":"126.80554865","items":[{"name":"뚜레쥬르 부천여월(2)","tel":"032-671-0680","addr":"경기도 부천시 여월동 330번지 폴리프라자 108호","category":"음료식품 - 제과점"},{"name":"미가헤어","tel":"032-683-7737","addr":"경기도 부천시 여월동 330번지 폴리프라자 107호","category":"보건위생 - 미용원"},{"name":"삼성키즈소아청소년과의원","tel":"032-678-1781","addr":"경기도 부천시 여월동 330번지 폴리프라자 2층 210호","category":"의원 - 의원"},{"name":"셀렉토커피부천여월점","tel":"074-114-7479","addr":"경기도 부천시 여월동 330번지 폴리프라자 105호","category":"일반휴게음식 - 서양음식"},{"name":"어울마당","tel":"032-677-5280","addr":"경기도 부천시 여월동 330번지 폴리프라자 101,102호","category":"일반휴게음식 - 일반한식"},{"name":"연두약국","tel":"032-684-0253","addr":"경기도 부천시 여월동 330번지 폴리프라자 201호","category":"약국 - 약국"},{"name":"정직한정육점","tel":"032-675-9341","addr":"경기도 부천시 여월동 330번지 폴리프라자 106호","category":"음료식품 - 정육점"},{"name":"해법샐리보습학원","tel":"032-682-6802","addr":"경기도 부천시 여월동 330번지 폴리프라자 202호","category":"학원 - 보습학원"}]},{"lat":"37.519896415","long":"126.79709775","items":[{"name":"랑이네-일","tel":"032-682-7664","addr":"경기도 부천시 여월동 6-7번지 101호","category":"보건위생 - 피부미용실"},{"name":"태봉이네","tel":"","addr":"경기도 부천시 여월동 6-7번지","category":"음료식품 - 기타음료식품"}]},{"lat":"37.518312235","long":"126.79799571","items":[{"name":"루미에르아트 미술교습소","tel":"070-7484-5122","addr":"경기도 부천시 여월동 47-16번지 가람채 가동 203호","category":"학원 - 예·체능계학원"},{"name":"모닝잉글리쉬영어교습소","tel":"070-7845-1215","addr":"경기도 부천시 여월동 47-16번지 가람채 가동 2층 203호 우측일부","category":"학원 - 외국어학원"},{"name":"트라이스톤주짓수","tel":"","addr":"경기도 부천시 여월동 47-16번지 가람채상가 3층","category":"레저업소 - 헬스클럽"}]},{"lat":"37.516896901","long":"126.80279559","items":[{"name":"리더싸인","tel":"070-8776-2222","addr":"경기도 부천시 여월동 10-49번지 1층","category":"건축자재 - 기타건축자재"},{"name":"성곡운동화세탁방","tel":"032-677-1340","addr":"경기도 부천시 여월동 10-49번지 1층 102호","category":"수리서비스 - 세탁소"}]},{"lat":"37.520199467","long":"126.80041129","items":[{"name":"리본쟁이","tel":"","addr":"경기도 부천시 여월동 2-16번지 월산장미아파트","category":"신변잡화 - 액세서리"}]},{"lat":"37.516454325","long":"126.80215203","items":[{"name":"리즈헤어샵","tel":"032-677-9945","addr":"경기도 부천시 여월동 10-13번지","category":"보건위생 - 미용원"}]},{"lat":"37.516896249","long":"126.80241101","items":[{"name":"만물상회","tel":"032-672-6996","addr":"경기도 부천시 여월동 10-34번지 정우상가 1층 102호","category":"음료식품 - 농·축·수산품"},{"name":"홍가네 김치찌개","tel":"032-681-5585","addr":"경기도 부천시 여월동 10-34번지 정우상가주택 105호","category":"일반휴게음식 - 일반한식"}]},{"lat":"37.516624472","long":"126.80154076","items":[{"name":"매직카자동차용품","tel":"","addr":"경기도 부천시 여월동 10-7번지 1층","category":"자동차정비 유지 - 자동차부품"},{"name":"현대오토바이","tel":"032-205-5479","addr":"경기도 부천시 여월동 10-7번지 1층","category":"자동차판매 - 이륜차판매"}]},{"lat":"37.519898733","long":"126.79843254","items":[{"name":"머리예술","tel":"032-466-6642","addr":"경기도 부천시 여월동 3-48번지 2층","category":"보건위생 - 미용원"},{"name":"아이사랑피아노음악학원","tel":"032-676-2579","addr":"경기도 부천시 여월동 3-48번지 2층","category":"학원 - 예·체능계학원"},{"name":"화미불닭발","tel":"032-675-8828","addr":"경기도 부천시 여월동 3-48번지 1층","category":"일반휴게음식 - 일반한식"}]},{"lat":"37.519731726","long":"126.79566161","items":[{"name":"메아리노래방","tel":"032-684-9195","addr":"경기도 부천시 여월동 52-11번지","category":"레저업소 - 노 래 방"}]},{"lat":"37.51953671","long":"126.79749465","items":[{"name":"명품족발","tel":"032-675-8606","addr":"경기도 부천시 여월동 6-42번지","category":"일반휴게음식 - 일반한식"},{"name":"빅스타피자 부천원종점","tel":"032-674-7440","addr":"경기도 부천시 여월동 6-42번지 1층 우측2번째호","category":"일반휴게음식 - 서양음식"},{"name":"생활의달인김영일국밥","tel":"032-676-8385","addr":"경기도 부천시 여월동 6-42번지","category":"일반휴게음식 - 일반한식"},{"name":"위너스보습학원","tel":"032-677-7799","addr":"경기도 부천시 여월동 6-42번지 2층","category":"학원 - 보습학원"},{"name":"카페동네","tel":"070-4196-7494","addr":"경기도 부천시 여월동 6-42번지 1층","category":"일반휴게음식 - 서양음식"}]},{"lat":"37.51870745","long":"126.79729331","items":[{"name":"뮤엠여월캠퍼스영어교습소","tel":"032-678-0582","addr":"경기도 부천시 여월동 54-8번지 1층","category":"학원 - 외국어학원"},{"name":"우리슈퍼","tel":"032-672-2882","addr":"경기도 부천시 여월동 54-8번지 그린상가 1층","category":"유통업 영리 - 슈퍼마켓"},{"name":"클라라음악학원","tel":"032-672-2882","addr":"경기도 부천시 여월동 54-8번지 2층","category":"학원 - 예·체능계학원"}]},{"lat":"37.516312294","long":"126.80340796","items":[{"name":"미락김밥","tel":"032-683-1005","addr":"경기도 부천시 여월동 10-37번지","category":"일반휴게음식 - 일반한식"},{"name":"세븐노래연습장","tel":"032-671-1390","addr":"경기도 부천시 여월동 10-37번지","category":"레저업소 - 노 래 방"},{"name":"우리찹쌀꽈배기","tel":"","addr":"경기도 부천시 여월동 10-37번지 1층","category":"음료식품 - 기타음료식품"},{"name":"인더라인","tel":"","addr":"경기도 부천시 여월동 10-37번지 1층","category":"유통업 영리 - 편 의 점"},{"name":"인생술집","tel":"","addr":"경기도 부천시 여월동 10-37번지 2층 일부","category":"일반휴게음식 - 주점"},{"name":"프랭크서울","tel":"032-676-5655","addr":"경기도 부천시 여월동 10-37번지 1층","category":"일반휴게음식 - 스넥"}]},{"lat":"37.519283982","long":"126.79723517","items":[{"name":"민재떡방","tel":"","addr":"경기도 부천시 여월동 5-2번지 1층 1호","category":"음료식품 - 제과점"},{"name":"여성의류끌림","tel":"032-682-8293","addr":"경기도 부천시 여월동 5-2번지 1층 2호","category":"의류 - 정장"},{"name":"요셉인테리어목공기술건축학원","tel":"032-678-3650","addr":"경기도 부천시 여월동 5-2번지 4층","category":"학원 - 기능학원"},{"name":"행운당구장","tel":"070-4896-1482","addr":"경기도 부천시 여월동 5-2번지 지층","category":"레저업소 - 당 구 장"}]},{"lat":"37.507785475","long":"126.79615835","items":[{"name":"박승광최강해물손칼국수","tel":"032-673-7779","addr":"경기도 부천시 여월동 130-6번지 1,2층","category":"일반휴게음식 - 일반한식"},{"name":"희망정","tel":"032-673-7779","addr":"경기도 부천시 여월동 130-6번지","category":"일반휴게음식 - 일반한식"}]},{"lat":"37.515618726","long":"126.80352291","items":[{"name":"베가다니엘 부천오정구","tel":"032-8648-4559","addr":"경기도 부천시 여월동 48-6번지 1층","category":"기타 - 기타 전문점"},{"name":"이오네일","tel":"070-7769-2525","addr":"경기도 부천시 여월동 48-6번지 1층 일부","category":"보건위생 - 피부미용실"},{"name":"한마음종합상사","tel":"032-675-7252","addr":"경기도 부천시 여월동 48-6번지","category":"전기제품 - 가전제품"}]},{"lat":"37.520980599","long":"126.7988255","items":[{"name":"베스트헤어","tel":"032-671-7549","addr":"경기도 부천시 여월동 1-39번지 1층","category":"보건위생 - 미용원"}]},{"lat":"37.508761202","long":"126.79768252","items":[{"name":"별꽃세상","tel":"032-679-5222","addr":"경기도 부천시 여월동 158-10번지","category":"문화.취미 - 화원"}]},{"lat":"37.520254971","long":"126.79604477","items":[{"name":"보석장","tel":"032-671-0918","addr":"경기도 부천시 여월동 4-38번지","category":"신변잡화 - 시계"},{"name":"신물보라노래연습장","tel":"032-681-8442","addr":"경기도 부천시 여월동 4-38번지","category":"레저업소 - 노 래 방"},{"name":"정가포차","tel":"","addr":"경기도 부천시 여월동 4-38번지 2층","category":"일반휴게음식 - 주점"},{"name":"헤어플러스","tel":"032-672-7725","addr":"경기도 부천시 여월동 4-38번지 1층","category":"보건위생 - 미용원"}]},{"lat":"37.518699835","long":"126.79809646","items":[{"name":"복구야! PC야!","tel":"","addr":"경기도 부천시 여월동 5-8번지 로얄빌라 401호","category":"수리서비스 - 사무·통신기기수리"}]},{"lat":"37.51745509","long":"126.80254525","items":[{"name":"복음슈퍼","tel":"032-674-3801","addr":"경기도 부천시 여월동 9-29번지 정우주택 나동 101호","category":"유통업 영리 - 슈퍼마켓"}]},{"lat":"37.514261938","long":"126.80040471","items":[{"name":"부천오정경찰서","tel":"032-670-2225","addr":"경기도 부천시 여월동 304번지","category":"유통업 비영리 - 구내매점(국가기관"},{"name":"부천오정경찰서 복지위원회","tel":"032-670-2225","addr":"경기도 부천시 여월동 304번지 5층 후생관","category":"일반휴게음식 - 위탁급식업"}]},{"lat":"37.519677265","long":"126.80062762","items":[{"name":"비에스(BS)수산","tel":"032-675-5412","addr":"경기도 부천시 여월동 7-53번지 1층","category":"일반휴게음식 - 일반한식"},{"name":"여월노래연습장","tel":"032-681-1087","addr":"경기도 부천시 여월동 7-53번지 지층","category":"레저업소 - 노 래 방"},{"name":"오띠모S라인","tel":"070-2358-5964","addr":"경기도 부천시 여월동 7-53번지 1층 2호","category":"의류 - 내의판매"},{"name":"조은지압안마원","tel":"032-279-6200","addr":"경기도 부천시 여월동 7-53번지 2층","category":"보건위생 - 안마시술소"}]},{"lat":"37.519505685","long":"126.79520977","items":[{"name":"뽀글이","tel":"032-676-5881","addr":"경기도 부천시 여월동 52-6번지 뉴월드빌라 가동 102호","category":"보건위생 - 미용원"},{"name":"아지트포차","tel":"032-8254-6348","addr":"경기도 부천시 여월동 52-6번지 뉴월드빌라","category":"일반휴게음식 - 일반한식"}]},{"lat":"37.509568516","long":"126.79563316","items":[{"name":"사단법인한국전통민요협회경기민요부천전수","tel":"032-671-0723","addr":"경기도 부천시 여월동 98-5번지 중요문화재부천전수관내","category":"학원 - 예·체능계학원"}]},{"lat":"37.517592251","long":"126.79846145","items":[{"name":"사진친구","tel":"032-678-4779","addr":"경기도 부천시 여월동 44-11번지 모던하우스 1층 101호","category":"광학제품 - 사진관"}]},{"lat":"37.50751223","long":"126.80495821","items":[{"name":"산마루들녘에","tel":"032-678-6506","addr":"경기도 부천시 여월동 239-16번지","category":"일반휴게음식 - 일반한식"}]},{"lat":"37.508566411","long":"126.79449361","items":[{"name":"산야초12","tel":"032-672-5005","addr":"경기도 부천시 여월동 138번지 1층전체","category":"일반휴게음식 - 일반한식"}]},{"lat":"37.509006005","long":"126.80384588","items":[{"name":"산촌","tel":"032-675-7070","addr":"경기도 부천시 여월동 226-5번지","category":"일반휴게음식 - 일반한식"},{"name":"산촌","tel":"032-675-7070","addr":"경기도 부천시 여월동 226-5번지","category":"일반휴게음식 - 일반한식"}]},{"lat":"37.510398888","long":"126.79646783","items":[{"name":"샘물화원","tel":"032-675-7122","addr":"경기도 부천시 여월동 91-4","category":"문화.취미 - 화원"}]},{"lat":"37.520759581","long":"126.79607731","items":[{"name":"서구뷰티샵","tel":"032-677-8883","addr":"경기도 부천시 여월동 4-13번지","category":"보건위생 - 미용원"},{"name":"최해련피부관리","tel":"032-679-7553","addr":"경기도 부천시 여월동 4-13번지 1층","category":"회원제형태 - 기타4"}]},{"lat":"37.518560044","long":"126.80063064","items":[{"name":"서란헤어샵","tel":"032-678-4539","addr":"경기도 부천시 여월동 7-64번지 1층 3호","category":"보건위생 - 미용원"},{"name":"홍's 떡볶이","tel":"032-678-9007","addr":"경기도 부천시 여월동 7-64번지 1층 1호","category":"일반휴게음식 - 일반한식"}]},{"lat":"37.516591466","long":"126.80332803","items":[{"name":"성곡동주민자치위원회","tel":"032-679-2620","addr":"경기도 부천시 여월동 10-36번지","category":"문화.취미 - 문화취미기타"}]},{"lat":"37.509319971","long":"126.79777147","items":[{"name":"성주목공예","tel":"032-653-4151","addr":"경기도 부천시 여월동 95-3","category":"문화.취미 - 민예·공예품"}]},{"lat":"37.51856076","long":"126.80104916","items":[{"name":"세기유통","tel":"","addr":"경기도 부천시 여월동 7-118번지 대림아트빌라 302호","category":"유통업 영리 - 기타유통업"}]},{"lat":"37.520840333","long":"126.79588478","items":[{"name":"세양전자","tel":"032-679-8557","addr":"경기도 부천시 여월동 4-4번지","category":"기타 - 기계공구"},{"name":"어처구니포차","tel":"070-7350-7034","addr":"경기도 부천시 여월동 4-4번지 1층","category":"일반휴게음식 - 일반한식"},{"name":"에스이(SE)글로벌영어수학보습학원","tel":"","addr":"경기도 부천시 여월동 4-4번지 2층 일부","category":"학원 - 외국어학원"},{"name":"왔다실비식당","tel":"032-682-0857","addr":"경기도 부천시 여월동 4-4번지 1층","category":"일반휴게음식 - 일반한식"},{"name":"주마루","tel":"032-683-7042","addr":"경기도 부천시 여월동 4-4번지 1층","category":"일반휴게음식 - 일반한식"},{"name":"투다리여월점","tel":"032-679-6323","addr":"경기도 부천시 여월동 4-4번지 1층","category":"일반휴게음식 - 칵테일바"},{"name":"햇빛과단비음악학원","tel":"032-683-4867","addr":"경기도 부천시 여월동 4-4번지","category":"학원 - 예·체능계학원"}]},{"lat":"37.507397199","long":"126.80621392","items":[{"name":"세일차바닥","tel":"032-676-4433","addr":"경기도 부천시 여월동 344번지 101호","category":"자동차정비 유지 - 자동차부품"},{"name":"아지트","tel":"032-611-7727","addr":"경기도 부천시 여월동 344번지","category":"자동차정비 유지 - 자동차정비"}]},{"lat":"37.52014798","long":"126.79668984","items":[{"name":"센스화장품","tel":"032-675-7994","addr":"경기도 부천시 여월동 4-56번지","category":"보건위생 - 화장품"},{"name":"엠티(MT)여월마당","tel":"032-673-3555","addr":"경기도 부천시 여월동 4-56번지 1층","category":"일반휴게음식 - 일반한식"}]},{"lat":"37.518409251","long":"126.80202236","items":[{"name":"소망열쇠","tel":"031-675-8200","addr":"경기도 부천시 여월동 8-10번지 다온펠리스빌 가동 1층 101호","category":"기타 - 기계공구"}]},{"lat":"37.506730588","long":"126.79574279","items":[{"name":"소사복층유리","tel":"032-671-2600","addr":"경기도 부천시 여월동 131-6번지","category":"건축자재 - 유리"}]},{"lat":"37.516788917","long":"126.80287506","items":[{"name":"송림전력","tel":"032-682-0627","addr":"경기도 부천시 여월동 10-35번지 1층","category":"기타 - 기계공구"}]},{"lat":"37.511731214","long":"126.80102231","items":[{"name":"송화음악교습소","tel":"032-682-7749","addr":"경기도 부천시 여월동 316번지 휴먼시아5단지 상가 203호","category":"학원 - 예·체능계학원"},{"name":"실타래의꿈","tel":"032-678-2823","addr":"경기도 부천시 여월동 316번지 여월휴먼시아5단지아파트","category":"문화.취미 - 문화취미기타"},{"name":"푸른들녘","tel":"070-8945-3313","addr":"경기도 부천시 여월동 316번지 여월휴먼시아5단지아파트","category":"음료식품 - 농·축·수산품"}]},{"lat":"37.507089977","long":"126.80568316","items":[{"name":"스키비자동차공업사","tel":"032-672-5212","addr":"경기도 부천시 여월동 342번지 은행나무주유소영업동","category":"자동차정비 유지 - 자동차정비"}]},{"lat":"37.520534909","long":"126.79640597","items":[{"name":"스페이스탄성","tel":"031-111-1111","addr":"경기도 부천시 여월동 4-44번지 한빛그랜드빌라 B01호","category":"용역 서비스 - 기타용역서비스"}]},{"lat":"37.517262277","long":"126.80043053","items":[{"name":"스피드모터스","tel":"032-682-3874","addr":"경기도 부천시 여월동 9-30번지","category":"자동차정비 유지 - 자동차부품"},{"name":"주식회사 에이큐엠","tel":"032-677-5559","addr":"경기도 부천시 여월동 9-30번지","category":"문화.취미 - 수족관"}]},{"lat":"37.517539111","long":"126.79899323","items":[{"name":"신대장의 반찬만찬.금토치킨","tel":"02-1111-1111","addr":"경기도 부천시 여월동 44-5번지 에버하우스 A동 1층 101호","category":"음료식품 - 기타음료식품"}]},{"lat":"37.518817257","long":"126.79826581","items":[{"name":"신아상사","tel":"032-672-4273","addr":"경기도 부천시 여월동 5-7번지 로얄골드빌라 101동 102호","category":"서적문구 - 완구점"}]},{"lat":"37.516400515","long":"126.80229922","items":[{"name":"신안타일","tel":"032-675-6758","addr":"경기도 부천시 여월동 10-17번지 1층","category":"건축자재 - 건축용 요업제품"}]},{"lat":"37.517172895","long":"126.8008493","items":[{"name":"썬-월드(Sun-World)","tel":"032-683-1801","addr":"경기도 부천시 여월동 9-8번지","category":"전기제품 - 가전제품"}]},{"lat":"37.518837134","long":"126.79934036","items":[{"name":"씨유여월라온점","tel":"032-662-3088","addr":"경기도 부천시 여월동 7-125번지 신원프린스 B동 101호","category":"유통업 영리 - 편 의 점"}]},{"lat":"37.519647376","long":"126.79896487","items":[{"name":"아타비아","tel":"","addr":"경기도 부천시 여월동 7-124번지 블루힐 B동 403호","category":"보건위생 - 화장품"},{"name":"투미헤어샵","tel":"","addr":"경기도 부천시 여월동 7-124번지 블루힐 1층 101호","category":"보건위생 - 미용원"}]},{"lat":"37.521093421","long":"126.79634788","items":[{"name":"아트퀸 기능성 속옷","tel":"032-654-2589","addr":"경기도 부천시 여월동 4-18번지 한성빌라 202호","category":"의류 - 내의판매"},{"name":"와이엠컴퍼티(YM강원)","tel":"070-4117-8254","addr":"경기도 부천시 여월동 4-18번지 한성빌라 301호","category":"음료식품 - 기타음료식품"},{"name":"해마루","tel":"","addr":"경기도 부천시 여월동 4-18번지 한성빌라 103호","category":"건축자재 - 인테리어전문"}]},{"lat":"37.510844245","long":"126.79354851","items":[{"name":"안골보리밥","tel":"032-684-2223","addr":"경기도 부천시 여월동 121-2번지 1층","category":"일반휴게음식 - 일반한식"}]},{"lat":"37.515616047","long":"126.79671362","items":[{"name":"알지비뷰티케어","tel":"031-418-0595","addr":"경기도 부천시 여월동 71-4번지","category":"보건위생 - 미용재료"}]},{"lat":"37.519676974","long":"126.80045795","items":[{"name":"언덕길","tel":"032-673-9298","addr":"경기도 부천시 여월동 7-31번지","category":"일반휴게음식 - 주점"}]},{"lat":"37.514872261","long":"126.80432798","items":[{"name":"에스앤비","tel":"032-683-7640","addr":"경기도 부천시 여월동 48-41번지","category":"보건위생 - 화장품"}]},{"lat":"37.518540218","long":"126.79957871","items":[{"name":"엘리트 컴퓨터","tel":"070-4686-9412","addr":"경기도 부천시 여월동 7-85번지 우리빌딩 1층","category":"수리서비스 - 사무·통신기기수리"}]},{"lat":"37.516976954","long":"126.80218456","items":[{"name":"엠에이치 미트","tel":"032-675-0779","addr":"경기도 부천시 여월동 10-51번지 삼성다빈치 A동 101호","category":"음료식품 - 정육점"}]},{"lat":"37.511563205","long":"126.79251725","items":[{"name":"여월","tel":"032-683-5880","addr":"경기도 부천시 여월동 117-1번지","category":"일반휴게음식 - 일반한식"}]},{"lat":"37.507930961","long":"126.80215223","items":[{"name":"여월 포도 농장","tel":"","addr":"경기도 부천시 여월동 산47번지 1층","category":"음료식품 - 농·축·수산품"}]},{"lat":"37.519454459","long":"126.79682749","items":[{"name":"여월도당점굽네치킨","tel":"032-672-9294","addr":"경기도 부천시 여월동 5번지 대원스카이빌 11호","category":"일반휴게음식 - 스넥"},{"name":"해도참치","tel":"032-678-4101","addr":"경기도 부천시 여월동 5번지 대원스카이빌 1층 12호","category":"일반휴게음식 - 일식·회집"}]},{"lat":"37.520507147","long":"126.79598751","items":[{"name":"여월동생고기","tel":"032-672-8201","addr":"경기도 부천시 여월동 4-32번지 대향빌딩 1층 102호","category":"일반휴게음식 - 일반한식"},{"name":"제노피씨방(제노PC방)","tel":"070-3133-5745","addr":"경기도 부천시 여월동 4-32번지 대향빌딩 201호","category":"레저업소 - 기타레져업소"},{"name":"짚누리","tel":"032-683-9295","addr":"경기도 부천시 여월동 4-32번지 대향빌딩 103호","category":"일반휴게음식 - 일반한식"},{"name":"호타준족","tel":"032-277-8281","addr":"경기도 부천시 여월동 4-32번지 대향빌딩 1층","category":"일반휴게음식 - 일반한식"}]},{"lat":"37.517782475","long":"126.79904913","items":[{"name":"여월별채","tel":"","addr":"경기도 부천시 여월동 44-9번지 1층","category":"일반휴게음식 - 서양음식"}]},{"lat":"37.51861745","long":"126.79735012","items":[{"name":"여월초 셀파공부방","tel":"070-7640-0414","addr":"경기도 부천시 여월동 54-13번지 시그마빌 B01호","category":"학원 - 기타 교육기관"}]},{"lat":"37.514617491","long":"126.79759862","items":[{"name":"영림원","tel":"032-673-9835","addr":"경기도 부천시 여월동 74-4번지","category":"문화.취미 - 화원"},{"name":"예림원","tel":"032-678-3882","addr":"경기도 부천시 여월동 74-4번지","category":"문화.취미 - 화원"}]},{"lat":"37.518590086","long":"126.7971579","items":[{"name":"영아트","tel":"032-676-9228","addr":"경기도 부천시 여월동 54-18번지 1층","category":"서적문구 - 문구용품"}]},{"lat":"37.519228917","long":"126.79665843","items":[{"name":"예쁜아이속눈썹","tel":"","addr":"경기도 부천시 여월동 52-7번지 1층","category":"보건위생 - 피부미용실"},{"name":"일광종합설비","tel":"032-679-7607","addr":"경기도 부천시 여월동 52-7번지 1층 1호","category":"용역 서비스 - 기타용역서비스"},{"name":"헤어코코리","tel":"032-672-1138","addr":"경기도 부천시 여월동 52-7번지","category":"보건위생 - 미용원"}]},{"lat":"37.50639849","long":"126.79646753","items":[{"name":"예은조경","tel":"032-677-7076","addr":"경기도 부천시 여월동 산37-3","category":"건축자재 - 인테리어전문"}]},{"lat":"37.519644336","long":"126.79721156","items":[{"name":"예지헤어숍","tel":"032-681-9764","addr":"경기도 부천시 여월동 6-10번지 1층","category":"보건위생 - 미용원"},{"name":"진솔음악학원","tel":"032-679-5353","addr":"경기도 부천시 여월동 6-10번지 2층","category":"학원 - 예·체능계학원"}]},{"lat":"37.518929312","long":"126.80055046","items":[{"name":"온누리정보통신","tel":"032-678-1555","addr":"경기도 부천시 여월동 7-115번지에이원빌라다동지2","category":"사무통신 - 통신기기"}]},{"lat":"37.517756206","long":"126.79949035","items":[{"name":"요거프레소 여월점","tel":"032-671-7300","addr":"경기도 부천시 여월동 44-76번지","category":"일반휴게음식 - 서양음식"}]},{"lat":"37.517541214","long":"126.80021486","items":[{"name":"원영int","tel":"032-324-1404","addr":"경기도 부천시 여월동 9-38번지 1층","category":"용역 서비스 - 기타용역서비스"}]},{"lat":"37.520448822","long":"126.79871383","items":[{"name":"월드스포츠","tel":"070-7556-3245","addr":"경기도 부천시 여월동 3-77번지","category":"의류 - 정장"}]},{"lat":"37.521462052","long":"126.79590569","items":[{"name":"은성냉열","tel":"032-681-0505","addr":"경기도 부천시 여월동 1-53 레스빌2-302","category":"용역 서비스 - 기타용역서비스"}]},{"lat":"37.519762054","long":"126.79755059","items":[{"name":"은성시스템","tel":"","addr":"경기도 부천시 여월동 6-41번지 초원빌라 1동 203호","category":"용역 서비스 - 기타용역서비스"}]},{"lat":"37.519622391","long":"126.80015268","items":[{"name":"음매꿀꿀정육점","tel":"032-672-4290","addr":"경기도 부천시 여월동 7-19번지 목화빌라 가동 104호","category":"음료식품 - 정육점"},{"name":"종합마트","tel":"032-681-1247","addr":"경기도 부천시 여월동 7-19번지 목화빌라 가동 102호","category":"음료식품 - 기타음료식품"},{"name":"탑포인트","tel":"032-671-3057","addr":"경기도 부천시 여월동 7-19번지 목화주택 1층 101호","category":"유통업 영리 - 편 의 점"},{"name":"파티누보","tel":"032-671-0531","addr":"경기도 부천시 여월동 7-19번지 목화주택 104호","category":"일반휴게음식 - 일반한식"},{"name":"황금노가리1","tel":"032-672-0098","addr":"경기도 부천시 여월동 7-19번지 목화주택 103호","category":"일반휴게음식 - 일반한식"}]},{"lat":"37.51692959","long":"126.80082733","items":[{"name":"이디야(성곡동점)","tel":"032-671-7444","addr":"경기도 부천시 여월동 10번지 한양리더스빌","category":"일반휴게음식 - 서양음식"}]},{"lat":"37.520029685","long":"126.79602277","items":[{"name":"이디야커피 부천여월점","tel":"032-682-2144","addr":"경기도 부천시 여월동 52-1번지 엘지타운 1동 101호","category":"일반휴게음식 - 서양음식"}]},{"lat":"37.516535144","long":"126.80199345","items":[{"name":"정비와세차마을","tel":"032-682-1756","addr":"경기도 부천시 여월동 10-12번지","category":"자동차정비 유지 - 자동차정비"}]},{"lat":"37.518462606","long":"126.79638906","items":[{"name":"정희네족발","tel":"032-682-4863","addr":"경기도 부천시 여월동 54-2번지 자유맨션 A동 302호","category":"음료식품 - 기타음료식품"}]},{"lat":"37.51931862","long":"126.79643195","items":[{"name":"제이엠불스","tel":"","addr":"경기도 부천시 여월동 52-2번지 1층","category":"자동차정비 유지 - 자동차부품"},{"name":"태진공조","tel":"032-676-5371","addr":"경기도 부천시 여월동 52-2번지","category":"수리서비스 - 가정용품수리"}]},{"lat":"37.516705137","long":"126.8012917","items":[{"name":"제일모터스 (자동차전문정비업)","tel":"032-678-3988","addr":"경기도 부천시 여월동 10-5번지 1층","category":"자동차정비 유지 - 자동차정비"}]},{"lat":"37.519993388","long":"126.79587581","items":[{"name":"좋은사람들","tel":"032-676-7979","addr":"경기도 부천시 여월동 52-26번지 엘지타운 2동 101호","category":"일반휴게음식 - 주점"}]},{"lat":"37.516957991","long":"126.80163036","items":[{"name":"중국관","tel":"032-672-4875","addr":"경기도 부천시 여월동 10-10번지 극동 상가 106호","category":"일반휴게음식 - 중국식"}]},{"lat":"37.519707168","long":"126.79707565","items":[{"name":"지코바치킨 여월점","tel":"032-675-9290","addr":"경기도 부천시 여월동 6-5번지 1층 우측","category":"일반휴게음식 - 스넥"},{"name":"홍테크(Hong Tech)","tel":"032-679-2119","addr":"경기도 부천시 여월동 6-5번지 1층","category":"사무통신 - 컴퓨터"}]},{"lat":"37.517956848","long":"126.80090374","items":[{"name":"진양천막산업","tel":"032-676-5426","addr":"경기도 부천시 여월동 8-5번지","category":"직물 - 카페트,커튼,천막,지물"}]},{"lat":"37.51628404","long":"126.80268411","items":[{"name":"찜나라","tel":"032-678-3790","addr":"경기도 부천시 여월동 10-43번지 1층","category":"일반휴게음식 - 일반한식"}]},{"lat":"37.514924624","long":"126.80332116","items":[{"name":"착하게 살자","tel":"02-1588-3366","addr":"경기도 부천시 여월동 48-19번지 중앙아트빌 401호","category":"용역 서비스 - 기타용역서비스"}]},{"lat":"37.514924299","long":"126.80312888","items":[{"name":"착한나무","tel":"032-205-8339","addr":"경기도 부천시 여월동 48-18번지","category":"용역 서비스 - 종합용역"}]},{"lat":"37.517534621","long":"126.80162881","items":[{"name":"청우마트","tel":"032-678-6354","addr":"경기도 부천시 여월동 9-23번지 창우노블리안 1층 101~103호","category":"유통업 영리 - 슈퍼마켓"}]},{"lat":"37.520174417","long":"126.79635041","items":[{"name":"크린토피아부천여월점","tel":"032-678-0020","addr":"경기도 부천시 여월동 4-47번지 1층","category":"수리서비스 - 세탁소"}]},{"lat":"37.521296099","long":"126.79891514","items":[{"name":"태영건축설비","tel":"032-671-1816","addr":"경기도 부천시 여월동 1-37번지 금보빌라 다동 101호","category":"용역 서비스 - 기타용역서비스"}]},{"lat":"37.519899026","long":"126.79860221","items":[{"name":"토우축산","tel":"032-677-9275","addr":"경기도 부천시 여월동 3-49번지","category":"음료식품 - 정육점"}]},{"lat":"37.516535759","long":"126.80235541","items":[{"name":"포토키즈","tel":"031-1644-1030","addr":"경기도 부천시 여월동 10-16번지 1층","category":"광학제품 - 사진관"}]},{"lat":"37.516230268","long":"126.80285392","items":[{"name":"피자알볼로 원종점","tel":"032-672-8495","addr":"경기도 부천시 여월동 10-42번지 1층","category":"일반휴게음식 - 서양음식"}]},{"lat":"37.520644724","long":"126.79737849","items":[{"name":"한신시스템","tel":"070-4150-5894","addr":"경기도 부천시 여월동 3-63번지 제이팰리스 202호","category":"보건위생 - 화장품"}]},{"lat":"37.519552678","long":"126.79631819","items":[{"name":"한올한올","tel":"032-678-3688","addr":"경기도 부천시 여월동 52-33번지 엘지타운 7동 101호","category":"직물 - 침구·수예점"}]},{"lat":"37.511898534","long":"126.79877106","items":[{"name":"해마루마을","tel":"032-677-0567","addr":"경기도 부천시 여월동 87-1번지 1층","category":"일반휴게음식 - 일반한식"}]},{"lat":"37.5193973","long":"126.80024378","items":[{"name":"해바라기미용실","tel":"032-673-0777","addr":"경기도 부천시 여월동 7-21번지","category":"보건위생 - 미용원"}]},{"lat":"37.519699948","long":"126.79810504","items":[{"name":"행복한도장","tel":"032-674-3566","addr":"경기도 부천시 여월동 6-21번지 미도빌라 1동 103호","category":"회원제형태 - 기타4"}]},{"lat":"37.516617404","long":"126.80268322","items":[{"name":"현대식당","tel":"032-679-6552","addr":"경기도 부천시 여월동 10-26번지","category":"일반휴게음식 - 일반한식"}]},{"lat":"37.521479794","long":"126.79574727","items":[{"name":"황금동태(여월점)","tel":"032-671-4344","addr":"경기도 부천시 여월동 1-35번지 레스빌 1동 101호","category":"일반휴게음식 - 일반한식"}]}]