[{"lat":"37.014883299","long":"127.03181603","items":[{"name":"(주)용연산업","tel":"031-665-4044","addr":"경기도 평택시 고덕면 방축리 618번지","category":"건축자재 - 기타건축자재"}]},{"lat":"37.016438947","long":"127.04283987","items":[{"name":"(주)테라그린","tel":"02-2671-3157","addr":"경기도 평택시 고덕면 방축리 528-2번지 (주)테라그린","category":"농업 - 비료,사료,종자"}]},{"lat":"37.019014179","long":"127.04792039","items":[{"name":"1985커피","tel":"","addr":"경기도 평택시 고덕면 방축리 229-6번지","category":"음식점 - 카페"},{"name":"1985커피","tel":"031-663-1985","addr":"경기도 평택시 고덕면 방축리 229-6번지","category":"음료식품 - 기타음료식품"},{"name":"오륜스포츠 평택점","tel":"031-663-1985","addr":"경기도 평택시 고덕면 방축리 229-6번지 B동","category":"레져용품 - 스포츠·레져용품"}]},{"lat":"37.015243665","long":"127.03206337","items":[{"name":"LH금속샤링","tel":"031-666-1567","addr":"경기도 평택시 고덕면 방축리 671-14번지","category":"건축자재 - 기타건축자재"},{"name":"대성특수용접","tel":"031-684-7042","addr":"경기도 평택시 고덕면 방축리 671-14번지","category":"용역 서비스 - 기타용역서비스"},{"name":"에어컨마트","tel":"031-663-5123","addr":"경기도 평택시 고덕면 방축리 671-14번지","category":"회원제형태 - 기타4"}]},{"lat":"37.015459968","long":"127.03187243","items":[{"name":"emart24 평택고덕대로점","tel":"","addr":"경기도 평택시 고덕면 방축리 670-9번지 1층","category":"유통업 영리 - 편 의 점"},{"name":"유학온고기","tel":"031-667-6665","addr":"경기도 평택시 고덕면 방축리 670-9번지","category":"도소매업 - 정육"},{"name":"유학온고기","tel":"031-664-2633","addr":"경기도 평택시 고덕면 방축리 670-9번지","category":"음료식품 - 정육점"},{"name":"이마트24 평택고덕대로점","tel":"","addr":"경기도 평택시 고덕면 방축리 670-9번지","category":"소매업 - 편의점"}]},{"lat":"37.017215092","long":"127.0390085","items":[{"name":"㈜간판스타","tel":"","addr":"경기도 평택시 고덕면 방축리 438-6번지","category":"제조업 - 인쇄"}]},{"lat":"37.015459152","long":"127.03504115","items":[{"name":"가평식당","tel":"031-663-1230","addr":"경기도 평택시 고덕면 방축리 649-7번지","category":"음식점 - 한식"},{"name":"갈비다운 숯불갈비","tel":"031-662-3877","addr":"경기도 평택시 고덕면 방축리 649-7번지 A동 1층","category":"음식점 - 한식"},{"name":"갈비다운숯불갈비","tel":"031-666-3092","addr":"경기도 평택시 고덕면 방축리 649-7번지 A동 1층","category":"일반휴게음식 - 일반한식"},{"name":"갈비다운숯불갈비","tel":"031-667-5567","addr":"경기도 평택시 고덕면 방축리 649-7번지","category":"음식점 - 한식"},{"name":"미소예인스킨케어","tel":"031-663-3688","addr":"경기도 평택시 고덕면 방축리 649-7번지 (C동 205호,206호)","category":"보건위생 - 화장품"},{"name":"섬마을","tel":"031-667-4006","addr":"경기도 평택시 고덕면 방축리 649-7번지 C동","category":"음식점 - 한식"},{"name":"섬마을","tel":"031-664-0012","addr":"경기도 평택시 고덕면 방축리 649-7번지 C동","category":"일반휴게음식 - 일반한식"},{"name":"소야공방","tel":"031-667-8010","addr":"경기도 평택시 고덕면 방축리 649-7번지 가평상가 C동 203호","category":"문화.취미 - 민예·공예품"},{"name":"은실네포차태평점","tel":"031-665-8596","addr":"경기도 평택시 고덕면 방축리 649-7번지 103,104호","category":"일반휴게음식 - 일반한식"},{"name":"조은생돼지","tel":"031-667-1508","addr":"경기도 평택시 고덕면 방축리 649-7번지 가평상가 C동 105호","category":"음식점 - 한식"},{"name":"조은생돼지","tel":"031-611-9222","addr":"경기도 평택시 고덕면 방축리 649-7번지 가평상가 C동 105호","category":"일반휴게음식 - 일반한식"},{"name":"태평떡방앗간","tel":"031-667-8770","addr":"경기도 평택시 고덕면 방축리 649-7 C동","category":"음료식품 - 제과점"},{"name":"태평태권아카데미","tel":"031-668-7900","addr":"경기도 평택시 고덕면 방축리 649-7번지 가평상가 3층","category":"학원 - 예·체능계학원"},{"name":"효학가든","tel":"031-64-5770","addr":"경기도 평택시 고덕면 방축리 649-7번지","category":"일반휴게음식 - 일반한식"}]},{"lat":"37.022521633","long":"127.04137092","items":[{"name":"고덕마트","tel":"031-611-1129","addr":"경기도 평택시 고덕면 방축리 401-1번지 1층 1호","category":"유통업 영리 - 슈퍼마켓"}]},{"lat":"37.013544553","long":"127.04831044","items":[{"name":"국제산업","tel":"031-1600-4309","addr":"경기도 평택시 고덕면 방축리 133-6번지","category":"기타 - 기계공구"}]},{"lat":"37.017297079","long":"127.03595211","items":[{"name":"굽네치킨고덕점","tel":"031-664-5441","addr":"경기도 평택시 고덕면 방축리 642-1번지 101호","category":"일반휴게음식 - 스넥"},{"name":"굽네치킨고덕점","tel":"031-663-0340","addr":"경기도 평택시 고덕면 방축리 642-1번지 101호","category":"음식점 - 치킨"},{"name":"벨르헤어","tel":"070-7762-5728","addr":"경기도 평택시 고덕면 방축리 642-1번지","category":"보건위생 - 미용원"}]},{"lat":"37.013238305","long":"127.04800688","items":[{"name":"금오적재함","tel":"063-656-3501","addr":"경기도 평택시 고덕면 방축리 92-1번지","category":"자동차정비 유지 - 가타자동차서비스"}]},{"lat":"37.014656692","long":"127.03687236","items":[{"name":"네비원-오성점","tel":"031-666-3027","addr":"경기도 평택시 고덕면 방축리 628-1번지","category":"전기제품 - 가전제품"},{"name":"도그스카이","tel":"031-611-2500","addr":"경기도 평택시 고덕면 방축리 628-1","category":"문화.취미 - 애완동물"},{"name":"에스(S)타일","tel":"031-663-2064","addr":"경기도 평택시 고덕면 방축리 628-1번지","category":"건축자재 - 건축용 요업제품"},{"name":"종합타이어","tel":"031-664-5770","addr":"경기도 평택시 고덕면 방축리 628-1번지","category":"소매업 - 타이어"},{"name":"청명철물공구","tel":"031-664-3636","addr":"경기도 평택시 고덕면 방축리 628-1","category":"건축자재 - 목재·석재·철물"},{"name":"청명철물공구","tel":"031-665-8240","addr":"경기도 평택시 고덕면 방축리 628-1번지","category":"소매업 - 철물, 공구"},{"name":"태영인테리어장식","tel":"031-657-5593","addr":"경기도 평택시 고덕면 방축리 628-1번지","category":"직물 - 카페트,커튼,천막,지물"}]},{"lat":"37.011600939","long":"127.04062384","items":[{"name":"다윗광고기획","tel":"031-658-5007","addr":"경기도 평택시 고덕면 방축리 551-6 27","category":"용역 서비스 - 종합용역"}]},{"lat":"37.018378274","long":"127.03625598","items":[{"name":"대박한식부페","tel":"","addr":"경기도 평택시 고덕면 방축리 427-12번지 1층","category":"일반휴게음식 - 일반한식"}]},{"lat":"37.019908548","long":"127.04134713","items":[{"name":"대우두산","tel":"031-611-8381","addr":"경기도 평택시 고덕면 방축리 470-30번지","category":"기타 - 기계공구"}]},{"lat":"37.022043969","long":"127.04167409","items":[{"name":"동아엔진보링","tel":"031-654-9792","addr":"경기도 평택시 고덕면 방축리 401-2번지","category":"기타 - 기계공구"}]},{"lat":"37.012522109","long":"127.05828755","items":[{"name":"동해종합식자재","tel":"","addr":"경기도 평택시 고덕면 방축리 60번지","category":"음료식품 - 기타음료식품"}]},{"lat":"37.015880948","long":"127.04081698","items":[{"name":"모모클린","tel":"","addr":"경기도 평택시 고덕면 방축리 502-6번지","category":"용역 서비스 - 종합용역"}]},{"lat":"37.013044963","long":"127.0324558","items":[{"name":"바이젬","tel":"031-651-5979","addr":"경기도 평택시 고덕면 방축리 682번지 1층","category":"신변잡화 - 귀금속"}]},{"lat":"37.023629926","long":"127.04142767","items":[{"name":"밥심","tel":"031-653-7899","addr":"경기도 평택시 고덕면 방축리 388번지","category":"일반휴게음식 - 일반한식"},{"name":"수다박스","tel":"","addr":"경기도 평택시 고덕면 방축리 388번지 1층 A-113호","category":"일반휴게음식 - 서양음식"}]},{"lat":"37.011801192","long":"127.05842186","items":[{"name":"사인(SIGN)채널","tel":"031-618-6998","addr":"경기도 평택시 고덕면 방축리 57-16번지","category":"건축자재 - 인테리어전문"}]},{"lat":"37.014404224","long":"127.03745654","items":[{"name":"상신해장국","tel":"031-667-6660","addr":"경기도 평택시 고덕면 방축리 556-2번지","category":"음식점 - 한식"},{"name":"서진낚시유통","tel":"031-662-0093","addr":"경기도 평택시 고덕면 방축리 556-2번지","category":"레져용품 - 스포츠·레져용품"},{"name":"서진낚시유통","tel":"031-611-0137","addr":"경기도 평택시 고덕면 방축리 556-2번지","category":"소매업 - 낚시용품"},{"name":"전라도칼국수","tel":"031-662-0093","addr":"경기도 평택시 고덕면 방축리 556-2번지","category":"음식점 - 한식"},{"name":"전라도칼국수","tel":"031-667-6660","addr":"경기도 평택시 고덕면 방축리 556-2","category":"일반휴게음식 - 일반한식"}]},{"lat":"37.009627564","long":"127.04073522","items":[{"name":"서경후렘","tel":"031-667-9910","addr":"경기도 평택시 고덕면 방축리 800","category":"용역 서비스 - 종합용역"}]},{"lat":"37.017744009","long":"127.04703193","items":[{"name":"아름다운김부자","tel":"031-611-4182","addr":"경기도 평택시 고덕면 방축리 235-2번지","category":"의류 - 내의판매"}]},{"lat":"37.015099244","long":"127.03306337","items":[{"name":"아테나PC","tel":"070-2563-2556","addr":"경기도 평택시 고덕면 방축리 667-6번지 2층","category":"레저업소 - 기타레져업소"},{"name":"휴대폰 멀티샵","tel":"031-668-5010","addr":"경기도 평택시 고덕면 방축리 667-6번지","category":"사무통신 - 통신기기"}]},{"lat":"37.015215676","long":"127.03572648","items":[{"name":"에스에스푸드","tel":"031-662-0428","addr":"경기도 평택시 고덕면 방축리 652-2번지","category":"일반휴게음식 - 일반한식"},{"name":"황제 감자탕","tel":"031-667-6665","addr":"경기도 평택시 고덕면 방축리 652-2번지","category":"일반휴게음식 - 일반한식"},{"name":"황제감자탕","tel":"031-663-8940","addr":"경기도 평택시 고덕면 방축리 652-2번지","category":"음식점 - 한식"}]},{"lat":"37.014548299","long":"127.03778247","items":[{"name":"영원농장","tel":"031-665-6226","addr":"경기도 평택시 고덕면 방축리 550-4번지","category":"음료식품 - 농·축·수산품"}]},{"lat":"37.023323582","long":"127.04137132","items":[{"name":"은율상사","tel":"070-7796-8006","addr":"경기도 평택시 고덕면 방축리 387-3번지","category":"음료식품 - 기타음료식품"}]},{"lat":"37.021682571","long":"127.04453948","items":[{"name":"이스트힐 골프클럽","tel":"031-664-7974","addr":"경기도 평택시 고덕면 방축리 271-7번지 외271-10등체육용지","category":"레저업소 - 골프연습장"}]},{"lat":"37.017295738","long":"127.0404581","items":[{"name":"장아짱아 영농법인","tel":"031-611-5554","addr":"경기도 평택시 고덕면 방축리 495-3번지","category":"소매업 - 농산물"},{"name":"장아짱아영농조합법인","tel":"031-668-5180","addr":"경기도 평택시 고덕면 방축리 495-3번지","category":"음료식품 - 기타음료식품"},{"name":"현농원","tel":"02-0000-0000","addr":"경기도 평택시 고덕면 방축리 495-3번지","category":"음료식품 - 농·축·수산품"}]},{"lat":"37.021268504","long":"127.04331437","items":[{"name":"제이엘도어산업주식회사","tel":"031-651-6556","addr":"경기도 평택시 고덕면 방축리 392-5번지","category":"건축자재 - 기타건축자재"}]},{"lat":"37.011161787","long":"127.03223035","items":[{"name":"케이에이치스포츠","tel":"031-000-0000","addr":"경기도 평택시 고덕면 방축리 604번지","category":"레져용품 - 스포츠·레져용품"}]},{"lat":"37.01843652","long":"127.05042591","items":[{"name":"태성산업","tel":"031-653-6556","addr":"경기도 평택시 고덕면 방축리 200-2번지","category":"건축자재 - 보일러·펌프·샷시"},{"name":"태성산업","tel":"","addr":"경기도 평택시 고덕면 방축리 200-2번지","category":"소매업 - 배관자재"}]},{"lat":"37.01507688","long":"127.04695173","items":[{"name":"포유25 국제병원점","tel":"031-612-2021","addr":"경기도 평택시 고덕면 방축리 111번지 국제병원 1층","category":"유통업 영리 - 슈퍼마켓"}]},{"lat":"37.016495136","long":"127.03592929","items":[{"name":"효덕초등학교","tel":"031-664-5557","addr":"경기도 평택시 고덕면 방축리 643-1번지 효덕초등학교","category":"학원 - 초중고교육기관"},{"name":"효덕초등학교병설유치원[아이행복]","tel":"031-662-7263","addr":"경기도 평택시 고덕면 방축리 643-1번지","category":"학원 - 유치원"}]}]