[{"lat":"38.12338095","long":"127.0552275","imageIndex":7,"items":[{"name":"고사리랜드","tel":"031-834-2852","addr":"경기도 연천군 군남면 옥계리 244-1번지","indutype":"음료식품 - 농·축·수산품","category":"food"}]},{"lat":"38.12332695","long":"127.0551134","imageIndex":7,"items":[{"name":"옥계떡방앗간","tel":"031-834-2455","addr":"경기도 연천군 군남면 옥계리 244-4번지","indutype":"음료식품 - 제과점","category":"food"}]},{"lat":"38.12294136","long":"127.0509164","imageIndex":7,"items":[{"name":"옥계마을 영농조합법인","tel":"031-834-2958","addr":"경기도 연천군 군남면 옥계리 484-1","indutype":"음료식품 - 농·축·수산품","category":"food"}]},{"lat":"38.12324641","long":"127.0538931","imageIndex":7,"items":[{"name":"옥계상회","tel":"031-834-2408","addr":"경기도 연천군 군남면 옥계리 252-6번지","indutype":"음료식품 - 기타음료식품","category":"food"}]},{"lat":"38.12260825","long":"127.0503688","imageIndex":7,"items":[{"name":"한희순발효갤러리","tel":"031-834-4475","addr":"경기도 연천군 군남면 옥계리 494-2번지","indutype":"음료식품 - 기타음료식품","category":"food"}]}]