[{"lat":"37.35651065","long":"127.321667","items":[{"name":"(주)1급중부자동차공업사","tel":"031-763-9988","addr":"경기도 광주시 곤지암읍 삼리 147번지","category":"자동차정비 유지 - 자동차정비"}]},{"lat":"37.35706963","long":"127.3248637","items":[{"name":"(주)가락공판장 곤지암점","tel":"031-798-9119","addr":"경기도 광주시 곤지암읍 삼리 133-4번지","category":"유통업 영리 - 슈퍼마켓"},{"name":"에스제이모터스","tel":"031-797-7901","addr":"경기도 광주시 곤지암읍 삼리 133-4번지","category":"자동차정비 유지 - 자동차부품"}]},{"lat":"37.34698436","long":"127.308998","items":[{"name":"(주)경은/원격지","tel":"031-7633-232","addr":"경기도 광주시 곤지암읍 삼리 608-1번지","category":"기타 - 기타 전문점"}]},{"lat":"37.34606436","long":"127.3196366","items":[{"name":"(주)녹산개발","tel":"031-769-5644","addr":"경기도 광주시 곤지암읍 삼리 469번지","category":"유통업 영리 - 기타유통업"}]},{"lat":"37.35551027","long":"127.3150034","items":[{"name":"(주)서연이앤씨","tel":"031-761-6759","addr":"경기도 광주시 곤지암읍 삼리 262-1번지 1층","category":"건축자재 - 인테리어전문"},{"name":"닭한마리","tel":"031-764-7270","addr":"경기도 광주시 곤지암읍 삼리 262-1번지 1층","category":"일반휴게음식 - 일반한식"}]},{"lat":"37.35200956","long":"127.3235328","items":[{"name":"(주)에스씨지스포츠아카데미 팀업캠퍼스지","tel":"031-716-9980","addr":"경기도 광주시 곤지암읍 삼리 430번지","category":"학원 - 예·체능계학원"},{"name":"(주)에스씨지스포츠아카데미팀업캠퍼스지점","tel":"070-8785-9744","addr":"경기도 광주시 곤지암읍 삼리 430번지","category":"음료식품 - 기타음료식품"},{"name":"ACTIVAR/(주) 에스씨지스포츠아카데미 팀업","tel":"031-763-4114","addr":"경기도 광주시 곤지암읍 삼리 430번지","category":"레저업소 - 기타레져업소"},{"name":"주식회사 에스씨지스포츠아카데미 팀업캠퍼","tel":"031-716-9980","addr":"경기도 광주시 곤지암읍 삼리 430번지","category":"음료식품 - 기타음료식품"},{"name":"주식회사 에스씨지스포츠아카데미 팀업캠퍼","tel":"040-8785-9744","addr":"경기도 광주시 곤지암읍 삼리 430번지","category":"음료식품 - 기타음료식품"},{"name":"주식회사 에스씨지스포츠아카데미 팀업캠퍼","tel":"031-716-9980","addr":"경기도 광주시 곤지암읍 삼리 430번지","category":"학원 - 예·체능계학원"},{"name":"주식회사 에스씨지스포츠아카데미 팀업캠퍼","tel":"031-716-9980","addr":"경기도 광주시 곤지암읍 삼리 430번지","category":"음료식품 - 기타음료식품"}]},{"lat":"37.35584699","long":"127.327161","items":[{"name":"(주)에스페리언자코리아","tel":"031-798-8577","addr":"경기도 광주시 곤지암읍 삼리 106-18번지 2층 202호","category":"신변잡화 - 가방"},{"name":"아궁이장작구이","tel":"031-798-7272","addr":"경기도 광주시 곤지암읍 삼리 106-18번지","category":"일반휴게음식 - 일반한식"},{"name":"웃쿠","tel":"031-699-3009","addr":"경기도 광주시 곤지암읍 삼리 106-18번지","category":"일반휴게음식 - 일반한식"}]},{"lat":"37.3583452","long":"127.3262801","items":[{"name":"(주)올댓미디어","tel":"02-412-9150","addr":"경기도 광주시 곤지암읍 삼리 127-7번지 리버빌 403호","category":"용역 서비스 - 종합용역"},{"name":"노다지","tel":"031-762-0492","addr":"경기도 광주시 곤지암읍 삼리 127-7번지 1층 리버빌","category":"일반휴게음식 - 일반한식"},{"name":"똘똘이보신탕","tel":"031-766-5498","addr":"경기도 광주시 곤지암읍 삼리 127-7번지","category":"일반휴게음식 - 일반한식"},{"name":"홍해","tel":"031-798-2531","addr":"경기도 광주시 곤지암읍 삼리 127-7번지 1층 리버빌","category":"일반휴게음식 - 중국식"}]},{"lat":"37.35595601","long":"127.3133912","items":[{"name":"(주)제이씨컴퍼니","tel":"","addr":"경기도 광주시 곤지암읍 삼리 234-1번지 1층 동","category":"의류 - 정장"}]},{"lat":"37.35586751","long":"127.3262468","items":[{"name":"1001안경원","tel":"031-764-7216","addr":"경기도 광주시 곤지암읍 삼리 106-21번지","category":"보건위생 - 안경"},{"name":"가르텐비어(곤지암점)","tel":"031-761-2599","addr":"경기도 광주시 곤지암읍 삼리 106-21번지 2층 보람빌딩","category":"일반휴게음식 - 일반한식"},{"name":"소주&맥주","tel":"031-768-2300","addr":"경기도 광주시 곤지암읍 삼리 106-21번지 1층","category":"일반휴게음식 - 주점"},{"name":"오 노래연습장","tel":"031-768-3872","addr":"경기도 광주시 곤지암읍 삼리 106-21번지 2층 보람빌딩","category":"레저업소 - 노 래 방"},{"name":"원할머니보쌈곤지암점","tel":"031-761-0010","addr":"경기도 광주시 곤지암읍 삼리 106-21","category":"일반휴게음식 - 일반한식"}]},{"lat":"37.35814639","long":"127.3264937","items":[{"name":"153무한리필고기뷔페","tel":"031-798-5175","addr":"경기도 광주시 곤지암읍 삼리 127-6번지","category":"일반휴게음식 - 일반한식"}]},{"lat":"37.35545129","long":"127.3268884","items":[{"name":"2차는 노래연습장","tel":"031-763-8773","addr":"경기도 광주시 곤지암읍 삼리 106-27번지 현진빌딩 2층 201호","category":"레저업소 - 노 래 방"},{"name":"놀부보쌈과 부대찌개(곤지암점)","tel":"031-768-5959","addr":"경기도 광주시 곤지암읍 삼리 106-27번지 현진빌딩 101호","category":"일반휴게음식 - 일반한식"},{"name":"슈잔","tel":"070-8107-7008","addr":"경기도 광주시 곤지암읍 삼리 106-27번지 현진빌딩 3층","category":"보건위생 - 화장품"},{"name":"칠구서서갈비","tel":"031-767-0169","addr":"경기도 광주시 곤지암읍 삼리 106-27번지 현진빌딩 102호","category":"일반휴게음식 - 일반한식"},{"name":"킴스당구장","tel":"031-797-9944","addr":"경기도 광주시 곤지암읍 삼리 106-27번지 현진빌딩 202호","category":"레저업소 - 당 구 장"}]},{"lat":"37.34601196","long":"127.3354475","items":[{"name":"365정육코너","tel":"031-763-2805","addr":"경기도 광주시 곤지암읍 삼리 42-1번지","category":"음료식품 - 정육점"}]},{"lat":"37.35570533","long":"127.3262462","items":[{"name":"3층포차","tel":"","addr":"경기도 광주시 곤지암읍 삼리 105-14번지 아름빌딩 3층","category":"일반휴게음식 - 일반한식"},{"name":"누나홀닭","tel":"031-789-8399","addr":"경기도 광주시 곤지암읍 삼리 105-14번지 아름빌딩","category":"일반휴게음식 - 스넥"},{"name":"미래산부인과의원","tel":"031-763-3552","addr":"경기도 광주시 곤지암읍 삼리 105-14번지","category":"의원 - 의원"},{"name":"아름빌딩","tel":"031-766-0804","addr":"경기도 광주시 곤지암읍 삼리 105-14","category":"용역 서비스 - 부동산 중개·임대"},{"name":"역전국밥(곤지암점)","tel":"031-798-1005","addr":"경기도 광주시 곤지암읍 삼리 105-14번지 아름빌딩","category":"일반휴게음식 - 일반한식"}]},{"lat":"37.3502306","long":"127.3079954","items":[{"name":"J.S골프크럽","tel":"031-762-0046","addr":"경기도 광주시 곤지암읍 삼리 588-4번지","category":"레저업소 - 골프연습장"}]},{"lat":"37.35601016","long":"127.3268005","items":[{"name":"Lee#Hair","tel":"031-699-2828","addr":"경기도 광주시 곤지암읍 삼리 106-14번지 대영빌딩 102호","category":"보건위생 - 미용원"},{"name":"제주쌈리","tel":"","addr":"경기도 광주시 곤지암읍 삼리 106-14번지 1층 대영빌딩","category":"일반휴게음식 - 일반한식"}]},{"lat":"37.3561462","long":"127.3264738","items":[{"name":"O-BAR (오빠)","tel":"031-798-5882","addr":"경기도 광주시 곤지암읍 삼리 106-36번지 3층","category":"일반휴게음식 - 주점"},{"name":"헤어살롱 끌림","tel":"031-769-9880","addr":"경기도 광주시 곤지암읍 삼리 106-36번지 1층","category":"보건위생 - 미용원"}]},{"lat":"37.35198521","long":"127.3323926","items":[{"name":"OK자동차용품점","tel":"031-762-8289","addr":"경기도 광주시 곤지암읍 삼리 9-1번지","category":"자동차정비 유지 - 자동차부품"},{"name":"명광용접기","tel":"031-767-9996","addr":"경기도 광주시 곤지암읍 삼리 9-1번지 1층 3/4","category":"기타 - 기계공구"}]},{"lat":"37.35517938","long":"127.3274742","items":[{"name":"SG골프 (삼리점)","tel":"031-761-6883","addr":"경기도 광주시 곤지암읍 삼리 105-2번지 2층","category":"레져용품 - 골프용품 전문점"},{"name":"김태섭세무회계사무소","tel":"031-761-9856","addr":"경기도 광주시 곤지암읍 삼리 105-2번지 202호","category":"용역 서비스 - 법률회계서비스(개인)"},{"name":"노블레스","tel":"031-769-0713","addr":"경기도 광주시 곤지암읍 삼리 105-2번지","category":"직물 - 침구·수예점"},{"name":"노블레스","tel":"031-769-0713","addr":"경기도 광주시 곤지암읍 삼리 105-2번지","category":"직물 - 침구·수예점"},{"name":"밝고맑은세상","tel":"031-769-6604","addr":"경기도 광주시 곤지암읍 삼리 105-2번지","category":"용역 서비스 - 종합용역"},{"name":"제이제이 지와이엠 (JJ GYM)","tel":"031-763-0631","addr":"경기도 광주시 곤지암읍 삼리 105-2번지","category":"레저업소 - 헬스클럽"}]},{"lat":"37.35670166","long":"127.3243316","items":[{"name":"The 돈까스","tel":"031-764-8198","addr":"경기도 광주시 곤지암읍 삼리 138-5번지 금진빌딩 1층","category":"일반휴게음식 - 일반한식"},{"name":"방일해장국 곤지암점","tel":"031-699-7594","addr":"경기도 광주시 곤지암읍 삼리 138-5번지 금진빌딩 1층","category":"일반휴게음식 - 일반한식"},{"name":"수태국마사지","tel":"031-767-6659","addr":"경기도 광주시 곤지암읍 삼리 138-5번지 금진빌딩 2층","category":"보건위생 - 피부미용실"}]},{"lat":"37.35739921","long":"127.3262534","items":[{"name":"The아름다운Diy","tel":"031-763-6525","addr":"경기도 광주시 곤지암읍 삼리 125-1번지 곤지암킴스빌리지 109호","category":"문화.취미 - 문화취미기타"},{"name":"나린 크래프트 (NARIN CRAFT)","tel":"031-764-4049","addr":"경기도 광주시 곤지암읍 삼리 125-1번지 킴스빌리지 상가 113호","category":"문화.취미 - 문화취미기타"},{"name":"낙원","tel":"031-761-8814","addr":"경기도 광주시 곤지암읍 삼리 125-1번지 외3필지곤지암킴스빌리지상가1층107호","category":"건축자재 - 조명기구"},{"name":"다운이네","tel":"031-797-2366","addr":"경기도 광주시 곤지암읍 삼리 125-1","category":"일반휴게음식 - 스넥"},{"name":"레몬트리","tel":"","addr":"경기도 광주시 곤지암읍 삼리 125-1번지 킴스빌리지아파트 108호","category":"음료식품 - 기타음료식품"},{"name":"로이짱","tel":"031-7979-1514","addr":"경기도 광주시 곤지암읍 삼리 125-1번지 122호 킴스상가","category":"문화.취미 - 애완동물"},{"name":"마루","tel":"031-797-8293","addr":"경기도 광주시 곤지암읍 삼리 125-1번지 킴스빌리지이피트 상가1층 120호, 121호,123호","category":"일반휴게음식 - 일반한식"},{"name":"미스터커트클럽","tel":"031-797-7233","addr":"경기도 광주시 곤지암읍 삼리 125-1 킴스빌리지단지내상가 111","category":"보건위생 - 이용원"},{"name":"밥바라기","tel":"031-763-3392","addr":"경기도 광주시 곤지암읍 삼리 125-1번지 킴스 상가 134호","category":"일반휴게음식 - 일반한식"},{"name":"킴스크리닝","tel":"031-764-1721","addr":"경기도 광주시 곤지암읍 삼리 125-1번지 킴스빌리지상가 129동 142호","category":"수리서비스 - 세탁소"},{"name":"프라이머스뮤직학원","tel":"031-764-0201","addr":"경기도 광주시 곤지암읍 삼리 125-1번지 킴스빌리지아파트","category":"학원 - 예·체능계학원"}]},{"lat":"37.35917475","long":"127.3160006","items":[{"name":"가마보꼬샤브샤브오뎅빠","tel":"031-769-6502","addr":"경기도 광주시 곤지암읍 삼리 179-17번지","category":"일반휴게음식 - 일반한식"},{"name":"보다","tel":"031-699-5183","addr":"경기도 광주시 곤지암읍 삼리 179-17번지 1층 102호","category":"일반휴게음식 - 서양음식"},{"name":"에벤에셀FOOD","tel":"031-766-1544","addr":"경기도 광주시 곤지암읍 삼리 179-17번지 1층102","category":"음료식품 - 정육점"}]},{"lat":"37.35922927","long":"127.3192178","items":[{"name":"감밀옥 부대찌개 전문점","tel":"031-797-2247","addr":"경기도 광주시 곤지암읍 삼리 173-7번지","category":"일반휴게음식 - 일반한식"},{"name":"대형카센타","tel":"031-763-7926","addr":"경기도 광주시 곤지암읍 삼리 173-7번지","category":"자동차정비 유지 - 자동차정비"},{"name":"최저가밧데리마트","tel":"031-798-5111","addr":"경기도 광주시 곤지암읍 삼리 173-7번지 1층","category":"자동차정비 유지 - 자동차부품"}]},{"lat":"37.35611994","long":"127.3261915","items":[{"name":"감탄떡볶이","tel":"031-764-0520","addr":"경기도 광주시 곤지암읍 삼리 106-1번지 주은빌딩","category":"일반휴게음식 - 스넥"},{"name":"시골촌솥단지삼겹살(곤지암점)","tel":"031-797-7062","addr":"경기도 광주시 곤지암읍 삼리 106-1번지 주은빌딩","category":"일반휴게음식 - 일반한식"},{"name":"요거프레소","tel":"031-766-0285","addr":"경기도 광주시 곤지암읍 삼리 106-1번지 주은빌딩 103호","category":"일반휴게음식 - 서양음식"},{"name":"요거프레소","tel":"031-766-0285","addr":"경기도 광주시 곤지암읍 삼리 106-1번지 1층 주은빌딩","category":"일반휴게음식 - 서양음식"},{"name":"웰빙김밥나라","tel":"031-769-1479","addr":"경기도 광주시 곤지암읍 삼리 106-1번지 주은빌딩 1층 106호","category":"일반휴게음식 - 스넥"},{"name":"팜스타약국","tel":"031-762-1875","addr":"경기도 광주시 곤지암읍 삼리 106-1번지 주은빌딩","category":"약국 - 약국"},{"name":"한마음내과의원","tel":"031-769-7897","addr":"경기도 광주시 곤지암읍 삼리 106-1번지 주은빌딩","category":"의원 - 의원"}]},{"lat":"37.35434134","long":"127.3175043","items":[{"name":"강남상사","tel":"031-764-9278","addr":"경기도 광주시 곤지암읍 삼리 333번지 대상공사 내 강남상사","category":"자동차정비 유지 - 자동차부품"},{"name":"대산사","tel":"02-2635-4940","addr":"경기도 광주시 곤지암읍 삼리 333번지","category":"자동차정비 유지 - 자동차부품"},{"name":"삼한메디","tel":"031-765-2140","addr":"경기도 광주시 곤지암읍 삼리 333번지 1층","category":"보건위생 - 의료용품"}]},{"lat":"37.35656248","long":"127.3258096","items":[{"name":"강담헤어아티션","tel":"031-765-6399","addr":"경기도 광주시 곤지암읍 삼리 132-7","category":"보건위생 - 미용원"},{"name":"라베르","tel":"031-797-0084","addr":"경기도 광주시 곤지암읍 삼리 132-7번지 2층","category":"일반휴게음식 - 주점"},{"name":"삼리 세차장","tel":"031-762-7577","addr":"경기도 광주시 곤지암읍 삼리 132-7번지","category":"자동차정비 유지 - 카인테리어"},{"name":"세븐일레븐곤지암스타점","tel":"031-1577-0711","addr":"경기도 광주시 곤지암읍 삼리 132-7번지","category":"유통업 영리 - 편 의 점"},{"name":"이자카야츠쿠리","tel":"031-669-0451","addr":"경기도 광주시 곤지암읍 삼리 132-7번지","category":"일반휴게음식 - 일식·회집"},{"name":"죽이야기","tel":"031-797-1417","addr":"경기도 광주시 곤지암읍 삼리 132-7번지","category":"일반휴게음식 - 일반한식"},{"name":"준당구클럽","tel":"070-5031-0327","addr":"경기도 광주시 곤지암읍 삼리 132-7번지","category":"레저업소 - 당 구 장"}]},{"lat":"37.35184255","long":"127.3083292","items":[{"name":"게딩웰라이프","tel":"031-765-8277","addr":"경기도 광주시 곤지암읍 삼리 588-15번지 2층","category":"건강식품 - 기타건강식품"}]},{"lat":"37.35633997","long":"127.3248041","items":[{"name":"경남상사","tel":"031-768-5742","addr":"경기도 광주시 곤지암읍 삼리 140-5번지 다모아빌딩 1층 101호","category":"건축자재 - 페인트"},{"name":"도미노피자곤지암점","tel":"031-763-3087","addr":"경기도 광주시 곤지암읍 삼리 140-5번지 다모아빌딩","category":"일반휴게음식 - 서양음식"},{"name":"뚱이순대국","tel":"031-797-6924","addr":"경기도 광주시 곤지암읍 삼리 140-5번지 다모아빌딩 1층","category":"일반휴게음식 - 일반한식"},{"name":"애플 노래연습장","tel":"031-798-7882","addr":"경기도 광주시 곤지암읍 삼리 140-5번지 다모아빌딩 2층","category":"레저업소 - 노 래 방"},{"name":"주연테크컴퓨터(광주전산)","tel":"031-798-5119","addr":"경기도 광주시 곤지암읍 삼리 140-5번지","category":"사무통신 - 컴퓨터"},{"name":"태양","tel":"031-798-0980","addr":"경기도 광주시 곤지암읍 삼리 140-5번지 다모아빌딩 지하","category":"보건위생 - 기타대인서비스"}]},{"lat":"37.35154054","long":"127.3335306","items":[{"name":"경은정밀","tel":"031-769-9982","addr":"경기도 광주시 곤지암읍 삼리 16번지","category":"기타 - 기계공구"},{"name":"대진철망공업","tel":"031-762-8314","addr":"경기도 광주시 곤지암읍 삼리 16번지","category":"건축자재 - 기타건축자재"}]},{"lat":"37.35472955","long":"127.3304971","items":[{"name":"고려대유통","tel":"","addr":"경기도 광주시 곤지암읍 삼리 109-5번지 까사펠리스 E동 101호","category":"의류 - 정장"}]},{"lat":"37.35162327","long":"127.3329441","items":[{"name":"고려종합상사","tel":"031-762-5881","addr":"경기도 광주시 곤지암읍 삼리 10-6번지","category":"건축자재 - 건축용 요업제품"}]},{"lat":"37.34823778","long":"127.3353332","items":[{"name":"곤지암궁골프존","tel":"031-763-0753","addr":"경기도 광주시 곤지암읍 삼리 39-1","category":"회원제형태 - 레져업소"},{"name":"동해바다회해물수산","tel":"031-797-3385","addr":"경기도 광주시 곤지암읍 삼리 39-1번지","category":"일반휴게음식 - 일반한식"}]},{"lat":"37.35214818","long":"127.3321112","items":[{"name":"곤지암사료","tel":"031-797-4682","addr":"경기도 광주시 곤지암읍 삼리 9번지 103호","category":"농업 - 비료,사료,종자"},{"name":"곤지암테크","tel":"031-769-7211","addr":"경기도 광주시 곤지암읍 삼리 9번지","category":"자동차정비 유지 - 자동차부품"},{"name":"이천쌀초밥","tel":"031-764-1323","addr":"경기도 광주시 곤지암읍 삼리 9번지 1층","category":"일반휴게음식 - 일식·회집"}]},{"lat":"37.35687202","long":"127.3213073","items":[{"name":"곤지암장례식장","tel":"031-766-5544","addr":"경기도 광주시 곤지암읍 삼리 147-3번지","category":"용역 서비스 - 가례서비스업"}]},{"lat":"37.35170344","long":"127.3332717","items":[{"name":"곤지암철강","tel":"031-762-7700","addr":"경기도 광주시 곤지암읍 삼리 10-1번지","category":"건축자재 - 기타건축자재"}]},{"lat":"37.35770394","long":"127.3201934","items":[{"name":"곤지암특장주식회사","tel":"031-766-5151","addr":"경기도 광주시 곤지암읍 삼리 200-8번지","category":"자동차판매 - 기타운송"},{"name":"화물차복지매장","tel":"031-761-8889","addr":"경기도 광주시 곤지암읍 삼리 200-8번지","category":"자동차정비 유지 - 자동차정비"}]},{"lat":"37.3533477","long":"127.3316875","items":[{"name":"곤지암행복동물병원","tel":"031-761-9767","addr":"경기도 광주시 곤지암읍 삼리 6-1번지","category":"기타의료기관 - 동물병원"}]},{"lat":"37.35401157","long":"127.3261937","items":[{"name":"골프메이트","tel":"070-4412-0338","addr":"경기도 광주시 곤지암읍 삼리 102-37번지 스마트빌 2층 205호","category":"레져용품 - 스포츠·레져용품"}]},{"lat":"37.35653871","long":"127.3246131","items":[{"name":"골프의류토탈샵(곤지암점)","tel":"031-761-4582","addr":"경기도 광주시 곤지암읍 삼리 138-2번지 동우빌딩","category":"의류 - 스포츠의류"},{"name":"김가을메이크업","tel":"070-7568-1921","addr":"경기도 광주시 곤지암읍 삼리 138-2번지 동우빌딩 301호","category":"보건위생 - 미용원"},{"name":"피자명과영심이치킨","tel":"031-797-1688","addr":"경기도 광주시 곤지암읍 삼리 138-2번지 동우빌딩 1,2층","category":"일반휴게음식 - 서양음식"}]},{"lat":"37.3527866","long":"127.3325767","items":[{"name":"광역디자인","tel":"031-763-4377","addr":"경기도 광주시 곤지암읍 삼리 6-4번지","category":"건축자재 - 인테리어전문"}]},{"lat":"37.35245128","long":"127.333275","items":[{"name":"광주 종합 건설 공구","tel":"031-763-0912","addr":"경기도 광주시 곤지암읍 삼리 6-22번지 1층","category":"기타 - 기계공구"},{"name":"삼성정밀","tel":"031-767-2388","addr":"경기도 광주시 곤지암읍 삼리 6-22번지","category":"기타 - 기계공구"},{"name":"성우톱공구","tel":"031-761-7950","addr":"경기도 광주시 곤지암읍 삼리 6-22번지","category":"전기제품 - 냉열기기"},{"name":"에스에스테크","tel":"031-762-4050","addr":"경기도 광주시 곤지암읍 삼리 6-22번지","category":"기타 - 기계공구"},{"name":"인성콘트롤","tel":"031-761-6567","addr":"경기도 광주시 곤지암읍 삼리 6-22번지","category":"수리서비스 - 기타수리서비스"},{"name":"한성특수무늬목","tel":"031-763-8400","addr":"경기도 광주시 곤지암읍 삼리 6-22번지","category":"건축자재 - 기타건축자재"}]},{"lat":"37.35092647","long":"127.3275236","items":[{"name":"광주왕실도예사업협동조합","tel":"031-797-3773","addr":"경기도 광주시 곤지암읍 삼리 72-1번지","category":"문화.취미 - 화랑"},{"name":"마식당","tel":"070-9412-1218","addr":"경기도 광주시 곤지암읍 삼리 72-1번지 광주도자기엑스포장대공연장","category":"일반휴게음식 - 일반한식"},{"name":"마이츄푸드트럭","tel":"","addr":"경기도 광주시 곤지암읍 삼리 72-1번지 광주도자기엑스포장","category":"일반휴게음식 - 서양음식"},{"name":"스노우(Snow)","tel":"","addr":"경기도 광주시 곤지암읍 삼리 72-1번지 광주도자기엑스포장","category":"일반휴게음식 - 일반한식"},{"name":"자빈도예공방/광주왕실도예사업협동조합","tel":"031-797-3773","addr":"경기도 광주시 곤지암읍 삼리 72-1번지","category":"문화.취미 - 민예·공예품"},{"name":"토야매점","tel":"031-8954-9407","addr":"경기도 광주시 곤지암읍 삼리 72-1번지 1층","category":"음료식품 - 기타음료식품"}]},{"lat":"37.35978678","long":"127.3162515","items":[{"name":"구르메(곤지암점)","tel":"031-798-1472","addr":"경기도 광주시 곤지암읍 삼리 179-1번지 2층","category":"일반휴게음식 - 주점"},{"name":"쌍쌍노래연습장","tel":"031-768-4529","addr":"경기도 광주시 곤지암읍 삼리 179-1번지 지층","category":"레저업소 - 노 래 방"},{"name":"제일순대국","tel":"031-762-8839","addr":"경기도 광주시 곤지암읍 삼리 179-1번지","category":"일반휴게음식 - 일반한식"}]},{"lat":"37.35487299","long":"127.3241884","items":[{"name":"굽네치킨 곤지암점","tel":"031-798-9294","addr":"경기도 광주시 곤지암읍 삼리 405-14번지","category":"일반휴게음식 - 스넥"}]},{"lat":"37.34470935","long":"127.3308373","items":[{"name":"금수강산옥션갤러리","tel":"","addr":"경기도 광주시 곤지암읍 삼리 54번지 102호","category":"문화.취미 - 골동품점"}]},{"lat":"37.35143113","long":"127.3339929","items":[{"name":"길성철물","tel":"031-762-6185","addr":"경기도 광주시 곤지암읍 삼리 16-4번지","category":"기타 - 기계공구"}]},{"lat":"37.35942688","long":"127.3160581","items":[{"name":"김서방네","tel":"02-424-2119","addr":"경기도 광주시 곤지암읍 삼리 179-2번지 301호","category":"음료식품 - 기타음료식품"},{"name":"희경헤어라인","tel":"031-764-2379","addr":"경기도 광주시 곤지암읍 삼리 179-2번지 101(외1필지1층)","category":"보건위생 - 미용원"}]},{"lat":"37.35487622","long":"127.3263103","items":[{"name":"김치빌리아드","tel":"070-7723-2207","addr":"경기도 광주시 곤지암읍 삼리 400-13번지 태영빌딩 2층","category":"레저업소 - 당 구 장"}]},{"lat":"37.35470835","long":"127.3283864","items":[{"name":"까스텔바작(곤지암점)","tel":"031-764-2536","addr":"경기도 광주시 곤지암읍 삼리 108-8번지 1층","category":"레져용품 - 스포츠·레져용품"},{"name":"링스 곤지암점","tel":"02-000-0000","addr":"경기도 광주시 곤지암읍 삼리 108-8번지","category":"의류 - 스포츠의류"},{"name":"베네치아K'S커피(Benecia K'S coffee)","tel":"031-762-7551","addr":"경기도 광주시 곤지암읍 삼리 108-8번지 1층 2층","category":"일반휴게음식 - 서양음식"},{"name":"부자집비빔국수","tel":"031-797-7935","addr":"경기도 광주시 곤지암읍 삼리 108-8번지","category":"일반휴게음식 - 일반한식"}]},{"lat":"37.3450079","long":"127.3336374","items":[{"name":"꿈누리교육","tel":"031-638-0027","addr":"경기도 광주시 곤지암읍 삼리 47-1번지","category":"학원 - 예·체능계학원"}]},{"lat":"37.3563467","long":"127.3256394","items":[{"name":"나래의원","tel":"031-764-7525","addr":"경기도 광주시 곤지암읍 삼리 134-9번지 극동빌딩 101호","category":"의원 - 의원"},{"name":"던킨도너츠","tel":"031-768-7747","addr":"경기도 광주시 곤지암읍 삼리 134-9","category":"음료식품 - 제과점"},{"name":"미플란트치과의원","tel":"031-764-1475","addr":"경기도 광주시 곤지암읍 삼리 134-9번지 극동빌딩 2층","category":"의원 - 치과의원"}]},{"lat":"37.3557031","long":"127.3270588","items":[{"name":"나무","tel":"031-764-8848","addr":"경기도 광주시 곤지암읍 삼리 106-19번지 3층 지산빌딩","category":"일반휴게음식 - 일반한식"},{"name":"바운스노래연습장","tel":"031-762-6735","addr":"경기도 광주시 곤지암읍 삼리 106-19번지 2층","category":"레저업소 - 노 래 방"},{"name":"힐링맥주창고","tel":"031-765-7376","addr":"경기도 광주시 곤지암읍 삼리 106-19번지 1층 지산빌딩","category":"일반휴게음식 - 주점"}]},{"lat":"37.35439635","long":"127.323859","items":[{"name":"나주한시뷔페","tel":"070-8202-5650","addr":"경기도 광주시 곤지암읍 삼리 411-8번지","category":"일반휴게음식 - 일반한식"},{"name":"엄지척손세차장","tel":"","addr":"경기도 광주시 곤지암읍 삼리 411-8번지","category":"자동차정비 유지 - 세차장"}]},{"lat":"37.35697916","long":"127.3249987","items":[{"name":"네네치킨(곤지암점)","tel":"031-798-9050","addr":"경기도 광주시 곤지암읍 삼리 133-17번지 하늘빌딩","category":"일반휴게음식 - 스넥"},{"name":"리듬스쿨음악학원","tel":"031-798-2141","addr":"경기도 광주시 곤지암읍 삼리 134-1번지 2층 하늘빌딩","category":"학원 - 예·체능계학원"},{"name":"삼리숙명음악학원","tel":"031-761-5957","addr":"경기도 광주시 곤지암읍 삼리 133-17번지 하늘빌딩 2층","category":"학원 - 예·체능계학원"},{"name":"성일태권도체육관","tel":"031-763-6774","addr":"경기도 광주시 곤지암읍 삼리 133-17번지","category":"학원 - 예·체능계학원"}]},{"lat":"37.34490227","long":"127.3327454","items":[{"name":"논두렁밭두렁","tel":"031-769-5001","addr":"경기도 광주시 곤지암읍 삼리 48-4번지","category":"일반휴게음식 - 일반한식"},{"name":"디오네(Dione)","tel":"","addr":"경기도 광주시 곤지암읍 삼리 48-4번지","category":"가구 - 일반가구"}]},{"lat":"37.35478415","long":"127.3237252","items":[{"name":"논두렁추어탕","tel":"031-761-8847","addr":"경기도 광주시 곤지암읍 삼리 410-3번지","category":"일반휴게음식 - 일반한식"}]},{"lat":"37.35676178","long":"127.3254154","items":[{"name":"농부의아들","tel":"031-798-9297","addr":"경기도 광주시 곤지암읍 삼리 134-1번지","category":"일반휴게음식 - 일반한식"},{"name":"떡볶이와일촌들","tel":"031-798-0414","addr":"경기도 광주시 곤지암읍 삼리 134-1번지 1층","category":"일반휴게음식 - 스넥"},{"name":"또래오래(곤지암점)","tel":"031-763-4045","addr":"경기도 광주시 곤지암읍 삼리 134-1번지 1층 전체","category":"일반휴게음식 - 스넥"},{"name":"서울학원","tel":"031-763-9753","addr":"경기도 광주시 곤지암읍 삼리 134-1번지","category":"회원제형태 - 학원"},{"name":"올가뷰티","tel":"031-634-3722","addr":"경기도 광주시 곤지암읍 삼리 134-1번지","category":"보건위생 - 화장품"},{"name":"지투스학원","tel":"031-763-7932","addr":"경기도 광주시 곤지암읍 삼리 134-1번지 2층","category":"학원 - 보습학원"},{"name":"크린토피아 곤지암점","tel":"031-763-9287","addr":"경기도 광주시 곤지암읍 삼리 134-1번지","category":"수리서비스 - 세탁소"},{"name":"태후사랑","tel":"031-797-3944","addr":"경기도 광주시 곤지암읍 삼리 134-1번지","category":"보건위생 - 화장품"}]},{"lat":"37.35348655","long":"127.3270831","items":[{"name":"농업회사법인 주식회사 내추럴초이스","tel":"031-697-8163","addr":"경기도 광주시 곤지암읍 삼리 680번지 친환경농산물유통센터 2-2호","category":"음료식품 - 농·축·수산품"},{"name":"주식회사 청아랑푸드","tel":"","addr":"경기도 광주시 곤지암읍 삼리 680번지 친환경농산물유통센터","category":"음료식품 - 농·축·수산품"}]},{"lat":"37.35595693","long":"127.3264955","items":[{"name":"대맛초","tel":"02-1111-1111","addr":"경기도 광주시 곤지암읍 삼리 106-28번지 103,104호","category":"일반휴게음식 - 일반한식"},{"name":"락노래연습장","tel":"031-764-2062","addr":"경기도 광주시 곤지암읍 삼리 106-28번지 2층","category":"레저업소 - 노 래 방"},{"name":"불로군 불족발불오리","tel":"031-764-9980","addr":"경기도 광주시 곤지암읍 삼리 106-28번지 102호","category":"일반휴게음식 - 일반한식"},{"name":"치킨마루(삼리점)","tel":"031-763-7856","addr":"경기도 광주시 곤지암읍 삼리 106-28번지 101호","category":"일반휴게음식 - 스넥"}]},{"lat":"37.35261886","long":"127.3313345","items":[{"name":"대명유압호스","tel":"031-761-9351","addr":"경기도 광주시 곤지암읍 삼리 94번지","category":"기타 - 기계공구"},{"name":"대성낚시","tel":"031-762-6171","addr":"경기도 광주시 곤지암읍 삼리 94번지","category":"레져용품 - 스포츠·레져용품"}]},{"lat":"37.35614879","long":"127.3255257","items":[{"name":"대성공인중개사사무소","tel":"031-797-1115","addr":"경기도 광주시 곤지암읍 삼리 139-1번지 1층","category":"용역 서비스 - 부동산 중개·임대"},{"name":"비타민휘트니스","tel":"031-765-6642","addr":"경기도 광주시 곤지암읍 삼리 139-1번지 3층","category":"회원제형태 - 레져업소"},{"name":"삼리열쇠구두수선","tel":"031-797-9355","addr":"경기도 광주시 곤지암읍 삼리 139-1번지","category":"기타 - 기계공구"},{"name":"씨유곤지암점","tel":"031-761-6662","addr":"경기도 광주시 곤지암읍 삼리 139-1번지","category":"유통업 영리 - 편 의 점"},{"name":"주헤어","tel":"031-798-5723","addr":"경기도 광주시 곤지암읍 삼리 139-1번지 101호","category":"보건위생 - 미용원"},{"name":"준코정보통신","tel":"031-762-1016","addr":"경기도 광주시 곤지암읍 삼리 139-1번지 외3필지","category":"사무통신 - 통신기기"},{"name":"청춘불패노래연습장","tel":"031-882-9351","addr":"경기도 광주시 곤지암읍 삼리 139-1번지","category":"레저업소 - 노 래 방"},{"name":"환한의원","tel":"031-769-3363","addr":"경기도 광주시 곤지암읍 삼리 139-1번지","category":"의원 - 한의원"}]},{"lat":"37.3489839","long":"127.3359459","items":[{"name":"대왕광고","tel":"031-762-6049","addr":"경기도 광주시 곤지암읍 삼리 35-3번지","category":"용역 서비스 - 종합용역"}]},{"lat":"37.35592851","long":"127.3270033","items":[{"name":"대한민국PC카페","tel":"02-1544-0128","addr":"경기도 광주시 곤지암읍 삼리 106-16번지 2층 크로바빌딩","category":"레저업소 - 기타레져업소"},{"name":"복돼지","tel":"031-699-8930","addr":"경기도 광주시 곤지암읍 삼리 106-16번지 1층 크로바빌딩","category":"일반휴게음식 - 일반한식"},{"name":"첸 by choi","tel":"031-763-6767","addr":"경기도 광주시 곤지암읍 삼리 106-16번지 크로바빌딩","category":"일반휴게음식 - 중국식"}]},{"lat":"37.3496222","long":"127.3132748","items":[{"name":"더블디푸드","tel":"","addr":"경기도 광주시 곤지암읍 삼리 563번지 1층","category":"음료식품 - 기타음료식품"}]},{"lat":"37.35445492","long":"127.3288029","items":[{"name":"데니스골프곤지암점","tel":"031-764-2822","addr":"경기도 광주시 곤지암읍 삼리 108-5번지 (1층8~9호)","category":"레져용품 - 스포츠·레져용품"},{"name":"벤제프","tel":"031-798-8277","addr":"경기도 광주시 곤지암읍 삼리 108-5번지","category":"의류 - 스포츠의류"},{"name":"이코노슈즈클럽","tel":"031-797-8022","addr":"경기도 광주시 곤지암읍 삼리 108-5번지","category":"레져용품 - 스포츠·레져용품"},{"name":"캘러웨이곤지암점","tel":"","addr":"경기도 광주시 곤지암읍 삼리 108-5번지","category":"의류 - 정장"},{"name":"휠라골프곤지암점","tel":"031-797-7078","addr":"경기도 광주시 곤지암읍 삼리 108-5번지","category":"레져용품 - 스포츠·레져용품"}]},{"lat":"37.35489766","long":"127.3250576","items":[{"name":"돈댓기리","tel":"031-796-8163","addr":"경기도 광주시 곤지암읍 삼리 405-9번지","category":"일반휴게음식 - 일반한식"},{"name":"머리하고싶을때","tel":"031-762-4434","addr":"경기도 광주시 곤지암읍 삼리 405-9번지","category":"보건위생 - 미용원"},{"name":"황금노래방","tel":"031-797-2277","addr":"경기도 광주시 곤지암읍 삼리 405-9","category":"레저업소 - 노 래 방"}]},{"lat":"37.3545125","long":"127.3242207","items":[{"name":"동강","tel":"02-766-2755","addr":"경기도 광주시 곤지암읍 삼리 410-13번지","category":"일반휴게음식 - 중국식"},{"name":"불백시대","tel":"031-764-8463","addr":"경기도 광주시 곤지암읍 삼리 410-13번지","category":"일반휴게음식 - 일반한식"},{"name":"전주맛집","tel":"031-797-8253","addr":"경기도 광주시 곤지암읍 삼리 410-13번지 1층","category":"일반휴게음식 - 일반한식"},{"name":"필당구장","tel":"031-797-0143","addr":"경기도 광주시 곤지암읍 삼리 410-13번지","category":"레저업소 - 당 구 장"}]},{"lat":"37.34465051","long":"127.3193598","items":[{"name":"동강에프디","tel":"031-769-7133","addr":"경기도 광주시 곤지암읍 삼리 457-1번지","category":"유통업 영리 - 기타유통업"}]},{"lat":"37.35390216","long":"127.3299405","items":[{"name":"동부금속","tel":"031-766-8167","addr":"경기도 광주시 곤지암읍 삼리 98-6번지","category":"건축자재 - 기타건축자재"},{"name":"영신부동산중개사사무소","tel":"031-769-4114","addr":"경기도 광주시 곤지암읍 삼리 98-6번지","category":"용역 서비스 - 부동산 중개·임대"},{"name":"허서방","tel":"031-761-8863","addr":"경기도 광주시 곤지암읍 삼리 98-6번지 1층","category":"음료식품 - 정육점"}]},{"lat":"37.35645679","long":"127.3249175","items":[{"name":"두드림수학학원","tel":"","addr":"경기도 광주시 곤지암읍 삼리 139-3번지 2층 대원빌딩","category":"학원 - 보습학원"},{"name":"바다양푼이동태탕","tel":"031-798-3309","addr":"경기도 광주시 곤지암읍 삼리 139-3번지 외1필지 대원빌딩","category":"일반휴게음식 - 일반한식"},{"name":"수마루학원","tel":"031-798-2324","addr":"경기도 광주시 곤지암읍 삼리 139-3번지 대원빌딩 301호","category":"회원제형태 - 학원"},{"name":"아란아트미술학원","tel":"031-762-7239","addr":"경기도 광주시 곤지암읍 삼리 139-3번지 대원빌딩 3층 302호","category":"학원 - 예·체능계학원"},{"name":"예스셈수학학원","tel":"031-797-3282","addr":"경기도 광주시 곤지암읍 삼리 139-3번지 대원빌딩 2층","category":"회원제형태 - 학원"},{"name":"전주감자탕 뼈해장국","tel":"031-769-7575","addr":"경기도 광주시 곤지암읍 삼리 139-3번지","category":"일반휴게음식 - 일반한식"}]},{"lat":"37.35631971","long":"127.3155598","items":[{"name":"두리솔루션","tel":"031-763-5336","addr":"경기도 광주시 곤지암읍 삼리 224-4번지","category":"사무통신 - 컴퓨터"},{"name":"태성교역","tel":"","addr":"경기도 광주시 곤지암읍 삼리 224-4번지 101호","category":"신변잡화 - 기타잡화"}]},{"lat":"37.35668023","long":"127.3255844","items":[{"name":"두리아","tel":"","addr":"경기도 광주시 곤지암읍 삼리 132-6번지 성진빌딩","category":"일반휴게음식 - 스넥"},{"name":"삼성영어수학여우삼리학원","tel":"031-761-5952","addr":"경기도 광주시 곤지암읍 삼리 132-6번지 2층 성진빌딩","category":"학원 - 보습학원"},{"name":"우리동네 Fresh Pork","tel":"031-797-5255","addr":"경기도 광주시 곤지암읍 삼리 132-6번지","category":"일반휴게음식 - 일반한식"},{"name":"플라워맨 카페","tel":"","addr":"경기도 광주시 곤지암읍 삼리 132-6번지 성진빌딩","category":"일반휴게음식 - 서양음식"},{"name":"한양대삼리태권도","tel":"031-767-3205","addr":"경기도 광주시 곤지암읍 삼리 132-6번지 성진빌딩 3층","category":"학원 - 예·체능계학원"}]},{"lat":"37.35626386","long":"127.3262824","items":[{"name":"또봉이통닭","tel":"031-798-7766","addr":"경기도 광주시 곤지암읍 삼리 106-30번지","category":"일반휴게음식 - 일반한식"},{"name":"메가MGC커피 곤지암점","tel":"031-7147-5949","addr":"경기도 광주시 곤지암읍 삼리 106-30번지 1층 108호","category":"일반휴게음식 - 서양음식"},{"name":"아트핑거미술학원","tel":"031-768-8230","addr":"경기도 광주시 곤지암읍 삼리 106-30번지 3층 일부","category":"학원 - 예·체능계학원"},{"name":"올리뷰티라인","tel":"031-769-3066","addr":"경기도 광주시 곤지암읍 삼리 106-30번지 101호","category":"보건위생 - 미용원"},{"name":"종로복떡집","tel":"031-798-1343","addr":"경기도 광주시 곤지암읍 삼리 106-30번지 108호","category":"음료식품 - 기타음료식품"},{"name":"탑뷰티","tel":"031-797-0711","addr":"경기도 광주시 곤지암읍 삼리 106-30번지 104호","category":"보건위생 - 피부미용실"},{"name":"화이피아노음악학원","tel":"031-768-8240","addr":"경기도 광주시 곤지암읍 삼리 106-30번지 3층 일부","category":"학원 - 예·체능계학원"}]},{"lat":"37.35414696","long":"127.3293885","items":[{"name":"라이즈 짐(RISE GYM)","tel":"","addr":"경기도 광주시 곤지암읍 삼리 98-4번지 LK빌딩 2층","category":"레저업소 - 헬스클럽"},{"name":"엠유SPORTS","tel":"","addr":"경기도 광주시 곤지암읍 삼리 98-4번지 LK빌딩","category":"의류 - 스포츠의류"},{"name":"위드미 광주삼리점","tel":"02-6916-1500","addr":"경기도 광주시 곤지암읍 삼리 98-4번지","category":"유통업 영리 - 편 의 점"},{"name":"휴스토니","tel":"031-763-3911","addr":"경기도 광주시 곤지암읍 삼리 98-4번지 LK빌딩","category":"의류 - 정장"}]},{"lat":"37.35587528","long":"127.3266984","items":[{"name":"램브로","tel":"031-797-9253","addr":"경기도 광주시 곤지암읍 삼리 106-15번지 1층 삼원빌딩","category":"일반휴게음식 - 중국식"},{"name":"모이세노래연습장","tel":"031-764-7300","addr":"경기도 광주시 곤지암읍 삼리 106-15번지 2층 삼원빌딩","category":"레저업소 - 노 래 방"},{"name":"삼리 동해횟집","tel":"","addr":"경기도 광주시 곤지암읍 삼리 106-15번지 1층 삼원빌딩","category":"일반휴게음식 - 일식·회집"}]},{"lat":"37.35564884","long":"127.3238305","items":[{"name":"롯데화원","tel":"031-765-6116","addr":"경기도 광주시 곤지암읍 삼리 394-5","category":"문화.취미 - 화원"}]},{"lat":"37.35719263","long":"127.3260155","items":[{"name":"리더스쿨","tel":"031-761-8302","addr":"경기도 광주시 곤지암읍 삼리 125-1번지 킴스빌리지아파트","category":"학원 - 보습학원"},{"name":"예인","tel":"031-762-5749","addr":"경기도 광주시 곤지암읍 삼리 125-1번지 킴스빌리지아파트","category":"회원제형태 - 기타4"},{"name":"윤정골프장비","tel":"","addr":"경기도 광주시 곤지암읍 삼리 125-1번지 킴스빌리지아파트","category":"농업 - 농기계"},{"name":"이레","tel":"070-2699-0807","addr":"경기도 광주시 곤지암읍 삼리 125-1번지 킴스빌리지아파트","category":"의류 - 정장"},{"name":"이선영교습","tel":"070-7566-2802","addr":"경기도 광주시 곤지암읍 삼리 125-1번지 킴스빌리지아파트","category":"학원 - 외국어학원"}]},{"lat":"37.35513615","long":"127.323501","items":[{"name":"리치베베","tel":"031-764-5331","addr":"경기도 광주시 곤지암읍 삼리 391-4번지 굿모닝하우스 102동 1층 102호","category":"보건위생 - 기타대인서비스"}]},{"lat":"37.35565059","long":"127.3264942","items":[{"name":"만남노래연습장","tel":"031-761-7400","addr":"경기도 광주시 곤지암읍 삼리 106-25번지 지우빌딩 2층","category":"레저업소 - 노 래 방"},{"name":"바른생갈비 (곤지암점)","tel":"031-764-9249","addr":"경기도 광주시 곤지암읍 삼리 106-25번지 지우빌딩 1층 102호","category":"일반휴게음식 - 일반한식"},{"name":"오케이(OK)당구클럽","tel":"031-769-7481","addr":"경기도 광주시 곤지암읍 삼리 106-25번지 지우빌딩","category":"레저업소 - 당 구 장"},{"name":"주광전자담배 메이스토리","tel":"031-797-4708","addr":"경기도 광주시 곤지암읍 삼리 106-25번지 지우빌딩 1층","category":"의류 - 정장"},{"name":"주광전자담배 메이스토리","tel":"031-797-4708","addr":"경기도 광주시 곤지암읍 삼리 106-25번지 지우빌딩 1층","category":"기타 - 기타 전문점"}]},{"lat":"37.35470859","long":"127.3149211","items":[{"name":"만다린","tel":"031-762-5288","addr":"경기도 광주시 곤지암읍 삼리 264-2번지 1층","category":"일반휴게음식 - 중국식"}]},{"lat":"37.35479031","long":"127.3247749","items":[{"name":"매코미닭발","tel":"031-798-8199","addr":"경기도 광주시 곤지암읍 삼리 405-15번지","category":"일반휴게음식 - 일반한식"},{"name":"큐당구장","tel":"031-769-1013","addr":"경기도 광주시 곤지암읍 삼리 405-15번지 건영빌딩 2층","category":"레저업소 - 당 구 장"},{"name":"크리스탈노래연습장","tel":"","addr":"경기도 광주시 곤지암읍 삼리 405-15번지 건영빌딩 지층","category":"레저업소 - 노 래 방"}]},{"lat":"37.35587139","long":"127.321495","items":[{"name":"맥스목공기계","tel":"031-767-0880","addr":"경기도 광주시 곤지암읍 삼리 145번지","category":"기타 - 기계공구"}]},{"lat":"37.35989535","long":"127.3160826","items":[{"name":"메딕사운드","tel":"031-480-0434","addr":"경기도 광주시 곤지암읍 삼리 179-7번지","category":"자동차정비 유지 - 자동차부품"},{"name":"진아헤어","tel":"031-764-5440","addr":"경기도 광주시 곤지암읍 삼리 179-7번지","category":"보건위생 - 미용원"}]},{"lat":"37.35792953","long":"127.3267185","items":[{"name":"메종드정아 Maison de JeongA","tel":"","addr":"경기도 광주시 곤지암읍 삼리 127-2번지 1층 효제빌딩","category":"일반휴게음식 - 서양음식"},{"name":"해독365","tel":"","addr":"경기도 광주시 곤지암읍 삼리 127-2번지 2층","category":"보건위생 - 의료용품"}]},{"lat":"37.35526103","long":"127.3272714","items":[{"name":"명품플라워","tel":"031-769-9039","addr":"경기도 광주시 곤지암읍 삼리 105-44번지","category":"문화.취미 - 화원"},{"name":"신동엽실용음악학원","tel":"031-764-6591","addr":"경기도 광주시 곤지암읍 삼리 105-44번지 3층 302호","category":"학원 - 예·체능계학원"}]},{"lat":"37.35692479","long":"127.3251114","items":[{"name":"뮤엠영어광주어학원","tel":"031-769-8405","addr":"경기도 광주시 곤지암읍 삼리 133-30번지 2층","category":"회원제형태 - 학원"},{"name":"특공무술곤지암정도","tel":"031-762-0773","addr":"경기도 광주시 곤지암읍 삼리 133-30번지 외1필지","category":"회원제형태 - 레져업소"}]},{"lat":"37.35053731","long":"127.3181656","items":[{"name":"반석금속레이져","tel":"031-761-0079","addr":"경기도 광주시 곤지암읍 삼리 502-9번지","category":"건축자재 - 기타건축자재"}]},{"lat":"37.35403907","long":"127.315968","items":[{"name":"밤나무집","tel":"031-765-0055","addr":"경기도 광주시 곤지암읍 삼리 315번지","category":"일반휴게음식 - 일반한식"}]},{"lat":"37.35228761","long":"127.3338048","items":[{"name":"방자네남원추어탕코다리찜","tel":"031-798-0770","addr":"경기도 광주시 곤지암읍 삼리 6-24번지","category":"일반휴게음식 - 일반한식"}]},{"lat":"37.35029162","long":"127.3355002","items":[{"name":"배연정 소머리국밥","tel":"031-763-5460","addr":"경기도 광주시 곤지암읍 삼리 24-1번지 1층","category":"일반휴게음식 - 일반한식"}]},{"lat":"37.34637055","long":"127.3196943","items":[{"name":"백고개식당","tel":"031-763-1867","addr":"경기도 광주시 곤지암읍 삼리 467-1","category":"일반휴게음식 - 일반한식"},{"name":"영신상회","tel":"","addr":"경기도 광주시 곤지암읍 삼리 467-1번지","category":"유통업 영리 - 슈퍼마켓"}]},{"lat":"37.35788529","long":"127.3264248","items":[{"name":"보아스상사","tel":"031-761-6972","addr":"경기도 광주시 곤지암읍 삼리 125-1번지 킴스빌리지아파트","category":"보건위생 - 화장품"},{"name":"삼리청과","tel":"031-769-9065","addr":"경기도 광주시 곤지암읍 삼리 125-1번지 킴스빌리지아파트","category":"음료식품 - 농·축·수산품"}]},{"lat":"37.35279085","long":"127.334281","items":[{"name":"본스크린","tel":"031-769-2100","addr":"경기도 광주시 곤지암읍 삼리 2-5번지 3~4층","category":"레저업소 - 스크린골프"},{"name":"본커피","tel":"031-769-2100","addr":"경기도 광주시 곤지암읍 삼리 2-5번지","category":"일반휴게음식 - 서양음식"}]},{"lat":"37.35373519","long":"127.3316666","items":[{"name":"북앤톡","tel":"","addr":"경기도 광주시 곤지암읍 삼리 98-8번지 102호","category":"서적문구 - 일반서적"},{"name":"지아뷰티","tel":"","addr":"경기도 광주시 곤지암읍 삼리 98-8번지 101호","category":"보건위생 - 미용재료"}]},{"lat":"37.35550951","long":"127.3253649","items":[{"name":"북해도","tel":"031-769-3789","addr":"경기도 광주시 곤지암읍 삼리 399-18번지 2층","category":"일반휴게음식 - 일반한식"}]},{"lat":"37.35687042","long":"127.325224","items":[{"name":"블랙존(BLACK ZONE)","tel":"","addr":"경기도 광주시 곤지암읍 삼리 132-5번지 1층 일부","category":"의류 - 정장"},{"name":"슈슈헤어","tel":"031-797-2123","addr":"경기도 광주시 곤지암읍 삼리 132-5번지","category":"보건위생 - 미용원"},{"name":"허브아카데미","tel":"031-111-1111","addr":"경기도 광주시 곤지암읍 삼리 132-5번지","category":"건강식품 - 기타건강식품"}]},{"lat":"37.3445706","long":"127.3321345","items":[{"name":"사계","tel":"031-764-0545","addr":"경기도 광주시 곤지암읍 삼리 49-2","category":"용역 서비스 - 부동산 중개·임대"}]},{"lat":"37.34651598","long":"127.3356416","items":[{"name":"산내들 비빔국수","tel":"031-798-5762","addr":"경기도 광주시 곤지암읍 삼리 41-24번지","category":"일반휴게음식 - 일반한식"},{"name":"오토랜드카공업사","tel":"031-762-9768","addr":"경기도 광주시 곤지암읍 삼리 41-24 번지","category":"자동차정비 유지 - 자동차정비"},{"name":"우정동물병원","tel":"031-797-4755","addr":"경기도 광주시 곤지암읍 삼리 41-24","category":"기타의료기관 - 동물병원"}]},{"lat":"37.3561188","long":"127.3266091","items":[{"name":"삼대족발 (곤지암점)","tel":"031-764-8120","addr":"경기도 광주시 곤지암읍 삼리 106-13번지","category":"일반휴게음식 - 일반한식"},{"name":"앵콜노래연습장","tel":"031-761-6301","addr":"경기도 광주시 곤지암읍 삼리 106-13번지 2층","category":"레저업소 - 노 래 방"},{"name":"유진이네곱창","tel":"031-767-1503","addr":"경기도 광주시 곤지암읍 삼리 106-13번지","category":"일반휴게음식 - 일반한식"},{"name":"플러스유편의점","tel":"031-764-1231","addr":"경기도 광주시 곤지암읍 삼리 106-13번지","category":"유통업 영리 - 편 의 점"}]},{"lat":"37.35782444","long":"127.3256119","items":[{"name":"삼리","tel":"070-7728-2071","addr":"경기도 광주시 곤지암읍 삼리 125-1번지 킴스빌리지아파트","category":"학원 - 기타 교육기관"}]},{"lat":"37.35648247","long":"127.3254142","items":[{"name":"삼리탁구장","tel":"031-798-4684","addr":"경기도 광주시 곤지암읍 삼리 134-10번지 3층","category":"레저업소 - 기타레져업소"},{"name":"우리소아청소년과의원","tel":"031-797-5976","addr":"경기도 광주시 곤지암읍 삼리 134-10번지 102호 103호","category":"의원 - 의원"},{"name":"참치자객","tel":"031-797-3793","addr":"경기도 광주시 곤지암읍 삼리 134-10번지 104호","category":"일반휴게음식 - 일식·회집"},{"name":"행복한세상 우리들약국","tel":"031-762-0996","addr":"경기도 광주시 곤지암읍 삼리 134-10번지 101호","category":"약국 - 약국"}]},{"lat":"37.35311782","long":"127.3133908","items":[{"name":"세븐일레븐경기광주삼리점","tel":"031-1577-0711","addr":"경기도 광주시 곤지암읍 삼리 292번지","category":"유통업 영리 - 편 의 점"}]},{"lat":"37.3562579","long":"127.325165","items":[{"name":"세우그룹토은세무사김대식","tel":"031-761-2670","addr":"경기도 광주시 곤지암읍 삼리 139-9번지 세건빌딩 401호","category":"용역 서비스 - 법률회계서비스(개인)"}]},{"lat":"37.35317594","long":"127.3318899","items":[{"name":"스카이오토","tel":"031-765-5455","addr":"경기도 광주시 곤지암읍 삼리 6-48번지","category":"자동차정비 유지 - 자동차정비"}]},{"lat":"37.35086874","long":"127.3353335","items":[{"name":"시래마루","tel":"031-797-3314","addr":"경기도 광주시 곤지암읍 삼리 24번지 1층","category":"일반휴게음식 - 일반한식"},{"name":"타이어샵","tel":"031-764-9598","addr":"경기도 광주시 곤지암읍 삼리 24번지","category":"자동차정비 유지 - 자동차시트·타이어"}]},{"lat":"37.35556894","long":"127.3266971","items":[{"name":"신나고노래연습장","tel":"031-763-0300","addr":"경기도 광주시 곤지암읍 삼리 106-23번지 예선빌딩 2층","category":"레저업소 - 노 래 방"},{"name":"신맵당곤지암삼리점","tel":"031-764-8883","addr":"경기도 광주시 곤지암읍 삼리 106-23번지","category":"일반휴게음식 - 일반한식"},{"name":"천해양꼬치","tel":"031-761-8588","addr":"경기도 광주시 곤지암읍 삼리 106-23번지 예선빌딩 1층","category":"일반휴게음식 - 일반한식"},{"name":"태영생막창","tel":"031-766-8565","addr":"경기도 광주시 곤지암읍 삼리 106-23번지 예선빌딩 1층","category":"일반휴게음식 - 일반한식"}]},{"lat":"37.3477931","long":"127.320084","items":[{"name":"신선어람","tel":"","addr":"경기도 광주시 곤지암읍 삼리 475-2번지","category":"음료식품 - 기타음료식품"}]},{"lat":"37.35984601","long":"127.3176966","items":[{"name":"신화건설공구","tel":"031-767-0970","addr":"경기도 광주시 곤지암읍 삼리 172-1번지","category":"기타 - 기계공구"}]},{"lat":"37.35175927","long":"127.3326399","items":[{"name":"쌍용종합공구","tel":"031-762-7880","addr":"경기도 광주시 곤지암읍 삼리 10-2번지","category":"기타 - 기계공구"}]},{"lat":"37.35626058","long":"127.3274788","items":[{"name":"씨앤에스(C&,S)","tel":"","addr":"경기도 광주시 곤지암읍 삼리 679번지 현진에버빌아파트","category":"의류 - 스포츠의류"},{"name":"중앙전단","tel":"031-764-3105","addr":"경기도 광주시 곤지암읍 삼리 679번지 현진에버빌아파트","category":"회원제형태 - 기타2"}]},{"lat":"37.35567754","long":"127.3298015","items":[{"name":"씨케이제이","tel":"","addr":"경기도 광주시 곤지암읍 삼리 115-2번지 금진타운 105호","category":"의류 - 기타의류"}]},{"lat":"37.35739634","long":"127.3273031","items":[{"name":"에드피아 이천","tel":"031-633-4326","addr":"경기도 광주시 곤지암읍 삼리 126-1번지","category":"서적문구 - 기타서적문구"}]},{"lat":"37.34682023","long":"127.3097534","items":[{"name":"에스디벧엘","tel":"031-797-0140","addr":"경기도 광주시 곤지암읍 삼리 608-3번지","category":"신변잡화 - 기타잡화"}]},{"lat":"37.35459178","long":"127.3248869","items":[{"name":"에이스 에어컨","tel":"","addr":"경기도 광주시 곤지암읍 삼리 405-3번지 401호","category":"용역 서비스 - 기타용역서비스"}]},{"lat":"37.34431855","long":"127.318828","items":[{"name":"에코핸즈","tel":"031-798-9700","addr":"경기도 광주시 곤지암읍 삼리 456번지","category":"가구 - 일반가구"}]},{"lat":"37.35523149","long":"127.3248897","items":[{"name":"오토샤인","tel":"031-798-6542","addr":"경기도 광주시 곤지암읍 삼리 398-1","category":"자동차정비 유지 - 카인테리어"},{"name":"천미곱창","tel":"031-763-5435","addr":"경기도 광주시 곤지암읍 삼리 398-1번지","category":"일반휴게음식 - 스넥"}]},{"lat":"37.35200682","long":"127.334334","items":[{"name":"오형제손짜장마을","tel":"031-769-7001","addr":"경기도 광주시 곤지암읍 삼리 18-7번지","category":"일반휴게음식 - 중국식"}]},{"lat":"37.35506585","long":"127.3294376","items":[{"name":"율산건축","tel":"031-707-4495","addr":"경기도 광주시 곤지암읍 삼리 113-11번지 에코하임 E동 302호","category":"건축자재 - 인테리어전문"}]},{"lat":"37.35096001","long":"127.3349163","items":[{"name":"이공구(애플마트)","tel":"031-764-2094","addr":"경기도 광주시 곤지암읍 삼리 17-6번지","category":"유통업 영리 - 슈퍼마켓"},{"name":"한남건축설비","tel":"031-762-7831","addr":"경기도 광주시 곤지암읍 삼리 17-6번지","category":"용역 서비스 - 기타용역서비스"}]},{"lat":"37.35520302","long":"127.32542","items":[{"name":"이레인테리어","tel":"031-797-3114","addr":"경기도 광주시 곤지암읍 삼리 398-15","category":"건축자재 - 인테리어전문"}]},{"lat":"37.3476191","long":"127.3109191","items":[{"name":"이륙중기","tel":"031-763-2926","addr":"경기도 광주시 곤지암읍 삼리 606-3번지 606호","category":"기타 - 기계공구"}]},{"lat":"37.35461974","long":"127.3144467","items":[{"name":"이정한식","tel":"031-762-3357","addr":"경기도 광주시 곤지암읍 삼리 267-2번지","category":"일반휴게음식 - 일반한식"}]},{"lat":"37.35625822","long":"127.3283366","items":[{"name":"일두건설","tel":"031-764-7777","addr":"경기도 광주시 곤지암읍 삼리 679번지 현진에버빌아파트","category":"용역 서비스 - 기타용역서비스"}]},{"lat":"37.35578466","long":"127.3268899","items":[{"name":"일억조 노래연습장","tel":"031-763-4982","addr":"경기도 광주시 곤지암읍 삼리 106-17번지 1층 예명빌딩","category":"레저업소 - 노 래 방"},{"name":"지존 PC cafe","tel":"070-7939-0271","addr":"경기도 광주시 곤지암읍 삼리 106-17번지 2층 예명빌딩","category":"일반휴게음식 - 일반한식"},{"name":"지존PC cafe","tel":"070-7939-0271","addr":"경기도 광주시 곤지암읍 삼리 106-17번지 2층 예명빌딩","category":"레저업소 - 기타레져업소"}]},{"lat":"37.35331295","long":"127.3312246","items":[{"name":"장보는강아지와고양이","tel":"070-8851-4286","addr":"경기도 광주시 곤지암읍 삼리 96-1번지","category":"문화.취미 - 애완동물"}]},{"lat":"37.35438992","long":"127.3295024","items":[{"name":"정글인터네셔널","tel":"","addr":"경기도 광주시 곤지암읍 삼리 109-3번지 까사펠리스 A동 2층 202호","category":"용역 서비스 - 소프트웨어"}]},{"lat":"37.35503683","long":"127.3235796","items":[{"name":"정운개발","tel":"","addr":"경기도 광주시 곤지암읍 삼리 391-5번지 굿모닝하우스 103동 101호","category":"용역 서비스 - 기타용역서비스"}]},{"lat":"37.3523423","long":"127.3335793","items":[{"name":"제일베아링","tel":"031-797-6208","addr":"경기도 광주시 곤지암읍 삼리 6-23번지 686호","category":"기타 - 기계공구"},{"name":"조인공조닥트","tel":"031-797-8051","addr":"경기도 광주시 곤지암읍 삼리 6-23번지","category":"건축자재 - 기타건축자재"}]},{"lat":"37.35687368","long":"127.3240276","items":[{"name":"제주은희네해장국곤지암삼리점","tel":"031-8028-8003","addr":"경기도 광주시 곤지암읍 삼리 137-4번지","category":"일반휴게음식 - 일반한식"}]},{"lat":"37.35165159","long":"127.3124706","items":[{"name":"주식회사 신세기","tel":"031-763-4761","addr":"경기도 광주시 곤지암읍 삼리 547번지","category":"가구 - 일반가구"}]},{"lat":"37.35175995","long":"127.3089158","items":[{"name":"주식회사 이루미","tel":"031-761-8965","addr":"경기도 광주시 곤지암읍 삼리 588-16번지 2층","category":"수리서비스 - 세탁소"}]},{"lat":"37.35513256","long":"127.3281173","items":[{"name":"주엠에스","tel":"","addr":"경기도 광주시 곤지암읍 삼리 679번지 현진에버빌아파트","category":"레져용품 - 악기점"}]},{"lat":"37.357235","long":"127.3236905","items":[{"name":"초월흑염소요리전문점","tel":"031-765-2002","addr":"경기도 광주시 곤지암읍 삼리 140-1번지 1층","category":"일반휴게음식 - 일반한식"}]},{"lat":"37.34934503","long":"127.3356879","items":[{"name":"친퀘테레","tel":"031-764-9333","addr":"경기도 광주시 곤지암읍 삼리 33-5번지 1,2층","category":"일반휴게음식 - 서양음식"}]},{"lat":"37.35515108","long":"127.324641","items":[{"name":"카페라움","tel":"070-7785-3056","addr":"경기도 광주시 곤지암읍 삼리 396-3번지 1층","category":"일반휴게음식 - 서양음식"}]},{"lat":"37.34540365","long":"127.3338874","items":[{"name":"쿠잉438","tel":"031-769-4380","addr":"경기도 광주시 곤지암읍 삼리 43-8번지 1층","category":"일반휴게음식 - 서양음식"}]},{"lat":"37.35679032","long":"127.3248625","items":[{"name":"킹's 세차장","tel":"","addr":"경기도 광주시 곤지암읍 삼리 136-5번지","category":"자동차정비 유지 - 세차장"}]},{"lat":"37.35362076","long":"127.3306955","items":[{"name":"타이어월드 곤지암점","tel":"031-797-0997","addr":"경기도 광주시 곤지암읍 삼리 97-16번지","category":"자동차정비 유지 - 자동차시트·타이어"}]},{"lat":"37.34526028","long":"127.3336047","items":[{"name":"태화산명가","tel":"","addr":"경기도 광주시 곤지암읍 삼리 46번지 1층","category":"일반휴게음식 - 일반한식"}]},{"lat":"37.35484151","long":"127.33236","items":[{"name":"토종닭곰탕","tel":"","addr":"경기도 광주시 곤지암읍 삼리 612-47번지","category":"일반휴게음식 - 일반한식"}]},{"lat":"37.35962319","long":"127.3167813","items":[{"name":"하나정한우명가","tel":"031-769-3500","addr":"경기도 광주시 곤지암읍 삼리 177-3","category":"일반휴게음식 - 일반한식"}]},{"lat":"37.35667985","long":"127.3156629","items":[{"name":"하와이스크린골프","tel":"031-7601-1800","addr":"경기도 광주시 곤지암읍 삼리 224번지","category":"회원제형태 - 레져업소"}]},{"lat":"37.35256948","long":"127.3328918","items":[{"name":"한국타이어(곤지암)","tel":"031-764-1818","addr":"경기도 광주시 곤지암읍 삼리 6-3번지","category":"자동차정비 유지 - 자동차시트·타이어"}]},{"lat":"37.34487329","long":"127.333445","items":[{"name":"한마음특장공업사","tel":"031-798-9898","addr":"경기도 광주시 곤지암읍 삼리 47-2번지","category":"용역 서비스 - 기타용역서비스"}]},{"lat":"37.35331444","long":"127.3140011","items":[{"name":"한통도시락","tel":"031-797-0075","addr":"경기도 광주시 곤지암읍 삼리 294-3번지","category":"일반휴게음식 - 일반한식"}]},{"lat":"37.35245741","long":"127.3343021","items":[{"name":"해송풍천장어","tel":"031-761-8895","addr":"경기도 광주시 곤지암읍 삼리 3-2번지 1-2층","category":"일반휴게음식 - 일반한식"}]},{"lat":"37.35001377","long":"127.3116964","items":[{"name":"현대타공","tel":"031-792-1847","addr":"경기도 광주시 곤지암읍 삼리 577-2번지 1층","category":"건축자재 - 기타건축자재"}]},{"lat":"37.35587203","long":"127.3245877","items":[{"name":"현우카센타","tel":"031-764-4901","addr":"경기도 광주시 곤지암읍 삼리 141-9번지 1층","category":"자동차정비 유지 - 자동차정비"}]},{"lat":"37.35862112","long":"127.3208858","items":[{"name":"형제산업가스","tel":"031-761-5308","addr":"경기도 광주시 곤지암읍 삼리 153-2번지","category":"연료판매점 - 기타연료"}]},{"lat":"37.35372972","long":"127.3303912","items":[{"name":"홀인원여관","tel":"031-761-4487","addr":"경기도 광주시 곤지암읍 삼리 98-18번지","category":"숙박업 - 여관/기타숙박업"}]},{"lat":"37.35566483","long":"127.3278713","items":[{"name":"효소사랑","tel":"02-855-4952","addr":"경기도 광주시 곤지암읍 삼리 679번지 현진에버빌 103동 603호","category":"회원제형태 - 건강식품"}]}]