[{"lat":"37.45841457","long":"127.54436171","items":[{"name":"star kennel(스타켄넬)","tel":"031-775-0110","addr":"경기도 양평군 개군면 공세리 115-1번지","category":"문화.취미 - 애완동물"}]},{"lat":"37.465553718","long":"127.52967346","items":[{"name":"w.comma","tel":"031-774-8071","addr":"경기도 양평군 개군면 공세리 347-12","category":"건축자재 - 목재·석재·철물"}]},{"lat":"37.468972832","long":"127.53272692","items":[{"name":"굿앤굿스","tel":"","addr":"경기도 양평군 개군면 공세리 389-7번지","category":"유통업 영리 - 편 의 점"},{"name":"대명리조트","tel":"031-772-8363","addr":"경기도 양평군 개군면 공세리 389-7번지","category":"보건위생 - 사우나"}]},{"lat":"37.466055234","long":"127.52833185","items":[{"name":"금화냉동","tel":"","addr":"경기도 양평군 개군면 공세리 301번지","category":"용역 서비스 - 기타용역서비스"}]},{"lat":"37.467247586","long":"127.53369817","items":[{"name":"대명풍천장어","tel":"031-772-8896","addr":"경기도 양평군 개군면 공세리 227-37번지","category":"일반휴게음식 - 일반한식"}]},{"lat":"37.464722422","long":"127.53822427","items":[{"name":"댕댕그라운드","tel":"02-1111-1111","addr":"경기도 양평군 개군면 공세리 254번지","category":"일반휴게음식 - 일반한식"}]},{"lat":"37.463081393","long":"127.53450515","items":[{"name":"람비즈산삼마루영농조합법인","tel":"02-887-3389","addr":"경기도 양평군 개군면 공세리 186-1번지","category":"건강식품 - 인삼제품"}]},{"lat":"37.468282689","long":"127.53191947","items":[{"name":"레스몰노래연습장","tel":"031-771-1429","addr":"경기도 양평군 개군면 공세리 295-6번지","category":"레저업소 - 노 래 방"}]},{"lat":"37.467470848","long":"127.53011645","items":[{"name":"무사이온(Mousaion)","tel":"070-8881-3658","addr":"경기도 양평군 개군면 공세리 298-1번지","category":"일반휴게음식 - 일반한식"}]},{"lat":"37.465138565","long":"127.52780548","items":[{"name":"빵빵해요","tel":"","addr":"경기도 양평군 개군면 공세리 327-7번지","category":"음료식품 - 제과점"},{"name":"찌깐한커피숍","tel":"","addr":"경기도 양평군 개군면 공세리 327-7번지","category":"일반휴게음식 - 서양음식"}]},{"lat":"37.46236347","long":"127.5338671","items":[{"name":"산삼마루","tel":"031-773-3364","addr":"경기도 양평군 개군면 공세리 185-1","category":"건강식품 - 인삼제품"}]},{"lat":"37.46528282","long":"127.52778388","items":[{"name":"섭이랑","tel":"031-771-9822","addr":"경기도 양평군 개군면 공세리 327-6번지","category":"일반휴게음식 - 일반한식"},{"name":"신내여관","tel":"031-773-0784","addr":"경기도 양평군 개군면 공세리 327-6번지","category":"숙박업 - 여관/기타숙박업"}]},{"lat":"37.468220482","long":"127.53172687","items":[{"name":"수라청","tel":"031-774-8113","addr":"경기도 양평군 개군면 공세리 295-7번지","category":"일반휴게음식 - 일반한식"}]},{"lat":"37.466443097","long":"127.53025618","items":[{"name":"신내농축산물직판장","tel":"031-771-9588","addr":"경기도 양평군 개군면 공세리 309번지","category":"음료식품 - 기타음료식품"}]},{"lat":"37.465638882","long":"127.52875847","items":[{"name":"신내닭집산솔향","tel":"031-772-2933","addr":"경기도 양평군 개군면 공세리 326-2번지","category":"일반휴게음식 - 일반한식"}]},{"lat":"37.465389328","long":"127.52814634","items":[{"name":"신내매운탕","tel":"031-772-5082","addr":"경기도 양평군 개군면 공세리 328-1","category":"일반휴게음식 - 일반한식"},{"name":"이화수퍼","tel":"031-772-5082","addr":"경기도 양평군 개군면 공세리 328-1번지","category":"유통업 영리 - 슈퍼마켓"}]},{"lat":"37.466616116","long":"127.53186251","items":[{"name":"신내보리밥","tel":"031-771-9199","addr":"경기도 양평군 개군면 공세리 221-1번지 1층","category":"일반휴게음식 - 일반한식"}]},{"lat":"37.467335803","long":"127.53411703","items":[{"name":"신내장어구이","tel":"031-774-1592","addr":"경기도 양평군 개군면 공세리 227-13","category":"일반휴게음식 - 일반한식"},{"name":"청전장어","tel":"031-774-1592","addr":"경기도 양평군 개군면 공세리 227-13번지","category":"음료식품 - 농·축·수산품"}]},{"lat":"37.466392595","long":"127.53147662","items":[{"name":"신내정가네추어탕","tel":"031-772-8443","addr":"경기도 양평군 개군면 공세리 314-1번지","category":"일반휴게음식 - 일반한식"}]},{"lat":"37.467304992","long":"127.53295253","items":[{"name":"아델라 한옥","tel":"031-772-1908","addr":"경기도 양평군 개군면 공세리 227-18번지","category":"숙박업 - 여관/기타숙박업"},{"name":"아델라한옥","tel":"031-772-1908","addr":"경기도 양평군 개군면 공세리 227-18번지","category":"레저업소 - 기타레져업소"}]},{"lat":"37.467171622","long":"127.53255596","items":[{"name":"아델라한옥","tel":"031-772-1908","addr":"경기도 양평군 개군면 공세리 227-27번지 나동 1층","category":"일반휴게음식 - 일반한식"},{"name":"홍소","tel":"031-1111-1111","addr":"경기도 양평군 개군면 공세리 227-27번지","category":"일반휴게음식 - 일반한식"}]},{"lat":"37.468143641","long":"127.5307768","items":[{"name":"양평수상안전교육원","tel":"","addr":"경기도 양평군 개군면 공세리 389-2번지 쉐르빌호텔 389호","category":"레저업소 - 기타레져업소"}]},{"lat":"37.465003421","long":"127.52780453","items":[{"name":"양평신내서울해장국","tel":"031-773-8001","addr":"경기도 양평군 개군면 공세리 327-8번지","category":"일반휴게음식 - 일반한식"}]},{"lat":"37.456085378","long":"127.55702582","items":[{"name":"엠마","tel":"070-4132-2833","addr":"경기도 양평군 개군면 공세리 2-58","category":"회원제형태 - 기타4"}]},{"lat":"37.465388222","long":"127.528395","items":[{"name":"이화숯불갈비","tel":"031-772-6487","addr":"경기도 양평군 개군면 공세리 326-7번지","category":"일반휴게음식 - 일반한식"}]},{"lat":"37.466280635","long":"127.5323349","items":[{"name":"제이앤제이다육이","tel":"","addr":"경기도 양평군 개군면 공세리 341-7번지 1층","category":"문화.취미 - 화원"}]},{"lat":"37.466614243","long":"127.53228074","items":[{"name":"지구측량설계공사","tel":"070-4523-1201","addr":"경기도 양평군 개군면 공세리 227-8번지 1층","category":"용역 서비스 - 사무서비스"},{"name":"플라워마리","tel":"031-775-9339","addr":"경기도 양평군 개군면 공세리 227-8번지","category":"의류 - 정장"}]},{"lat":"37.465445394","long":"127.52769459","items":[{"name":"참새방앗간","tel":"031-775-3559","addr":"경기도 양평군 개군면 공세리 329-6번지","category":"일반휴게음식 - 일반한식"}]},{"lat":"37.46694775","long":"127.53224918","items":[{"name":"촌맛집","tel":"031-775-4666","addr":"경기도 양평군 개군면 공세리 222-4 8/2","category":"일반휴게음식 - 일반한식"}]},{"lat":"37.468032747","long":"127.53139773","items":[{"name":"추억속의한찬","tel":"031-772-7139","addr":"경기도 양평군 개군면 공세리 295-2번지","category":"일반휴게음식 - 일반한식"}]},{"lat":"37.466364725","long":"127.54163836","items":[{"name":"펠리스","tel":"031-773-7272","addr":"경기도 양평군 개군면 공세리 275-2번지","category":"신변잡화 - 액세서리"}]}]