[{"lat":"38.13097046","long":"127.0454242","items":[{"name":"(주)시코드","tel":"031-834-7271","addr":"경기도 연천군 군남면 옥계리 1259번지 연천미라클타운","category":"숙박업 - 여관/기타숙박업"},{"name":"한우빈(HANU Bean)","tel":"070-7522-9863","addr":"경기도 연천군 군남면 옥계리 1259번지 2층","category":"일반휴게음식 - 일반한식"}]},{"lat":"38.12338095","long":"127.0552275","items":[{"name":"고사리랜드","tel":"031-834-2852","addr":"경기도 연천군 군남면 옥계리 244-1번지","category":"음료식품 - 농·축·수산품"}]},{"lat":"38.12024925","long":"127.0468891","items":[{"name":"드라마 미술 전시장","tel":"031-834-7310","addr":"경기도 연천군 군남면 옥계리 475-4번지","category":"용역 서비스 - 사무서비스"}]},{"lat":"38.12249903","long":"127.0530259","items":[{"name":"미니스톱 연천옥계점","tel":"031-1577-9621","addr":"경기도 연천군 군남면 옥계리 264-7번지","category":"유통업 영리 - 편 의 점"},{"name":"태풍민박","tel":"031-834-1265","addr":"경기도 연천군 군남면 옥계리 264-7번지","category":"숙박업 - 여관/기타숙박업"}]},{"lat":"38.12321906","long":"127.0546116","items":[{"name":"에이플러스닥컴","tel":"031-834-7119","addr":"경기도 연천군 군남면 옥계리 243-4 1/4","category":"사무통신 - 컴퓨터"}]},{"lat":"38.10963845","long":"127.041843","items":[{"name":"연강술술호연재","tel":"031-3463-2312","addr":"경기도 연천군 군남면 옥계리 681-3번지","category":"일반휴게음식 - 일반한식"}]},{"lat":"38.13024125","long":"127.0439753","items":[{"name":"연천미라클타운 한옥카페","tel":"","addr":"경기도 연천군 군남면 옥계리 1259-4번지","category":"일반휴게음식 - 서양음식"}]},{"lat":"38.11116","long":"127.0446488","items":[{"name":"연천지하수","tel":"031-834-9963","addr":"경기도 연천군 군남면 옥계리 625-10번지","category":"용역 서비스 - 기타용역서비스"}]},{"lat":"38.12332695","long":"127.0551134","items":[{"name":"옥계떡방앗간","tel":"031-834-2455","addr":"경기도 연천군 군남면 옥계리 244-4번지","category":"음료식품 - 제과점"}]},{"lat":"38.12294136","long":"127.0509164","items":[{"name":"옥계마을 영농조합법인","tel":"031-834-2958","addr":"경기도 연천군 군남면 옥계리 484-1","category":"음료식품 - 농·축·수산품"}]},{"lat":"38.12324641","long":"127.0538931","items":[{"name":"옥계상회","tel":"031-834-2408","addr":"경기도 연천군 군남면 옥계리 252-6번지","category":"음료식품 - 기타음료식품"}]},{"lat":"38.11402435","long":"127.0460644","items":[{"name":"이마트24 연천옥계리점","tel":"","addr":"경기도 연천군 군남면 옥계리 615-5번지 1층","category":"유통업 영리 - 편 의 점"}]},{"lat":"38.12260825","long":"127.0503688","items":[{"name":"한희순발효갤러리","tel":"031-834-4475","addr":"경기도 연천군 군남면 옥계리 494-2번지","category":"음료식품 - 기타음료식품"}]}]