[{"lat":"37.754308955","long":"126.78109725","items":[{"name":"(주) 클린케어","tel":"031-949-3675","addr":"경기도 파주시 금릉동 211-5번지","category":"용역 서비스 - 종합용역"},{"name":"(주)지앤지스파","tel":"031-946-0063","addr":"경기도 파주시 금릉동 211-5번지","category":"보건위생 - 사우나"},{"name":"구제창고","tel":"","addr":"경기도 파주시 금릉동 211-5번지","category":"의류 - 정장"},{"name":"그림광고","tel":"031-944-2603","addr":"경기도 파주시 금릉동 211-5번지","category":"건축자재 - 인테리어전문"},{"name":"금촌탁구교실","tel":"031-948-5979","addr":"경기도 파주시 금릉동 211-5외5필지메트로프라자1차406.408호","category":"레저업소 - 기타레져업소"},{"name":"더착한커피금촌점","tel":"070-4910-9976","addr":"경기도 파주시 금릉동 211-5번지","category":"일반휴게음식 - 서양음식"},{"name":"리홈쿠첸파주센타","tel":"031-942-1364","addr":"경기도 파주시 금릉동 211-5번지 메트로 106호,107호","category":"전기제품 - 가전제품"},{"name":"메트로프라자상가관리단","tel":"02-0000-0000","addr":"경기도 파주시 금릉동 211-5번지","category":"자동차정비 유지 - 주차장"},{"name":"블루투나참치전문점","tel":"031-945-3785","addr":"경기도 파주시 금릉동 211-5번지","category":"일반휴게음식 - 일식·회집"},{"name":"시온헤어모드","tel":"031-944-8639","addr":"경기도 파주시 금릉동 211-5번지","category":"보건위생 - 미용원"},{"name":"에이엔씨 인터내셔널","tel":"02-1800-0765","addr":"경기도 파주시 금릉동 211-5번지","category":"음료식품 - 제과점"},{"name":"오디션 노래연습장","tel":"031-111-1111","addr":"경기도 파주시 금릉동 211-5번지","category":"레저업소 - 노 래 방"},{"name":"오디션노래연습장","tel":"031-957-0125","addr":"경기도 파주시 금릉동 211-5번지","category":"레저업소 - 노 래 방"},{"name":"요가원-유즈","tel":"031-943-5554","addr":"경기도 파주시 금릉동 211-5번지","category":"회원제형태 - 레져업소"},{"name":"임우영행정사사무소","tel":"031-957-0369","addr":"경기도 파주시 금릉동 211-5번지","category":"용역 서비스 - 법률회계서비스(개인)"},{"name":"자동차밧데리전문할인매장","tel":"031-944-0605","addr":"경기도 파주시 금릉동 211-5번지","category":"자동차정비 유지 - 자동차부품"},{"name":"전주팔미콩나물국밥(금촌점)","tel":"031-949-9559","addr":"경기도 파주시 금릉동 211-5번지","category":"일반휴게음식 - 일반한식"},{"name":"주식회사 밀알","tel":"031-941-5079","addr":"경기도 파주시 금릉동 211-5번지","category":"가구 - 일반가구"},{"name":"지앤지","tel":"031-946-1606","addr":"경기도 파주시 금릉동 211-5번지","category":"보건위생 - 피부미용실"},{"name":"지앤지매점","tel":"031-946-0063","addr":"경기도 파주시 금릉동 211-5번지","category":"일반휴게음식 - 스넥"},{"name":"지앤지식당","tel":"031-946-0063","addr":"경기도 파주시 금릉동 211-5번지","category":"일반휴게음식 - 일반한식"},{"name":"카페에스쁘아","tel":"031-949-3620","addr":"경기도 파주시 금릉동 211-5번지","category":"일반휴게음식 - 서양음식"},{"name":"파주지역자활센터","tel":"031-949-3620","addr":"경기도 파주시 금릉동 211-5번지","category":"유통업 영리 - 기타유통업"}]},{"lat":"37.756092463","long":"126.78573311","items":[{"name":"(주)라이브엔터테인먼트","tel":"031-949-5727","addr":"경기도 파주시 금릉동 186-5번지","category":"용역 서비스 - 종합용역"},{"name":"스타디움앤쿡","tel":"031-944-3459","addr":"경기도 파주시 금릉동 186-5번지","category":"일반휴게음식 - 일반한식"}]},{"lat":"37.754978889","long":"126.78282006","items":[{"name":"(주)필레오","tel":"02-851-9983","addr":"경기도 파주시 금릉동 199-128번지","category":"레져용품 - 골프용품 전문점"},{"name":"로얄치킨","tel":"031-947-9287","addr":"경기도 파주시 금릉동 199-128번지","category":"일반휴게음식 - 스넥"},{"name":"본수학교실교습소","tel":"031-948-1109","addr":"경기도 파주시 금릉동 199-128번지","category":"회원제형태 - 학원"},{"name":"엘르","tel":"031-946-5585","addr":"경기도 파주시 금릉동 199-128번지","category":"회원제형태 - 기타4"},{"name":"파주유니스타 요양보호사교육원","tel":"031-8071-3651","addr":"경기도 파주시 금릉동 199-128번지","category":"학원 - 기능학원"}]},{"lat":"37.754288731","long":"126.77992853","items":[{"name":"100세동안파주점","tel":"031-945-4951","addr":"경기도 파주시 금릉동 210-5번지","category":"보건위생 - 의료용품"},{"name":"나통삼","tel":"031-945-0210","addr":"경기도 파주시 금릉동 210-5번지","category":"일반휴게음식 - 일반한식"},{"name":"정문약국","tel":"031-948-4628","addr":"경기도 파주시 금릉동 210-5번지","category":"약국 - 약국"}]},{"lat":"37.751816059","long":"126.77779137","items":[{"name":"C.S인테리어","tel":"031-946-5251","addr":"경기도 파주시 금릉동 433-5번지","category":"건축자재 - 인테리어전문"},{"name":"주식회사열린교육","tel":"031-943-3229","addr":"경기도 파주시 금릉동 433-5번지","category":"회원제형태 - 학원"}]},{"lat":"37.752536817","long":"126.77778918","items":[{"name":"G1230파주학원","tel":"031-948-3251","addr":"경기도 파주시 금릉동 433-1번지","category":"회원제형태 - 학원"},{"name":"가위소리","tel":"070-7566-2398","addr":"경기도 파주시 금릉동 433-1번지","category":"보건위생 - 미용원"},{"name":"그릿음악학원","tel":"031-943-7760","addr":"경기도 파주시 금릉동 433-1번지","category":"학원 - 예·체능계학원"},{"name":"벚꽃식탁","tel":"031-941-1570","addr":"경기도 파주시 금릉동 433-1번지","category":"일반휴게음식 - 일반한식"},{"name":"속놀란분식","tel":"031-942-8823","addr":"경기도 파주시 금릉동 433-1번지","category":"일반휴게음식 - 스넥"},{"name":"용인대 태비태권도장","tel":"031-942-0114","addr":"경기도 파주시 금릉동 433-1번지","category":"학원 - 예·체능계학원"},{"name":"이디야커피 파주 금릉점","tel":"031-949-1992","addr":"경기도 파주시 금릉동 433-1번지","category":"일반휴게음식 - 서양음식"}]},{"lat":"37.751782355","long":"126.77901694","items":[{"name":"GS25금촌스쿨점","tel":"","addr":"경기도 파주시 금릉동 437-7번지","category":"유통업 영리 - 편 의 점"}]},{"lat":"37.751172439","long":"126.78045984","items":[{"name":"SMDKOREA","tel":"031-957-2053","addr":"경기도 파주시 금릉동 445-10번지","category":"기타 - 기계공구"}]},{"lat":"37.752450519","long":"126.77978653","items":[{"name":"T모터스","tel":"031-943-4622","addr":"경기도 파주시 금릉동 439-10번지","category":"자동차정비 유지 - 세차장"}]},{"lat":"37.751782032","long":"126.77884674","items":[{"name":"WLG스포츠클럽","tel":"070-5031-0327","addr":"경기도 파주시 금릉동 437-6번지","category":"학원 - 예·체능계학원"},{"name":"마미야미","tel":"02-944-4681","addr":"경기도 파주시 금릉동 437-6번지","category":"일반휴게음식 - 일반한식"},{"name":"제이(J)","tel":"070-7848-9306","addr":"경기도 파주시 금릉동 437-6번지","category":"의류 - 정장"}]},{"lat":"37.755691674","long":"126.78337398","items":[{"name":"pray player","tel":"02-3445-0153","addr":"경기도 파주시 금릉동 199-6번지 장안흰돌마을아파트","category":"문화.취미 - 티켓"}]},{"lat":"37.751595734","long":"126.78037914","items":[{"name":"가온0625","tel":"031-944-0625","addr":"경기도 파주시 금릉동 442-12번지","category":"일반휴게음식 - 서양음식"}]},{"lat":"37.757004322","long":"126.78190624","items":[{"name":"가음건설중기","tel":"031-944-2468","addr":"경기도 파주시 금릉동 196-3 동양부로미상가 301호","category":"기타 - 기계공구"}]},{"lat":"37.75445462","long":"126.78190248","items":[{"name":"거대한맛기똥찬손만두","tel":"031-947-4747","addr":"경기도 파주시 금릉동 211-11번지","category":"일반휴게음식 - 일반한식"},{"name":"금성양꼬치","tel":"031-948-7808","addr":"경기도 파주시 금릉동 211-11번지","category":"일반휴게음식 - 일반한식"},{"name":"달보드레","tel":"","addr":"경기도 파주시 금릉동 211-11번지","category":"음료식품 - 제과점"},{"name":"밀알쇼파","tel":"031-947-6853","addr":"경기도 파주시 금릉동 211-11번지","category":"가구 - 일반가구"},{"name":"아이스박스 아이스크림할인점","tel":"031-331-1331","addr":"경기도 파주시 금릉동 211-11번지","category":"음료식품 - 기타음료식품"},{"name":"오대양해물촌","tel":"031-949-4760","addr":"경기도 파주시 금릉동 211-11번지","category":"일반휴게음식 - 일반한식"},{"name":"중앙항외과","tel":"031-946-1761","addr":"경기도 파주시 금릉동 211-11메트로프라자4층405~408호","category":"의원 - 의원"},{"name":"진국뼈다귀","tel":"031-949-5895","addr":"경기도 파주시 금릉동 211-11번지","category":"일반휴게음식 - 일반한식"},{"name":"쿠쿠파주서비스센터","tel":"031-949-8166","addr":"경기도 파주시 금릉동 211-11번지","category":"수리서비스 - 가정용품수리"},{"name":"파주밀요양센터","tel":"031-942-5012","addr":"경기도 파주시 금릉동 211-11번지","category":"기타의료기관 - 기타의료기관 및 기타"},{"name":"하나치과의원","tel":"031-947-7508","addr":"경기도 파주시 금릉동 211-11번지","category":"의원 - 치과의원"},{"name":"해드림","tel":"","addr":"경기도 파주시 금릉동 211-11번지","category":"일반휴게음식 - 일반한식"}]},{"lat":"37.750811009","long":"126.77990492","items":[{"name":"건국우유파주보급소","tel":"031-944-8557","addr":"경기도 파주시 금릉동 444-7번지","category":"음료식품 - 기타음료식품"},{"name":"윤헤어","tel":"031-111-1111","addr":"경기도 파주시 금릉동 444-7번지","category":"보건위생 - 미용원"}]},{"lat":"37.754395618","long":"126.78408135","items":[{"name":"경동ENG","tel":"031-939-4914","addr":"경기도 파주시 금릉동 199-6번지 장안흰돌마을아파트","category":"건축자재 - 보일러·펌프·샷시"}]},{"lat":"37.752008109","long":"126.77928859","items":[{"name":"고기어때","tel":"","addr":"경기도 파주시 금릉동 438-6번지","category":"일반휴게음식 - 일반한식"},{"name":"보보","tel":"031-000-0000","addr":"경기도 파주시 금릉동 438-6번지","category":"의류 - 기타의류"}]},{"lat":"37.754284736","long":"126.78259517","items":[{"name":"고추잠자리","tel":"031-944-4682","addr":"경기도 파주시 금릉동 213-3번지","category":"의류 - 내의판매"},{"name":"나비야노래연습장","tel":"031-949-4522","addr":"경기도 파주시 금릉동 213-3번지","category":"레저업소 - 노 래 방"},{"name":"성찬대리점","tel":"031-944-0816","addr":"경기도 파주시 금릉동 213-3번지","category":"사무통신 - 통신기기"},{"name":"스타키보청기파주점","tel":"031-948-9284","addr":"경기도 파주시 금릉동 213-3번지","category":"보건위생 - 의료용품"},{"name":"신도시오토바이금촌점JJ모터스","tel":"031-946-1126","addr":"경기도 파주시 금릉동 213-3번지","category":"자동차판매 - 이륜차판매"},{"name":"영진필름난방","tel":"031-943-9102","addr":"경기도 파주시 금릉동 213-3번지 외1필지 파워프라자","category":"용역 서비스 - 기타용역서비스"},{"name":"유라이트","tel":"031-944-4272","addr":"경기도 파주시 금릉동 213-3번지","category":"건축자재 - 조명기구"}]},{"lat":"37.752314388","long":"126.77926498","items":[{"name":"공방 순(soon)","tel":"070-8840-7454","addr":"경기도 파주시 금릉동 438-4번지","category":"문화.취미 - 문화취미기타"}]},{"lat":"37.754392276","long":"126.78228847","items":[{"name":"규원테크","tel":"031-949-4401","addr":"경기도 파주시 금릉동 213-24번지","category":"자동차정비 유지 - 자동차부품"},{"name":"파주드라이브","tel":"032-949-4401","addr":"경기도 파주시 금릉동 213-24번지","category":"자동차정비 유지 - 자동차부품"}]},{"lat":"37.751781708","long":"126.77867654","items":[{"name":"그레이스뷰티멀티샵","tel":"031-944-0159","addr":"경기도 파주시 금릉동 437-5번지","category":"보건위생 - 미용원"},{"name":"소품","tel":"","addr":"경기도 파주시 금릉동 437-5번지","category":"신변잡화 - 기타잡화"}]},{"lat":"37.750450823","long":"126.78000812","items":[{"name":"김정문칼국수","tel":"031-945-9458","addr":"경기도 파주시 금릉동 446-8번지","category":"일반휴게음식 - 일반한식"}]},{"lat":"37.752253833","long":"126.78059276","items":[{"name":"꼬맹이","tel":"031-945-8937","addr":"경기도 파주시 금릉동 441-9번지","category":"의류 - 정장"}]},{"lat":"37.751789507","long":"126.77804108","items":[{"name":"꼼지락마녀","tel":"031-945-6828","addr":"경기도 파주시 금릉동 437-1번지","category":"수리서비스 - 세탁소"},{"name":"불스떡볶이 금촌점","tel":"031-944-1164","addr":"경기도 파주시 금릉동 437-1번지","category":"일반휴게음식 - 스넥"}]},{"lat":"37.750927338","long":"126.77948474","items":[{"name":"꽃보다 유","tel":"","addr":"경기도 파주시 금릉동 443-8번지","category":"보건위생 - 피부미용실"},{"name":"런스포츠","tel":"031-942-0348","addr":"경기도 파주시 금릉동 443-8번지","category":"레져용품 - 스포츠·레져용품"}]},{"lat":"37.75244953","long":"126.77926457","items":[{"name":"꿈이 있는 스마트학원","tel":"031-942-4125","addr":"경기도 파주시 금릉동 438-3번지","category":"학원 - 보습학원"},{"name":"오늘은국수랑국밥","tel":"","addr":"경기도 파주시 금릉동 438-3번지","category":"일반휴게음식 - 일반한식"}]},{"lat":"37.756258234","long":"126.78281627","items":[{"name":"뉴크린빨래방","tel":"031-945-8300","addr":"경기도 파주시 금릉동 199-83번지","category":"수리서비스 - 세탁소"},{"name":"부영각","tel":"031-946-1528","addr":"경기도 파주시 금릉동 199-83번지","category":"일반휴게음식 - 중국식"}]},{"lat":"37.751983292","long":"126.78045741","items":[{"name":"다모아 아이스크림할인점","tel":"","addr":"경기도 파주시 금릉동 441-7번지","category":"음료식품 - 기타음료식품"},{"name":"준바스","tel":"","addr":"경기도 파주시 금릉동 441-7번지","category":"건축자재 - 건축용 요업제품"}]},{"lat":"37.754645559","long":"126.78771179","items":[{"name":"다인다육","tel":"031-000-0000","addr":"경기도 파주시 금릉동 185-1","category":"문화.취미 - 화원"}]},{"lat":"37.752258065","long":"126.7780737","items":[{"name":"당신을주문합니다","tel":"","addr":"경기도 파주시 금릉동 434-3번지","category":"일반휴게음식 - 일반한식"}]},{"lat":"37.756392443","long":"126.78231658","items":[{"name":"대가","tel":"031-941-3592","addr":"경기도 파주시 금릉동 197-11번지","category":"일반휴게음식 - 일반한식"},{"name":"에튀드음악학원","tel":"070-8141-2573","addr":"경기도 파주시 금릉동 197-11번지","category":"학원 - 예·체능계학원"},{"name":"용인대 힘찬청룡 태권도장","tel":"07-8141-2573","addr":"경기도 파주시 금릉동 197-11번지","category":"학원 - 예·체능계학원"}]},{"lat":"37.755978623","long":"126.78264689","items":[{"name":"대보건업","tel":"031-941-7886","addr":"경기도 파주시 금릉동 199-75번지","category":"용역 서비스 - 기타용역서비스"},{"name":"수현상사","tel":"070-8955-3922","addr":"경기도 파주시 금릉동 199-75번지","category":"신변잡화 - 기타잡화"}]},{"lat":"37.751064261","long":"126.78042612","items":[{"name":"더 우쿨렐레","tel":"031-948-4913","addr":"경기도 파주시 금릉동 445-9번지","category":"레져용품 - 악기점"}]},{"lat":"37.752176438","long":"126.77779027","items":[{"name":"더쎈학원","tel":"031-943-2243","addr":"경기도 파주시 금릉동 433-3번지","category":"학원 - 보습학원"},{"name":"비비컵","tel":"031-946-3037","addr":"경기도 파주시 금릉동 433-3번지","category":"일반휴게음식 - 스넥"},{"name":"청춘감성핫도그 파주금릉점","tel":"031-957-6978","addr":"경기도 파주시 금릉동 433-3번지","category":"일반휴게음식 - 일반한식"},{"name":"한그릇떡볶기","tel":"031-945-9885","addr":"경기도 파주시 금릉동 433-3번지","category":"일반휴게음식 - 스넥"}]},{"lat":"37.752259534","long":"126.7788453","items":[{"name":"돈치킨","tel":"031-946-9253","addr":"경기도 파주시 금릉동 436-3번지","category":"일반휴게음식 - 일반한식"}]},{"lat":"37.752539151","long":"126.77901466","items":[{"name":"드럭스","tel":"","addr":"경기도 파주시 금릉동 436-10번지","category":"일반휴게음식 - 서양음식"},{"name":"드럭스","tel":"02-111-1111","addr":"경기도 파주시 금릉동 436-10번지","category":"일반휴게음식 - 서양음식"},{"name":"주식회사아람솔루션","tel":"00-1599-0475","addr":"경기도 파주시 금릉동 436-10번지","category":"사무통신 - 사무용 OA기기"}]},{"lat":"37.750811524","long":"126.78017725","items":[{"name":"디브로스","tel":"070-4160-1396","addr":"경기도 파주시 금릉동 445-6번지","category":"일반휴게음식 - 일반한식"},{"name":"주식회사한성종합환경","tel":"031-946-7697","addr":"경기도 파주시 금릉동 445-6번지","category":"용역 서비스 - 기타용역서비스"}]},{"lat":"37.751287351","long":"126.77929076","items":[{"name":"디케이정보기술","tel":"031-957-2391","addr":"경기도 파주시 금릉동 443-2번지","category":"사무통신 - 컴퓨터"},{"name":"표주박월드","tel":"031-945-6291","addr":"경기도 파주시 금릉동 443-2번지","category":"음료식품 - 기타음료식품"}]},{"lat":"37.752338609","long":"126.77778978","items":[{"name":"라온태권도장","tel":"031-944-8452","addr":"경기도 파주시 금릉동 433-2번지 3층","category":"학원 - 예·체능계학원"},{"name":"리스트음악학원","tel":"031-949-7978","addr":"경기도 파주시 금릉동 433-2번지","category":"학원 - 예·체능계학원"},{"name":"마니또","tel":"031-957-2919","addr":"경기도 파주시 금릉동 433-2번지","category":"일반휴게음식 - 스넥"},{"name":"언니옷장","tel":"","addr":"경기도 파주시 금릉동 433-2번지","category":"의류 - 정장"},{"name":"충무무예아카데미","tel":"031-948-3387","addr":"경기도 파주시 금릉동 433-2번지","category":"학원 - 예·체능계학원"},{"name":"하이카롱","tel":"","addr":"경기도 파주시 금릉동 433-2번지","category":"음료식품 - 제과점"},{"name":"호식이두마리금촌2호점","tel":"031-941-8183","addr":"경기도 파주시 금릉동 433-2번지","category":"일반휴게음식 - 스넥"}]},{"lat":"37.750422441","long":"126.77929336","items":[{"name":"라인에스테틱","tel":"070-4143-8277","addr":"경기도 파주시 금릉동 446-13번지","category":"보건위생 - 피부미용실"}]},{"lat":"37.752895284","long":"126.79134795","items":[{"name":"럭키건재","tel":"031-944-8500","addr":"경기도 파주시 금릉동 27-2","category":"건축자재 - 기타건축자재"}]},{"lat":"37.752006837","long":"126.77861912","items":[{"name":"레드","tel":"031-947-1319","addr":"경기도 파주시 금릉동 435-6번지","category":"보건위생 - 화장품"},{"name":"스케치북","tel":"070-4191-5581","addr":"경기도 파주시 금릉동 435-6번지","category":"문화.취미 - 문화취미기타"}]},{"lat":"37.752756175","long":"126.77943385","items":[{"name":"마이페어레이디","tel":"","addr":"경기도 파주시 금릉동 438-12번지","category":"의류 - 정장"},{"name":"아노네일","tel":"070-8267-5474","addr":"경기도 파주시 금릉동 438-12번지","category":"보건위생 - 피부미용실"}]},{"lat":"37.755924417","long":"126.78256762","items":[{"name":"만남의호프","tel":"031-945-8666","addr":"경기도 파주시 금릉동 198-30 미덕상가 105,106호","category":"일반휴게음식 - 주점"}]},{"lat":"37.752754429","long":"126.77851474","items":[{"name":"맘스김밥공방","tel":"031-941-2821","addr":"경기도 파주시 금릉동 432-1번지","category":"일반휴게음식 - 스넥"}]},{"lat":"37.75541274","long":"126.78356772","items":[{"name":"모건","tel":"031-901-1556","addr":"경기도 파주시 금릉동 199-6번지 장안흰돌마을아파트","category":"보건위생 - 화장품"}]},{"lat":"37.751814532","long":"126.79156662","items":[{"name":"모든하우징","tel":"031-942-5537","addr":"경기도 파주시 금릉동 27번지","category":"건축자재 - 건축용 요업제품"},{"name":"소담","tel":"031-944-3351","addr":"경기도 파주시 금릉동 27번지","category":"일반휴게음식 - 일반한식"}]},{"lat":"37.755122107","long":"126.78232035","items":[{"name":"모퉁이","tel":"031-945-5984","addr":"경기도 파주시 금릉동 199-50번지","category":"일반휴게음식 - 서양음식"}]},{"lat":"37.752006535","long":"126.77846026","items":[{"name":"미락","tel":"031-945-1017","addr":"경기도 파주시 금릉동 435-5번지","category":"일반휴게음식 - 일반한식"}]},{"lat":"37.752621441","long":"126.77964985","items":[{"name":"반올림피자샵금촌점","tel":"031-943-0075","addr":"경기도 파주시 금릉동 439-2번지","category":"일반휴게음식 - 서양음식"}]},{"lat":"37.75215101","long":"126.77863003","items":[{"name":"버베나","tel":"031-943-2915","addr":"경기도 파주시 금릉동 435-7번지","category":"의류 - 정장"}]},{"lat":"37.753396686","long":"126.77987447","items":[{"name":"벗나들목 사회복지법인 해피월드복지재단","tel":"031-943-0730","addr":"경기도 파주시 금릉동 428번지","category":"일반휴게음식 - 서양음식"}]},{"lat":"37.752005258","long":"126.77779079","items":[{"name":"별빛","tel":"070-4209-8800","addr":"경기도 파주시 금릉동 433-4번지","category":"일반휴게음식 - 서양음식"},{"name":"비상수학생각학원","tel":"031-946-0339","addr":"경기도 파주시 금릉동 433-4번지","category":"학원 - 보습학원"},{"name":"에이치씨엘 파주센터","tel":"031-943-5111","addr":"경기도 파주시 금릉동 433-4번지","category":"보건위생 - 화장품"},{"name":"차일드유이튼어학원","tel":"031-943-2705","addr":"경기도 파주시 금릉동 433-4번지","category":"학원 - 외국어학원"}]},{"lat":"37.752753737","long":"126.77815163","items":[{"name":"비상아이비츠-에듀학원","tel":"031-949-5555","addr":"경기도 파주시 금릉동 431-2 성일빌딩2층 비상아이비츠-에듀학원","category":"학원 - 보습학원"},{"name":"세븐일레븐파주금릉점","tel":"031-1577-0711","addr":"경기도 파주시 금릉동 431-2번지","category":"유통업 영리 - 편 의 점"},{"name":"오땡큐","tel":"031-957-2567","addr":"경기도 파주시 금릉동 431-2번지","category":"보건위생 - 화장품"},{"name":"참중국어교습소","tel":"031-948-9343","addr":"경기도 파주시 금릉동 431-2번지","category":"학원 - 외국어학원"},{"name":"파라다이스86","tel":"","addr":"경기도 파주시 금릉동 431-2번지","category":"의류 - 정장"},{"name":"피치랑파주금촌점","tel":"031-946-8502","addr":"경기도 파주시 금릉동 431-2번지","category":"일반휴게음식 - 서양음식"}]},{"lat":"37.752537358","long":"126.77807286","items":[{"name":"살롱드보떼(파주점)","tel":"031-948-2292","addr":"경기도 파주시 금릉동 434-1번지","category":"회원제형태 - 기타4"},{"name":"안녕호야","tel":"070-7423-6603","addr":"경기도 파주시 금릉동 434-1번지","category":"의류 - 정장"}]},{"lat":"37.751395465","long":"126.77929043","items":[{"name":"생선구이청아라","tel":"031-943-9162","addr":"경기도 파주시 금릉동 443-1번지 1층","category":"일반휴게음식 - 일반한식"}]},{"lat":"37.752756584","long":"126.77964945","items":[{"name":"서진마트","tel":"031-948-4469","addr":"경기도 파주시 금릉동 439-1번지","category":"유통업 영리 - 슈퍼마켓"},{"name":"주식회사 동영종합건설","tel":"031-957-7454","addr":"경기도 파주시 금릉동 439-1번지","category":"건축자재 - 기타건축자재"},{"name":"피자이탈리","tel":"031-957-1343","addr":"경기도 파주시 금릉동 439-1번지","category":"일반휴게음식 - 서양음식"}]},{"lat":"37.752009806","long":"126.780185","items":[{"name":"선인건설","tel":"031-948-8494","addr":"경기도 파주시 금릉동 440-7번지","category":"용역 서비스 - 기타용역서비스"}]},{"lat":"37.75512488","long":"126.78380686","items":[{"name":"세라어린이집[아이행복]","tel":"031-941-8774","addr":"경기도 파주시 금릉동 199-6번지 장안흰돌마을아파트","category":"학원 - 유아원"}]},{"lat":"37.75262245","long":"126.78018317","items":[{"name":"쇼캅경기북부본부","tel":"031-949-0836","addr":"경기도 파주시 금릉동 440-11번지","category":"용역 서비스 - 기타용역서비스"}]},{"lat":"37.752142411","long":"126.77884565","items":[{"name":"수양산","tel":"031-945-4576","addr":"경기도 파주시 금릉동 436-4번지","category":"일반휴게음식 - 일반한식"}]},{"lat":"37.751060755","long":"126.79325945","items":[{"name":"스피드메이트 서경점","tel":"031-948-4800","addr":"경기도 파주시 금릉동 23-2번지","category":"자동차정비 유지 - 자동차정비"}]},{"lat":"37.754980222","long":"126.78353495","items":[{"name":"씨엔피 정보통신","tel":"031-907-2266","addr":"경기도 파주시 금릉동 199-6번지 장안흰돌마을아파트","category":"사무통신 - 컴퓨터"}]},{"lat":"37.75078282","long":"126.77929228","items":[{"name":"씨유파주중고점","tel":"031-944-8771","addr":"경기도 파주시 금릉동 443-6번지","category":"유통업 영리 - 편 의 점"}]},{"lat":"37.751595413","long":"126.78020894","items":[{"name":"아띠공방","tel":"031-949-2555","addr":"경기도 파주시 금릉동 442-11번지","category":"문화.취미 - 민예·공예품"}]},{"lat":"37.750567904","long":"126.77998508","items":[{"name":"아뮤 우쿨 살롱","tel":"031-945-7340","addr":"경기도 파주시 금릉동 446-6번지","category":"레져용품 - 악기점"},{"name":"에움","tel":"070-7154-5492","addr":"경기도 파주시 금릉동 446-6번지","category":"신변잡화 - 기타잡화"}]},{"lat":"37.750566593","long":"126.77929293","items":[{"name":"아이비헤어","tel":"031-8070-2699","addr":"경기도 파주시 금릉동 446-1번지","category":"보건위생 - 미용원"}]},{"lat":"37.752450261","long":"126.77965037","items":[{"name":"앱트(ept)","tel":"","addr":"경기도 파주시 금릉동 439-3번지","category":"신변잡화 - 가방"}]},{"lat":"37.752315377","long":"126.77978694","items":[{"name":"에스엠아트인테리어(SMart인테리어)","tel":"031-949-3801","addr":"경기도 파주시 금릉동 439-9번지","category":"건축자재 - 인테리어전문"}]},{"lat":"37.752393207","long":"126.7780733","items":[{"name":"에이펙스영어교습소","tel":"031-957-9258","addr":"경기도 파주시 금릉동 434-2번지","category":"학원 - 외국어학원"}]},{"lat":"37.751784033","long":"126.779902","items":[{"name":"연세우유금촌","tel":"031-944-1421","addr":"경기도 파주시 금릉동 442-3번지","category":"음료식품 - 기타음료식품"}]},{"lat":"37.752450991","long":"126.78003617","items":[{"name":"오늘도왓쏨","tel":"","addr":"경기도 파주시 금릉동 440-3번지","category":"음료식품 - 제과점"}]},{"lat":"37.752538094","long":"126.77845866","items":[{"name":"왕산골 쌈밥정식","tel":"031-943-6430","addr":"경기도 파주시 금릉동 435-1번지","category":"일반휴게음식 - 일반한식"},{"name":"잉크와종이파주전산","tel":"031-945-0112","addr":"경기도 파주시 금릉동 435-1번지","category":"사무통신 - 기타 사무용품"}]},{"lat":"37.752755852","long":"126.77926365","items":[{"name":"원조의정부부대찌게","tel":"031-949-8855","addr":"경기도 파주시 금릉동 438-1번지 원조의정부부대찌개","category":"일반휴게음식 - 일반한식"}]},{"lat":"37.755006722","long":"126.78325119","items":[{"name":"원진산업롤","tel":"031-943-5110","addr":"경기도 파주시 금릉동 199-6번지 장안흰돌마을아파트","category":"기타 - 기타 전문점"}]},{"lat":"37.751783775","long":"126.77976584","items":[{"name":"은테이블","tel":"","addr":"경기도 파주시 금릉동 442-2번지","category":"일반휴게음식 - 서양음식"},{"name":"주식회사디앤에스","tel":"031-942-1414","addr":"경기도 파주시 금릉동 442-2번지","category":"사무통신 - 사무용 OA기기"}]},{"lat":"37.750595076","long":"126.79484931","items":[{"name":"의정부부대찌개","tel":"031-944-4670","addr":"경기도 파주시 금릉동 19-1번지","category":"일반휴게음식 - 일반한식"}]},{"lat":"37.751594576","long":"126.77976641","items":[{"name":"이가 덕보 갈비탕 갈비찜","tel":"031-949-3130","addr":"경기도 파주시 금릉동 442-8번지","category":"일반휴게음식 - 일반한식"}]},{"lat":"37.752726124","long":"126.77784535","items":[{"name":"이룸학원","tel":"031-948-8648","addr":"경기도 파주시 금릉동 431-1번지","category":"학원 - 보습학원"},{"name":"찬찬통신","tel":"031-935-2221","addr":"경기도 파주시 금릉동 431-1번지","category":"사무통신 - 통신기기"},{"name":"홍예원헤어샵","tel":"031-945-8893","addr":"경기도 파주시 금릉동 431-1번지","category":"보건위생 - 미용원"}]},{"lat":"37.75070387","long":"126.7952348","items":[{"name":"일산교자 파주점","tel":"031-943-0019","addr":"경기도 파주시 금릉동 18-5번지","category":"일반휴게음식 - 일반한식"},{"name":"홍익돈까스 금릉점","tel":"031-948-4759","addr":"경기도 파주시 금릉동 18-5번지","category":"일반휴게음식 - 일반한식"}]},{"lat":"37.752171977","long":"126.78018452","items":[{"name":"재성광고","tel":"031-943-7370","addr":"경기도 파주시 금릉동 440-8번지","category":"용역 서비스 - 종합용역"}]},{"lat":"37.752118391","long":"126.78043431","items":[{"name":"재연광고기획","tel":"031-941-5031","addr":"경기도 파주시 금릉동 441-6번지","category":"용역 서비스 - 종합용역"}]},{"lat":"37.75139583","long":"126.77948333","items":[{"name":"정성가득 장식당","tel":"031-000-0000","addr":"경기도 파주시 금릉동 443-12번지","category":"일반휴게음식 - 일반한식"}]},{"lat":"37.752393942","long":"126.77845909","items":[{"name":"조에아트","tel":"031-942-7851","addr":"경기도 파주시 금릉동 435-2번지","category":"문화.취미 - 민예·공예품"}]},{"lat":"37.752394266","long":"126.7786293","items":[{"name":"존슨집","tel":"031-957-7893","addr":"경기도 파주시 금릉동 435-9번지","category":"일반휴게음식 - 일반한식"}]},{"lat":"37.752314711","long":"126.77943518","items":[{"name":"주식회사 수목건설","tel":"031-942-0942","addr":"경기도 파주시 금릉동 438-9번지","category":"건축자재 - 인테리어전문"}]},{"lat":"37.752315119","long":"126.77965077","items":[{"name":"주식회사 윤샵","tel":"031-944-6303","addr":"경기도 파주시 금릉동 439-4번지","category":"사무통신 - 컴퓨터"}]},{"lat":"37.752393466","long":"126.77820946","items":[{"name":"주식회사 진성전기","tel":"031-959-0852","addr":"경기도 파주시 금릉동 434-9번지","category":"용역 서비스 - 기타용역서비스"}]},{"lat":"37.752621699","long":"126.77978602","items":[{"name":"주식회사 하나네트웍스","tel":"031-947-5905","addr":"경기도 파주시 금릉동 439-11번지","category":"전기제품 - 가전제품"},{"name":"핏어케이","tel":"","addr":"경기도 파주시 금릉동 439-11번지","category":"의류 - 정장"}]},{"lat":"37.756455148","long":"126.78212348","items":[{"name":"진주광고","tel":"031-949-7283","addr":"경기도 파주시 금릉동 197-10번지","category":"건축자재 - 인테리어전문"},{"name":"현미용실","tel":"031-948-4994","addr":"경기도 파주시 금릉동 197-10번지","category":"보건위생 - 미용원"}]},{"lat":"37.75478916","long":"126.78253694","items":[{"name":"차사랑카공업사","tel":"031-945-3511","addr":"경기도 파주시 금릉동 216-8번지","category":"자동차정비 유지 - 자동차정비"}]},{"lat":"37.751289562","long":"126.78045949","items":[{"name":"청정칼국수","tel":"031-957-8380","addr":"경기도 파주시 금릉동 445-11번지 1층","category":"일반휴게음식 - 일반한식"}]},{"lat":"37.752757592","long":"126.78018276","items":[{"name":"커피제이제이","tel":"031-942-2252","addr":"경기도 파주시 금릉동 440-12번지","category":"일반휴게음식 - 서양음식"}]},{"lat":"37.751595156","long":"126.78007277","items":[{"name":"케이에스디","tel":"031-949-0044","addr":"경기도 파주시 금릉동 442-10번지","category":"용역 서비스 - 종합용역"}]},{"lat":"37.752622172","long":"126.78003565","items":[{"name":"코히노리바","tel":"031-949-2356","addr":"경기도 파주시 금릉동 440-2번지","category":"일반휴게음식 - 서양음식"}]},{"lat":"37.750423494","long":"126.77984935","items":[{"name":"퀼트","tel":"031-949-1255","addr":"경기도 파주시 금릉동 446-9번지","category":"일반휴게음식 - 일반한식"}]},{"lat":"37.750116119","long":"126.77929428","items":[{"name":"크램","tel":"031-000-0000","addr":"경기도 파주시 금릉동 447-7번지","category":"일반휴게음식 - 서양음식"}]},{"lat":"37.75262071","long":"126.77926405","items":[{"name":"토이토핑슬라임","tel":"","addr":"경기도 파주시 금릉동 438-2번지","category":"서적문구 - 완구점"}]},{"lat":"37.752006059","long":"126.77821063","items":[{"name":"통일 OA","tel":"031-948-4950","addr":"경기도 파주시 금릉동 434-6번지","category":"사무통신 - 기타 사무용품"}]},{"lat":"37.750566851","long":"126.77942909","items":[{"name":"파주F.A","tel":"","addr":"경기도 파주시 금릉동 446-2번지","category":"유통업 영리 - 기타유통업"}]},{"lat":"37.754699595","long":"126.78282089","items":[{"name":"펫클럽(홈펫)","tel":"031-957-8844","addr":"경기도 파주시 금릉동 216-17번지","category":"문화.취미 - 애완동물"}]},{"lat":"37.752007269","long":"126.77884606","items":[{"name":"프라임하우스","tel":"070-4146-4067","addr":"경기도 파주시 금릉동 436-5번지","category":"일반휴게음식 - 서양음식"}]},{"lat":"37.751781406","long":"126.77851768","items":[{"name":"피자 아이씨","tel":"031-947-4312","addr":"경기도 파주시 금릉동 437-4번지","category":"일반휴게음식 - 서양음식"}]},{"lat":"37.750926972","long":"126.77929184","items":[{"name":"하늬별","tel":"031-0000-0000","addr":"경기도 파주시 금릉동 443-5번지","category":"일반휴게음식 - 서양음식"}]},{"lat":"37.752150686","long":"126.77845983","items":[{"name":"하랑쌀국수","tel":"","addr":"경기도 파주시 금릉동 435-4번지","category":"일반휴게음식 - 일반한식"}]},{"lat":"37.751035989","long":"126.77976809","items":[{"name":"하연로컬푸드급식지원센터(주)","tel":"031-942-2677","addr":"경기도 파주시 금릉동 444-4번지 1층","category":"음료식품 - 기타음료식품"}]},{"lat":"37.752316128","long":"126.78018408","items":[{"name":"한걸음메디텍","tel":"","addr":"경기도 파주시 금릉동 440-9번지","category":"보건위생 - 의료용품"}]},{"lat":"37.756213928","long":"126.78321357","items":[{"name":"한결OA파트너스","tel":"000-0000-0000","addr":"경기도 파주시 금릉동 199번지 진달래","category":"사무통신 - 사무용 OA기기"}]},{"lat":"37.752118648","long":"126.78057047","items":[{"name":"해나루 쭈꾸미","tel":"031-945-9910","addr":"경기도 파주시 금릉동 441-8번지","category":"일반휴게음식 - 일반한식"}]},{"lat":"37.752122923","long":"126.77807411","items":[{"name":"행복한자동차마을","tel":"031-946-7488","addr":"경기도 파주시 금릉동 434-4번지","category":"자동차정비 유지 - 자동차정비"}]},{"lat":"37.750567109","long":"126.77956525","items":[{"name":"현대자동차공업사","tel":"031-946-1969","addr":"경기도 파주시 금릉동 446-3번지","category":"자동차정비 유지 - 자동차정비"}]},{"lat":"37.752538828","long":"126.77884446","items":[{"name":"현대홈인테리어 파주점","tel":"031-949-1376","addr":"경기도 파주시 금릉동 436-1번지","category":"건축자재 - 인테리어전문"}]},{"lat":"37.752785135","long":"126.78045501","items":[{"name":"혜인피부관리","tel":"031-947-7380","addr":"경기도 파주시 금릉동 441-1번지","category":"보건위생 - 피부미용실"}]},{"lat":"37.751397612","long":"126.78042512","items":[{"name":"홍부생고기","tel":"031-943-2230","addr":"경기도 파주시 금릉동 445-12번지","category":"일반휴게음식 - 일반한식"}]},{"lat":"37.752756841","long":"126.77978561","items":[{"name":"히엘스킨케어","tel":"031-1111-1111","addr":"경기도 파주시 금릉동 439-12번지","category":"보건위생 - 피부미용실"}]}]