[{"lat":"37.738982243","long":"126.86991792","items":[{"name":"(재)화교화원묘지","tel":"031-942-0451","addr":"경기도 파주시 광탄면 용미리 558번지","category":"기타 - 비영리/대상"}]},{"lat":"37.74647978","long":"126.87133413","items":[{"name":"(주)아시아푸드","tel":"070-4530-0839","addr":"경기도 파주시 광탄면 용미리 454-3","category":"일반휴게음식 - 일반한식"},{"name":"청도휀스","tel":"031-957-2728","addr":"경기도 파주시 광탄면 용미리 454-3번지","category":"건축자재 - 기타건축자재"}]},{"lat":"37.742509353","long":"126.89152495","items":[{"name":"(주)한동허브","tel":"031-1899-4862","addr":"경기도 파주시 광탄면 용미리 30-1번지","category":"건강식품 - 기타건강식품"}]},{"lat":"37.739458367","long":"126.87686028","items":[{"name":"GS25파주용미ONE점","tel":"","addr":"경기도 파주시 광탄면 용미리 346-20번지","category":"유통업 영리 - 편 의 점"},{"name":"삼거리상회","tel":"031-946-3997","addr":"경기도 파주시 광탄면 용미리 346-20번지","category":"음료식품 - 기타음료식품"},{"name":"장금이","tel":"031-945-4266","addr":"경기도 파주시 광탄면 용미리 346-20번지","category":"일반휴게음식 - 일반한식"}]},{"lat":"37.735538177","long":"126.88455851","items":[{"name":"K할인마트","tel":"031-948-7079","addr":"경기도 파주시 광탄면 용미리 267-5번지","category":"유통업 영리 - 슈퍼마켓"},{"name":"씨유파주진지로점","tel":"031-948-7079","addr":"경기도 파주시 광탄면 용미리 267-5번지","category":"유통업 영리 - 편 의 점"}]},{"lat":"37.74156667","long":"126.86875606","items":[{"name":"PJ이벤트기획","tel":"031-949-1751","addr":"경기도 파주시 광탄면 용미리 573번지","category":"용역 서비스 - 종합용역"}]},{"lat":"37.740258998","long":"126.8757244","items":[{"name":"가야기획","tel":"02-379-2400","addr":"경기도 파주시 광탄면 용미리 497-7","category":"서적문구 - 출판 및 인쇄물"}]},{"lat":"37.751401893","long":"126.85842394","items":[{"name":"경성비닐봉투","tel":"031-949-2322","addr":"경기도 파주시 광탄면 용미리 746-3번지","category":"유통업 영리 - 기타유통업"}]},{"lat":"37.741401319","long":"126.8916741","items":[{"name":"골든아머 (Golden Armor)","tel":"","addr":"경기도 파주시 광탄면 용미리 45-10번지","category":"기타 - 기계공구"},{"name":"주식회사 홍성자동차","tel":"031-948-2310","addr":"경기도 파주시 광탄면 용미리 45-10번지","category":"레져용품 - 스포츠·레져용품"}]},{"lat":"37.740928202","long":"126.87806039","items":[{"name":"궁중한과","tel":"031-945-5204","addr":"경기도 파주시 광탄면 용미리 361-7번지","category":"음료식품 - 제과점"}]},{"lat":"37.739098059","long":"126.88566466","items":[{"name":"그린자동차정비","tel":"031-943-9731","addr":"경기도 파주시 광탄면 용미리 222-4번지","category":"자동차정비 유지 - 자동차시트·타이어"}]},{"lat":"37.740063729","long":"126.87848162","items":[{"name":"극단금설","tel":"02-486-3517","addr":"경기도 파주시 광탄면 용미리 362 3/1","category":"문화.취미 - 티켓"}]},{"lat":"37.733960809","long":"126.88386902","items":[{"name":"금강수출포장","tel":"031-943-4482","addr":"경기도 파주시 광탄면 용미리 275-3","category":"유통업 영리 - 기타유통업"}]},{"lat":"37.740404511","long":"126.88573067","items":[{"name":"나노컴택","tel":"031-947-4970","addr":"경기도 파주시 광탄면 용미리 186-4","category":"신변잡화 - 기타잡화"}]},{"lat":"37.748092792","long":"126.86375185","items":[{"name":"누나네한식부페","tel":"031-3250-8753","addr":"경기도 파주시 광탄면 용미리 780-23번지","category":"일반휴게음식 - 일반한식"}]},{"lat":"37.750786719","long":"126.86381489","items":[{"name":"누리홀","tel":"031-949-6440","addr":"경기도 파주시 광탄면 용미리 646-7","category":"문화.취미 - 민예·공예품"}]},{"lat":"37.743039321","long":"126.88081385","items":[{"name":"다원웰푸드","tel":"031-946-4108","addr":"경기도 파주시 광탄면 용미리 370-1번지","category":"음료식품 - 기타음료식품"}]},{"lat":"37.736487834","long":"126.88825536","items":[{"name":"대덕가구","tel":"031-373-8824","addr":"경기도 파주시 광탄면 용미리 229번지","category":"가구 - 일반가구"}]},{"lat":"37.747950398","long":"126.86524984","items":[{"name":"대명초경","tel":"031-946-4379","addr":"경기도 파주시 광탄면 용미리 780-2","category":"기타 - 기계공구"}]},{"lat":"37.746922752","long":"126.85728667","items":[{"name":"대운","tel":"031-947-8965","addr":"경기도 파주시 광탄면 용미리 753-9번지","category":"음료식품 - 기타음료식품"}]},{"lat":"37.746787917","long":"126.86503642","items":[{"name":"대통","tel":"031-949-5882","addr":"경기도 파주시 광탄면 용미리 586-1번지","category":"건축자재 - 인테리어전문"}]},{"lat":"37.753536154","long":"126.86511468","items":[{"name":"대한불교조계종용암사","tel":"031-942-0265","addr":"경기도 파주시 광탄면 용미리 651-3","category":"기타 - 비영리/대상"}]},{"lat":"37.739511083","long":"126.87561223","items":[{"name":"더나이스","tel":"031-942-0747","addr":"경기도 파주시 광탄면 용미리 500-3번지","category":"서적문구 - 출판 및 인쇄물"},{"name":"마라나타365","tel":"031-947-3927","addr":"경기도 파주시 광탄면 용미리 500-3번지","category":"서적문구 - 출판 및 인쇄물"}]},{"lat":"37.735762409","long":"126.88355983","items":[{"name":"도담상사","tel":"031-944-7285","addr":"경기도 파주시 광탄면 용미리 207-5번지","category":"건축자재 - 페인트"}]},{"lat":"37.733319932","long":"126.90189596","items":[{"name":"동문용역개발","tel":"031-943-0040","addr":"경기도 파주시 광탄면 용미리 산79-1번지","category":"용역 서비스 - 기타용역서비스"}]},{"lat":"37.750816038","long":"126.85823218","items":[{"name":"동화나라교구","tel":"031-943-8836","addr":"경기도 파주시 광탄면 용미리 748-3","category":"가구 - 일반가구"}]},{"lat":"37.751952057","long":"126.85889945","items":[{"name":"두우하프라인","tel":"031-947-2263","addr":"경기도 파주시 광탄면 용미리 744-4번지","category":"가구 - 기타가구"}]},{"lat":"37.747069818","long":"126.86728246","items":[{"name":"디에이치솔루션(스타캠핑트레일러)","tel":"070-4530-4500","addr":"경기도 파주시 광탄면 용미리 616-6번지","category":"레져용품 - 스포츠·레져용품"}]},{"lat":"37.740284499","long":"126.88286051","items":[{"name":"리틀캠프","tel":"070-4104-5156","addr":"경기도 파주시 광탄면 용미리 173","category":"용역 서비스 - 기타용역서비스"}]},{"lat":"37.740592888","long":"126.87622302","items":[{"name":"만물조경","tel":"031-943-5789","addr":"경기도 파주시 광탄면 용미리 354-5","category":"용역 서비스 - 기타용역서비스"}]},{"lat":"37.739899543","long":"126.87658725","items":[{"name":"매직카","tel":"031-943-8772","addr":"경기도 파주시 광탄면 용미리 346-11번지","category":"자동차정비 유지 - 자동차부품"},{"name":"우리장어","tel":"031-8071-2190","addr":"경기도 파주시 광탄면 용미리 346-11번지","category":"일반휴게음식 - 일반한식"}]},{"lat":"37.736452721","long":"126.88022339","items":[{"name":"면가본","tel":"031-942-6202","addr":"경기도 파주시 광탄면 용미리 327-3번지","category":"일반휴게음식 - 일반한식"}]},{"lat":"37.742317175","long":"126.88841656","items":[{"name":"명진옵틱","tel":"02-376-4616","addr":"경기도 파주시 광탄면 용미리 78-5","category":"보건위생 - 안경"},{"name":"명진옵틱","tel":"02-376-4616","addr":"경기도 파주시 광탄면 용미리 78-5","category":"보건위생 - 안경"},{"name":"명진옵틱","tel":"02-376-4616","addr":"경기도 파주시 광탄면 용미리 78-5","category":"보건위생 - 안경"},{"name":"명진옵틱","tel":"02-376-4616","addr":"경기도 파주시 광탄면 용미리 78-5","category":"보건위생 - 안경"}]},{"lat":"37.747205976","long":"126.86816722","items":[{"name":"모터라이프","tel":"02-1577-3740","addr":"경기도 파주시 광탄면 용미리 616-9번지","category":"자동차판매 - 이륜차판매"}]},{"lat":"37.743402862","long":"126.89319143","items":[{"name":"몽블랑쇼파","tel":"031-575-4736","addr":"경기도 파주시 광탄면 용미리 19-1번지","category":"가구 - 일반가구"},{"name":"빛나꽃집","tel":"032-816-9960","addr":"경기도 파주시 광탄면 용미리 19-1번지","category":"문화.취미 - 화원"},{"name":"풍년상회","tel":"031-946-0941","addr":"경기도 파주시 광탄면 용미리 19-1 4리","category":"유통업 영리 - 슈퍼마켓"}]},{"lat":"37.738459347","long":"126.87783764","items":[{"name":"무가네 황우갈비","tel":"031-942-4067","addr":"경기도 파주시 광탄면 용미리 347-1번지","category":"일반휴게음식 - 일반한식"}]},{"lat":"37.745430529","long":"126.88441796","items":[{"name":"미니스톱파주용미점","tel":"031-426-3992","addr":"경기도 파주시 광탄면 용미리 157번지","category":"유통업 영리 - 편 의 점"}]},{"lat":"37.738901929","long":"126.87889198","items":[{"name":"미도식당","tel":"031-948-1851","addr":"경기도 파주시 광탄면 용미리 341번지","category":"일반휴게음식 - 일반한식"},{"name":"서인상사","tel":"031-957-3580","addr":"경기도 파주시 광탄면 용미리 341번지","category":"기타 - 기계공구"}]},{"lat":"37.742705551","long":"126.88941437","items":[{"name":"미래금속","tel":"031-942-5592","addr":"경기도 파주시 광탄면 용미리 79-2번지","category":"가구 - 철제가구"}]},{"lat":"37.74803844","long":"126.86350233","items":[{"name":"미모사","tel":"","addr":"경기도 파주시 광탄면 용미리 780-11번지","category":"용역 서비스 - 기타용역서비스"},{"name":"휴게편의점","tel":"031-947-9757","addr":"경기도 파주시 광탄면 용미리 780-11번지","category":"유통업 영리 - 편 의 점"}]},{"lat":"37.747923859","long":"126.86566971","items":[{"name":"백마꽃집","tel":"031-948-1933","addr":"경기도 파주시 광탄면 용미리 624-5번지","category":"문화.취미 - 화원"}]},{"lat":"37.733872633","long":"126.88578634","items":[{"name":"베스트앤코","tel":"","addr":"경기도 파주시 광탄면 용미리 277-2번지","category":"음료식품 - 기타음료식품"}]},{"lat":"37.742063221","long":"126.88669243","items":[{"name":"보물단지","tel":"031-943-2145","addr":"경기도 파주시 광탄면 용미리 168-16번지","category":"일반휴게음식 - 일반한식"},{"name":"아기별 야생화","tel":"031-967-3588","addr":"경기도 파주시 광탄면 용미리 168-16번지","category":"문화.취미 - 화원"}]},{"lat":"37.737902655","long":"126.87964241","items":[{"name":"부산복집","tel":"031-948-4538","addr":"경기도 파주시 광탄면 용미리 336-1번지","category":"일반휴게음식 - 일반한식"}]},{"lat":"37.73684548","long":"126.88547535","items":[{"name":"산업커피","tel":"031-935-6460","addr":"경기도 파주시 광탄면 용미리 227-2번지","category":"일반휴게음식 - 서양음식"}]},{"lat":"37.753838137","long":"126.86144894","items":[{"name":"삼성기업","tel":"031-947-1004","addr":"경기도 파주시 광탄면 용미리 691-6","category":"건축자재 - 기타건축자재"}]},{"lat":"37.743370509","long":"126.8626715","items":[{"name":"삼우석재","tel":"031-943-3060","addr":"경기도 파주시 광탄면 용미리 808-10번지","category":"건축자재 - 목재·석재·철물"}]},{"lat":"37.74342696","long":"126.87261025","items":[{"name":"삼인보드","tel":"031-949-5670","addr":"경기도 파주시 광탄면 용미리 471-19번지","category":"건축자재 - 목재·석재·철물"}]},{"lat":"37.745402574","long":"126.88349897","items":[{"name":"새롬크린","tel":"031-948-5121","addr":"경기도 파주시 광탄면 용미리 144-14번지","category":"전기제품 - 기타전기제품"}]},{"lat":"37.75284487","long":"126.85961259","items":[{"name":"서교냉동","tel":"02-871-1812","addr":"경기도 파주시 광탄면 용미리 682-10번지","category":"전기제품 - 냉열기기"}]},{"lat":"37.743705148","long":"126.87161133","items":[{"name":"서울목공기계","tel":"031-948-3014","addr":"경기도 파주시 광탄면 용미리 471-23","category":"수리서비스 - 기타수리서비스"}]},{"lat":"37.734124596","long":"126.88547965","items":[{"name":"서포툴(SUPPORTOOL)광탄용미리점","tel":"031-941-0930","addr":"경기도 파주시 광탄면 용미리 277-13번지","category":"기타 - 기계공구"}]},{"lat":"37.739486167","long":"126.88636745","items":[{"name":"선우벤딩","tel":"031-111-1111","addr":"경기도 파주시 광탄면 용미리 223-1번지","category":"기타 - 기계공구"}]},{"lat":"37.74803512","long":"126.86072246","items":[{"name":"성림산업","tel":"070-4413-8009","addr":"경기도 파주시 광탄면 용미리 759번지","category":"건축자재 - 기타건축자재"}]},{"lat":"37.740042854","long":"126.87580418","items":[{"name":"성진조경","tel":"031-943-4653","addr":"경기도 파주시 광탄면 용미리 349-8번지","category":"기타 - 기타 전문점"}]},{"lat":"37.747675621","long":"126.8691762","items":[{"name":"세강테크","tel":"031-945-0949","addr":"경기도 파주시 광탄면 용미리 628-9","category":"기타 - 기계공구"}]},{"lat":"37.744147074","long":"126.864145","items":[{"name":"소슬공방","tel":"031-946-0508","addr":"경기도 파주시 광탄면 용미리 808-3","category":"가구 - 일반가구"}]},{"lat":"37.748120409","long":"126.86425104","items":[{"name":"수성산업","tel":"031-542-6092","addr":"경기도 파주시 광탄면 용미리 780-20번지","category":"수리서비스 - 기타수리서비스"},{"name":"온골부대찌개","tel":"031-943-8842","addr":"경기도 파주시 광탄면 용미리 780-20번지","category":"일반휴게음식 - 일반한식"}]},{"lat":"37.740371645","long":"126.87163991","items":[{"name":"스피드 중고가전","tel":"031-949-0509","addr":"경기도 파주시 광탄면 용미리 524-10번지","category":"전기제품 - 가전제품"}]},{"lat":"37.747761595","long":"126.86559059","items":[{"name":"씨유파주용미리점","tel":"031-946-8721","addr":"경기도 파주시 광탄면 용미리 624-9번지 (1층상가)","category":"유통업 영리 - 편 의 점"}]},{"lat":"37.74803398","long":"126.85978071","items":[{"name":"아름특수무늬목재","tel":"031-948-2080","addr":"경기도 파주시 광탄면 용미리 755-1번지","category":"건축자재 - 목재·석재·철물"}]},{"lat":"37.744153412","long":"126.88666647","items":[{"name":"알파산업","tel":"02-372-0351","addr":"경기도 파주시 광탄면 용미리 167-2번지","category":"기타 - 기타 전문점"}]},{"lat":"37.744125313","long":"126.86869471","items":[{"name":"에버그린","tel":"031-943-7119","addr":"경기도 파주시 광탄면 용미리 600-2번지","category":"서적문구 - 완구점"}]},{"lat":"37.735424709","long":"126.87934022","items":[{"name":"엠앤더블유(MNW)","tel":"031-949-2305","addr":"경기도 파주시 광탄면 용미리 324-1번지","category":"주방용구 - 주방용식기"}]},{"lat":"37.739762034","long":"126.87439786","items":[{"name":"연화정식당","tel":"031-942-5241","addr":"경기도 파주시 광탄면 용미리 538번지","category":"일반휴게음식 - 일반한식"}]},{"lat":"37.750841416","long":"126.8568932","items":[{"name":"영광화학","tel":"031-947-6324","addr":"경기도 파주시 광탄면 용미리 740-3번지","category":"유통업 영리 - 기타유통업"}]},{"lat":"37.736488186","long":"126.88861839","items":[{"name":"영천목재","tel":"031-948-9823","addr":"경기도 파주시 광탄면 용미리 230-2번지","category":"건축자재 - 목재·석재·철물"},{"name":"예스런장식","tel":"031-384-9664","addr":"경기도 파주시 광탄면 용미리 230-2","category":"가구 - 일반가구"}]},{"lat":"37.740818611","long":"126.88538966","items":[{"name":"오봉산업","tel":"031-943-1296","addr":"경기도 파주시 광탄면 용미리 179-4번지","category":"건축자재 - 기타건축자재"}]},{"lat":"37.726787059","long":"126.89089059","items":[{"name":"오슬로/(주) 서울과평양","tel":"031-957-5678","addr":"경기도 파주시 광탄면 용미리 319-9번지","category":"일반휴게음식 - 일반한식"}]},{"lat":"37.741458884","long":"126.87723129","items":[{"name":"오케이중고가전","tel":"02-6204-8584","addr":"경기도 파주시 광탄면 용미리 383-4번지","category":"전기제품 - 가전제품"}]},{"lat":"37.743063593","long":"126.88700854","items":[{"name":"와락","tel":"070-7862-1697","addr":"경기도 파주시 광탄면 용미리 168-35번지","category":"일반휴게음식 - 일반한식"}]},{"lat":"37.747477874","long":"126.86958502","items":[{"name":"와이에이치에너지 (주)","tel":"02-1588-4793","addr":"경기도 파주시 광탄면 용미리 629-3번지","category":"용역 서비스 - 기타용역서비스"}]},{"lat":"37.740511301","long":"126.875758","items":[{"name":"용3슈퍼","tel":"031-941-0814","addr":"경기도 파주시 광탄면 용미리 497-4번지","category":"유통업 영리 - 슈퍼마켓"}]},{"lat":"37.74079236","long":"126.88617253","items":[{"name":"용미리커피공장","tel":"","addr":"경기도 파주시 광탄면 용미리 180-1번지","category":"일반휴게음식 - 서양음식"}]},{"lat":"37.743369671","long":"126.88675846","items":[{"name":"용미반점","tel":"031-942-5088","addr":"경기도 파주시 광탄면 용미리 167-6번지","category":"일반휴게음식 - 중국식"}]},{"lat":"37.744733187","long":"126.8645637","items":[{"name":"용미슈퍼","tel":"031-942-0924","addr":"경기도 파주시 광탄면 용미리 807-4번지","category":"유통업 영리 - 슈퍼마켓"}]},{"lat":"37.735565819","long":"126.88517107","items":[{"name":"용천","tel":"031-943-6277","addr":"경기도 파주시 광탄면 용미리 267-3","category":"건축자재 - 목재·석재·철물"}]},{"lat":"37.750427897","long":"126.86514313","items":[{"name":"우리전기조명","tel":"031-957-7616","addr":"경기도 파주시 광탄면 용미리 644-11번지","category":"전기제품 - 기타전기제품"}]},{"lat":"37.751788172","long":"126.85750408","items":[{"name":"원바이오","tel":"031-836-8663","addr":"경기도 파주시 광탄면 용미리 741-1번지","category":"신변잡화 - 기타잡화"}]},{"lat":"37.746791968","long":"126.88541426","items":[{"name":"월드상사","tel":"031-943-9697","addr":"경기도 파주시 광탄면 용미리 149-10번지","category":"농업 - 농기계"}]},{"lat":"37.743231374","long":"126.89286266","items":[{"name":"이삭유통","tel":"070-7789-5275","addr":"경기도 파주시 광탄면 용미리 25-1","category":"음료식품 - 기타음료식품"}]},{"lat":"37.744344673","long":"126.87147405","items":[{"name":"장인무늬목","tel":"031-949-1278","addr":"경기도 파주시 광탄면 용미리 472-4번지","category":"건축자재 - 목재·석재·철물"}]},{"lat":"37.738317177","long":"126.87972114","items":[{"name":"제이피리테일 주식회사","tel":"031-946-9046","addr":"경기도 파주시 광탄면 용미리 335-1번지","category":"레져용품 - 스포츠·레져용품"}]},{"lat":"37.738814175","long":"126.88113844","items":[{"name":"조은공조","tel":"","addr":"경기도 파주시 광탄면 용미리 332-29번지","category":"전기제품 - 냉열기기"}]},{"lat":"37.739402969","long":"126.87561241","items":[{"name":"주식회사 다이아 R&F","tel":"031-947-4245","addr":"경기도 파주시 광탄면 용미리 500-12번지","category":"전기제품 - 냉열기기"}]},{"lat":"37.726903491","long":"126.89016445","items":[{"name":"주식회사 봄펫아카데미","tel":"031-942-7703","addr":"경기도 파주시 광탄면 용미리 319-7번지","category":"문화.취미 - 애완동물"},{"name":"카와쉼터","tel":"","addr":"경기도 파주시 광탄면 용미리 319-7번지","category":"문화.취미 - 애완동물"}]},{"lat":"37.738785329","long":"126.87939136","items":[{"name":"주식회사 삼정카렌다","tel":"02-2277-3096","addr":"경기도 파주시 광탄면 용미리 337-2번지","category":"서적문구 - 출판 및 인쇄물"}]},{"lat":"37.742068265","long":"126.874201","items":[{"name":"주식회사 에어투맥스","tel":"031-941-2596","addr":"경기도 파주시 광탄면 용미리 502-71번지 1동","category":"유통업 영리 - 기타유통업"}]},{"lat":"37.726292113","long":"126.89150386","items":[{"name":"주식회사 준스포츠앤컴퍼니","tel":"031-946-1418","addr":"경기도 파주시 광탄면 용미리 319-11번지","category":"레져용품 - 스포츠·레져용품"}]},{"lat":"37.743398925","long":"126.87170264","items":[{"name":"주식회사 투크로스","tel":"070-7797-8303","addr":"경기도 파주시 광탄면 용미리 470-5번지","category":"건축자재 - 기타건축자재"}]},{"lat":"37.747756449","long":"126.86894912","items":[{"name":"주식회사태광상사","tel":"031-942-8981","addr":"경기도 파주시 광탄면 용미리 628-8번지","category":"자동차정비 유지 - 자동차부품"}]},{"lat":"37.745177484","long":"126.88364683","items":[{"name":"준리빙 (Jun Living)","tel":"031-943-1281","addr":"경기도 파주시 광탄면 용미리 158-3번지","category":"주방용구 - 주방용구"}]},{"lat":"37.747900318","long":"126.86869924","items":[{"name":"지글지글부대찌개뼈해장국","tel":"031-942-3489","addr":"경기도 파주시 광탄면 용미리 628-4번지","category":"일반휴게음식 - 일반한식"}]},{"lat":"37.740341965","long":"126.86928015","items":[{"name":"진명라이프","tel":"032-111-1111","addr":"경기도 파주시 광탄면 용미리 562-5번지","category":"용역 서비스 - 가례서비스업"}]},{"lat":"37.738679032","long":"126.88113867","items":[{"name":"찬이식당","tel":"031-949-6755","addr":"경기도 파주시 광탄면 용미리 332-39","category":"일반휴게음식 - 일반한식"}]},{"lat":"37.741513996","long":"126.88705634","items":[{"name":"천사하우스","tel":"031-949-5074","addr":"경기도 파주시 광탄면 용미리 182-6번지","category":"문화.취미 - 화원"}]},{"lat":"37.753092767","long":"126.8634815","items":[{"name":"청암가든","tel":"031-943-2868","addr":"경기도 파주시 광탄면 용미리 655-1","category":"일반휴게음식 - 일반한식"}]},{"lat":"37.734790384","long":"126.8845597","items":[{"name":"청용석재","tel":"031-942-0116","addr":"경기도 파주시 광탄면 용미리 274-2","category":"건축자재 - 목재·석재·철물"}]},{"lat":"37.747067438","long":"126.86522879","items":[{"name":"케이티아이무역 (금빛꽃)","tel":"031-946-4233","addr":"경기도 파주시 광탄면 용미리 618-2번지","category":"문화.취미 - 화원"},{"name":"케이티아이무역(금빛꽃)","tel":"031-946-4233","addr":"경기도 파주시 광탄면 용미리 618-2번지","category":"문화.취미 - 화원"}]},{"lat":"37.73892701","long":"126.87705405","items":[{"name":"킴스퍼니처","tel":"031-946-9585","addr":"경기도 파주시 광탄면 용미리 349-1번지","category":"가구 - 일반가구"}]},{"lat":"37.735151243","long":"126.88503559","items":[{"name":"타샤의 정원","tel":"031-942-7840","addr":"경기도 파주시 광탄면 용미리 267-7","category":"문화.취미 - 화원"}]},{"lat":"37.750229555","long":"126.86503003","items":[{"name":"태현건재","tel":"031-944-7026","addr":"경기도 파주시 광탄면 용미리 644-12번지","category":"건축자재 - 기타건축자재"}]},{"lat":"37.750896167","long":"126.86494937","items":[{"name":"토탈전동지게차","tel":"","addr":"경기도 파주시 광탄면 용미리 643-6번지","category":"수리서비스 - 기타수리서비스"}]},{"lat":"37.754675694","long":"126.861175","items":[{"name":"티제이","tel":"070-4158-3121","addr":"경기도 파주시 광탄면 용미리 695-6번지","category":"용역 서비스 - 기타용역서비스"}]},{"lat":"37.743123672","long":"126.8933053","items":[{"name":"파주꽃집","tel":"031-942-2042","addr":"경기도 파주시 광탄면 용미리 24-1번지","category":"회원제형태 - 기타4"}]},{"lat":"37.736760099","long":"126.89030833","items":[{"name":"풍년양초","tel":"031-943-0110","addr":"경기도 파주시 광탄면 용미리 230-13","category":"신변잡화 - 기타잡화"}]},{"lat":"37.746039115","long":"126.8641755","items":[{"name":"프라임웍스(Primeworks)","tel":"031-945-7731","addr":"경기도 파주시 광탄면 용미리 802-2번지","category":"레져용품 - 스포츠·레져용품"}]},{"lat":"37.730624668","long":"126.89039703","items":[{"name":"하나상사","tel":"031-855-7613","addr":"경기도 파주시 광탄면 용미리 295-1번지","category":"자동차정비 유지 - 자동차부품"}]},{"lat":"37.747286162","long":"126.85975946","items":[{"name":"하나슈퍼","tel":"031-943-6615","addr":"경기도 파주시 광탄면 용미리 756-9","category":"유통업 영리 - 슈퍼마켓"}]},{"lat":"37.744262351","long":"126.88750589","items":[{"name":"하이파퍼니처","tel":"031-918-2341","addr":"경기도 파주시 광탄면 용미리 167-10","category":"사무통신 - 사무용 OA기기"}]},{"lat":"37.742395573","long":"126.86877726","items":[{"name":"한국복식공예연구소","tel":"02-353-0994","addr":"경기도 파주시 광탄면 용미리 571-4번지","category":"의류 - 맞춤복점"}]},{"lat":"37.756978252","long":"126.85798188","items":[{"name":"한민문구","tel":"","addr":"경기도 파주시 광탄면 용미리 704-10번지","category":"서적문구 - 문구용품"},{"name":"한민상사","tel":"031-111-1111","addr":"경기도 파주시 광탄면 용미리 704-10번지","category":"음료식품 - 기타음료식품"}]},{"lat":"37.750454386","long":"126.85720033","items":[{"name":"한솔목재","tel":"031-319-3277","addr":"경기도 파주시 광탄면 용미리 740-12번지","category":"건축자재 - 목재·석재·철물"}]},{"lat":"37.741375641","long":"126.87522329","items":[{"name":"한영에프엔비(HANYOUNGFNB)","tel":"031-943-4378","addr":"경기도 파주시 광탄면 용미리 496-3번지","category":"음료식품 - 기타음료식품"}]},{"lat":"37.743624869","long":"126.8723376","items":[{"name":"형제공예","tel":"031-946-3110","addr":"경기도 파주시 광탄면 용미리 471-14","category":"문화.취미 - 민예·공예품"}]}]