[{"lat":"37.260023351","long":"127.39569403","imageIndex":17,"items":[{"name":"(주)곤스모바일","tel":"02-6095-8245","addr":"경기도 이천시 마장면 목리 400-5번지","indutype":"건축자재 - 기타건축자재","category":"other"}]},{"lat":"37.261742577","long":"127.39349345","imageIndex":17,"items":[{"name":"(주)스페이스에덴","tel":"031-645-9220","addr":"경기도 이천시 마장면 목리 417번지","indutype":"용역 서비스 - 종합용역","category":"other"}]},{"lat":"37.265300359","long":"127.39929515","imageIndex":17,"items":[{"name":"GS25이천도드람점","tel":"02-2006-2485","addr":"경기도 이천시 마장면 목리 78-5","indutype":"유통업 영리 - 편 의 점","category":"other"}]},{"lat":"37.255742892","long":"127.40393427","imageIndex":17,"items":[{"name":"WAM(더블유에이엠)","tel":"","addr":"경기도 이천시 마장면 목리 205-1번지","indutype":"가구 - 기타가구","category":"other"}]},{"lat":"37.262636993","long":"127.40621417","imageIndex":17,"items":[{"name":"라이카O.A","tel":"031-634-3211","addr":"경기도 이천시 마장면 목리 350-3","indutype":"사무통신 - 사무용 OA기기","category":"other"}]},{"lat":"37.260301391","long":"127.39607875","imageIndex":17,"items":[{"name":"주식회사 하이그린","tel":"031-634-6261","addr":"경기도 이천시 마장면 목리 400-4번지","indutype":"유통업 영리 - 기타유통업","category":"other"}]}]