[{"lat":"37.121282717","long":"127.01978283","imageIndex":17,"items":[{"name":"(주)상경토탈비즈","tel":"031-000-0000","addr":"경기도 평택시 서탄면 수월암리 1042-2번지","indutype":"전기제품 - 가전제품","category":"other"}]},{"lat":"37.121398777","long":"127.02614037","imageIndex":17,"items":[{"name":"(주)에이블에스원","tel":"031-611-3301","addr":"경기도 평택시 서탄면 수월암리 954-20번지","indutype":"건축자재 - 목재·석재·철물","category":"other"}]},{"lat":"37.124921345","long":"127.02875209","imageIndex":17,"items":[{"name":"(주)이디아이테크","tel":"031-451-8573","addr":"경기도 평택시 서탄면 수월암리 939-2번지 1층","indutype":"사무통신 - 컴퓨터","category":"other"}]},{"lat":"37.129589108","long":"127.02723446","imageIndex":17,"items":[{"name":"BLS","tel":"031-376-4332","addr":"경기도 평택시 서탄면 수월암리 761번지","indutype":"기타 - 기타 전문점","category":"other"}]},{"lat":"37.12306363","long":"127.0350866","imageIndex":17,"items":[{"name":"HIGGS","tel":"031-668-0940","addr":"경기도 평택시 서탄면 수월암리 378-3번지","indutype":"건축자재 - 인테리어전문","category":"other"}]},{"lat":"37.116260066","long":"127.03731151","imageIndex":17,"items":[{"name":"K.M.C 칼라","tel":"031-665-1563","addr":"경기도 평택시 서탄면 수월암리 449-8,9","indutype":"유통업 영리 - 기타유통업","category":"other"}]},{"lat":"37.132418762","long":"127.02542349","imageIndex":17,"items":[{"name":"거성웰딩","tel":"031-662-6013","addr":"경기도 평택시 서탄면 수월암리 844","indutype":"기타 - 기타 전문점","category":"other"},{"name":"대한체인공업","tel":"031-663-2277","addr":"경기도 평택시 서탄면 수월암리 844","indutype":"기타 - 기계공구","category":"other"}]},{"lat":"37.132896463","long":"127.02464711","imageIndex":17,"items":[{"name":"경기인더스","tel":"031-375-1433","addr":"경기도 평택시 서탄면 수월암리 850-5","indutype":"건축자재 - 기타건축자재","category":"other"},{"name":"세진상사","tel":"031-664-3522","addr":"경기도 평택시 서탄면 수월암리 850-5번지","indutype":"신변잡화 - 기타잡화","category":"other"}]},{"lat":"37.132806409","long":"127.02436574","imageIndex":17,"items":[{"name":"경원종합콤푸레샤","tel":"031-376-8047","addr":"경기도 평택시 서탄면 수월암리 850-2번지","indutype":"기타 - 기계공구","category":"other"}]},{"lat":"37.12061356","long":"127.03203624","imageIndex":17,"items":[{"name":"공신툴링","tel":"031-688-8105","addr":"경기도 평택시 서탄면 수월암리 638-1번지","indutype":"기타 - 기계공구","category":"other"},{"name":"세운툴링","tel":"031-668-0945","addr":"경기도 평택시 서탄면 수월암리 638-1","indutype":"기타 - 기계공구","category":"other"}]},{"lat":"37.113593392","long":"127.03575766","imageIndex":17,"items":[{"name":"광진가설산업","tel":"031-666-5111","addr":"경기도 평택시 서탄면 수월암리 454-6번지","indutype":"건축자재 - 기타건축자재","category":"other"}]},{"lat":"37.128119634","long":"127.03069998","imageIndex":17,"items":[{"name":"국제화성","tel":"031-203-8123","addr":"경기도 평택시 서탄면 수월암리 692","indutype":"건축자재 - 기타건축자재","category":"other"}]},{"lat":"37.132283821","long":"127.02425305","imageIndex":17,"items":[{"name":"까치종합상사","tel":"031-611-0509","addr":"경기도 평택시 서탄면 수월암리 851-4번지","indutype":"기타 - 기계공구","category":"other"},{"name":"인광종합상사","tel":"031-665-0241","addr":"경기도 평택시 서탄면 수월암리 851-4번지 203호","indutype":"전기제품 - 가전제품","category":"other"},{"name":"제이히타테크","tel":"031-663-0067","addr":"경기도 평택시 서탄면 수월암리 851-4번지","indutype":"전기제품 - 냉열기기","category":"other"}]},{"lat":"37.117533237","long":"127.02628546","imageIndex":17,"items":[{"name":"늑대와여우컴퓨터 서탄점","tel":"031-366-6212","addr":"경기도 평택시 서탄면 수월암리 980-4번지","indutype":"사무통신 - 컴퓨터","category":"other"}]},{"lat":"37.132643483","long":"127.02811324","imageIndex":17,"items":[{"name":"대산계전","tel":"031-663-5050","addr":"경기도 평택시 서탄면 수월암리 833번지","indutype":"기타 - 기타 전문점","category":"other"}]},{"lat":"37.135002729","long":"127.0343939","imageIndex":17,"items":[{"name":"대한종합펌프","tel":"031-378-1079","addr":"경기도 평택시 서탄면 수월암리 227-2번지 외2필지 240-11,240-12번지 104호","indutype":"건축자재 - 보일러·펌프·샷시","category":"other"},{"name":"피플 앤 네트웍스","tel":"070-8800-3822","addr":"경기도 평택시 서탄면 수월암리 227-2번지 102호","indutype":"사무통신 - 컴퓨터","category":"other"}]},{"lat":"37.132644299","long":"127.02392679","imageIndex":17,"items":[{"name":"명성특수인쇄","tel":"031-372-4176","addr":"경기도 평택시 서탄면 수월암리 851-5번지 2층","indutype":"서적문구 - 출판 및 인쇄물","category":"other"},{"name":"씨유평택로드점","tel":"070-8877-1364","addr":"경기도 평택시 서탄면 수월암리 851-5번지 1층","indutype":"유통업 영리 - 편 의 점","category":"other"},{"name":"현대프라자","tel":"031-372-0834","addr":"경기도 평택시 서탄면 수월암리 851-5번지","indutype":"기타 - 기타 전문점","category":"other"}]},{"lat":"37.130418006","long":"127.02756108","imageIndex":17,"items":[{"name":"미니스톱 서탄로드점","tel":"031-1577-9621","addr":"경기도 평택시 서탄면 수월암리 773번지","indutype":"유통업 영리 - 편 의 점","category":"other"}]},{"lat":"37.124337377","long":"127.01908584","imageIndex":17,"items":[{"name":"밝을명디자인","tel":"031-664-5955","addr":"경기도 평택시 서탄면 수월암리 891번지 B동","indutype":"문화.취미 - 민예·공예품","category":"other"}]},{"lat":"37.132806464","long":"127.02406188","imageIndex":17,"items":[{"name":"부일볼트","tel":"031-377-7016","addr":"경기도 평택시 서탄면 수월암리 851-2번지","indutype":"기타 - 기계공구","category":"other"}]},{"lat":"37.123452184","long":"127.03073203","imageIndex":17,"items":[{"name":"부테크(BOO TECH)","tel":"031-666-7715","addr":"경기도 평택시 서탄면 수월암리 673-1번지","indutype":"전기제품 - 기타전기제품","category":"other"}]},{"lat":"37.11884121","long":"127.01717185","imageIndex":17,"items":[{"name":"삼광산업(주)","tel":"02-595-7375","addr":"경기도 평택시 서탄면 수월암리 1105번지 삼광산업주식회사","indutype":"기타 - 기계공구","category":"other"}]},{"lat":"37.120367432","long":"127.04192673","imageIndex":17,"items":[{"name":"성호물류기계","tel":"031-663-4088","addr":"경기도 평택시 서탄면 수월암리 165번지","indutype":"기타 - 기계공구","category":"other"}]},{"lat":"37.135111146","long":"127.03327977","imageIndex":17,"items":[{"name":"성화이엔지","tel":"031-666-5336","addr":"경기도 평택시 서탄면 수월암리 240-8번지 1층","indutype":"기타 - 기계공구","category":"other"}]},{"lat":"37.119092307","long":"127.02498072","imageIndex":17,"items":[{"name":"세븐일레븐평택서탄로점","tel":"031-1577-0711","addr":"경기도 평택시 서탄면 수월암리 960-4번지 1층","indutype":"유통업 영리 - 편 의 점","category":"other"}]},{"lat":"37.120974294","long":"127.03073113","imageIndex":17,"items":[{"name":"세븐일레븐평택수월암점","tel":"031-1577-0711","addr":"경기도 평택시 서탄면 수월암리 651-7번지","indutype":"유통업 영리 - 편 의 점","category":"other"}]},{"lat":"37.120343008","long":"127.03298131","imageIndex":17,"items":[{"name":"세이프영","tel":"031-611-7033","addr":"경기도 평택시 서탄면 수월암리 619-1번지","indutype":"기타 - 기계공구","category":"other"}]},{"lat":"37.123089354","long":"127.03958761","imageIndex":17,"items":[{"name":"씨유평택경동나비엔점","tel":"031-8060-5540","addr":"경기도 평택시 서탄면 수월암리 2022번지","indutype":"유통업 영리 - 편 의 점","category":"other"}]},{"lat":"37.121537815","long":"127.04480791","imageIndex":17,"items":[{"name":"씨유평택서탄공단점","tel":"031-665-6219","addr":"경기도 평택시 서탄면 수월암리 147번지","indutype":"유통업 영리 - 편 의 점","category":"other"}]},{"lat":"37.117704545","long":"127.02573418","imageIndex":17,"items":[{"name":"씨유평택수월암리점","tel":"031-662-7235","addr":"경기도 평택시 서탄면 수월암리 980번지","indutype":"유통업 영리 - 편 의 점","category":"other"}]},{"lat":"37.13486794","long":"127.03297581","imageIndex":17,"items":[{"name":"아모르가구","tel":"031-377-8872","addr":"경기도 평택시 서탄면 수월암리 240-5번지","indutype":"가구 - 일반가구","category":"other"}]},{"lat":"37.115953893","long":"127.03667004","imageIndex":17,"items":[{"name":"아신창호","tel":"031-668-3667","addr":"경기도 평택시 서탄면 수월암리 450-5 A","indutype":"건축자재 - 보일러·펌프·샷시","category":"other"}]},{"lat":"37.127783619","long":"127.04025381","imageIndex":17,"items":[{"name":"애프터레인 주식회사","tel":"031-000-0000","addr":"경기도 평택시 서탄면 수월암리 200-3번지","indutype":"전기제품 - 기타전기제품","category":"other"}]},{"lat":"37.115954949","long":"127.03273204","imageIndex":17,"items":[{"name":"에이치비티(HBT)","tel":"070-4755-4788","addr":"경기도 평택시 서탄면 수월암리 557-1번지","indutype":"전기제품 - 기타전기제품","category":"other"}]},{"lat":"37.126529297","long":"127.04575591","imageIndex":17,"items":[{"name":"일광테크","tel":"031-375-7928","addr":"경기도 평택시 서탄면 수월암리 45-2번지","indutype":"기타 - 기계공구","category":"other"}]},{"lat":"37.123619211","long":"127.04489908","imageIndex":17,"items":[{"name":"정솔루션","tel":"","addr":"경기도 평택시 서탄면 수월암리 112번지 1동","indutype":"레져용품 - 스포츠·레져용품","category":"other"}]},{"lat":"37.12311553","long":"127.04225446","imageIndex":17,"items":[{"name":"주식회사 대명유리","tel":"031-664-8051","addr":"경기도 평택시 서탄면 수월암리 191-13번지","indutype":"건축자재 - 유리","category":"other"}]},{"lat":"37.118115806","long":"127.03875258","imageIndex":17,"items":[{"name":"중고나라","tel":"031-224-2540","addr":"경기도 평택시 서탄면 수월암리 1290-11번지","indutype":"전기제품 - 가전제품","category":"other"}]},{"lat":"37.12133973","long":"127.04439147","imageIndex":17,"items":[{"name":"태진종합상사","tel":"031-668-5563","addr":"경기도 평택시 서탄면 수월암리 152번지 A동","indutype":"건축자재 - 기타건축자재","category":"other"}]},{"lat":"37.119558147","long":"127.03650287","imageIndex":17,"items":[{"name":"프로신소재","tel":"031-665-1577","addr":"경기도 평택시 서탄면 수월암리 1283번지 에이동,비동 C동 1층","indutype":"기타 - 기계공구","category":"other"}]},{"lat":"37.122420777","long":"127.04499969","imageIndex":17,"items":[{"name":"하나테크","tel":"031-663-1112","addr":"경기도 평택시 서탄면 수월암리 95-1번지","indutype":"기타 - 기계공구","category":"other"}]},{"lat":"37.133031113","long":"127.02725807","imageIndex":17,"items":[{"name":"한국흑판교재주식회사","tel":"031-667-8171","addr":"경기도 평택시 서탄면 수월암리 831번지","indutype":"사무통신 - 기타 사무용품","category":"other"}]},{"lat":"37.116622044","long":"127.03144963","imageIndex":17,"items":[{"name":"현대빠우","tel":"031-664-5777","addr":"경기도 평택시 서탄면 수월암리 556번지","indutype":"용역 서비스 - 기타용역서비스","category":"other"}]}]