[{"lat":"37.052065128","long":"126.92335613","items":[{"name":"(주)배선닥트","tel":"031-684-8601","addr":"경기도 평택시 청북읍 고렴리 173번지","category":"전기제품 - 기타전기제품"}]},{"lat":"37.054625663","long":"126.92565814","items":[{"name":"(주)지피씨씨코리아","tel":"031-684-9489","addr":"경기도 평택시 청북읍 고렴리 234-42번지","category":"자동차판매 - 이륜차판매"}]},{"lat":"37.065403688","long":"126.91466187","items":[{"name":"(주)청윤","tel":"031-282-2111","addr":"경기도 평택시 청북읍 고렴리 728-20번지","category":"자동차정비 유지 - 자동차정비"}]},{"lat":"37.057904301","long":"126.92379975","items":[{"name":"GS25 청북서로점","tel":"","addr":"경기도 평택시 청북읍 고렴리 824-2번지","category":"유통업 영리 - 편 의 점"},{"name":"큰손칼국수","tel":"031-684-1130","addr":"경기도 평택시 청북읍 고렴리 824-2번지 1층","category":"일반휴게음식 - 일반한식"}]},{"lat":"37.061344349","long":"126.92085042","items":[{"name":"IC오일","tel":"031-335-8417","addr":"경기도 평택시 청북읍 고렴리 477-2번지","category":"자동차정비 유지 - 자동차부품"},{"name":"고렴식당","tel":"031-681-8241","addr":"경기도 평택시 청북읍 고렴리 477-2번지","category":"음식점 - 한식"},{"name":"아이켐","tel":"031-683-8003","addr":"경기도 평택시 청북읍 고렴리 477-2번지","category":"신변잡화 - 기타잡화"}]},{"lat":"37.056680409","long":"126.92616198","items":[{"name":"개미휴게식당","tel":"031-683-4196","addr":"경기도 평택시 청북읍 고렴리 242-1번지","category":"일반휴게음식 - 일반한식"},{"name":"이마트24 청북아이씨점","tel":"","addr":"경기도 평택시 청북읍 고렴리 242-1번지 1층","category":"유통업 영리 - 편 의 점"}]},{"lat":"37.06470841","long":"126.91271749","items":[{"name":"경기기가컨테이너","tel":"031-278-9662","addr":"경기도 평택시 청북읍 고렴리 731번지","category":"건축자재 - 기타건축자재"}]},{"lat":"37.056124472","long":"126.93049094","items":[{"name":"경원한식부페","tel":"031-684-3664","addr":"경기도 평택시 청북읍 고렴리 962-8번지","category":"일반휴게음식 - 일반한식"},{"name":"미각기사부폐","tel":"031-354-4106","addr":"경기도 평택시 청북읍 고렴리 962-8번지","category":"일반휴게음식 - 일반한식"},{"name":"씨유평택고렴산단점","tel":"02-1577-8007","addr":"경기도 평택시 청북읍 고렴리 962-8번지 1층","category":"유통업 영리 - 편 의 점"}]},{"lat":"37.057454374","long":"126.92471088","items":[{"name":"고렴식당","tel":"031-683-4232","addr":"경기도 평택시 청북읍 고렴리 447-2 A동B점포","category":"일반휴게음식 - 일반한식"}]},{"lat":"37.058094496","long":"126.92527237","items":[{"name":"고렴한식뷔페","tel":"031-682-8890","addr":"경기도 평택시 청북읍 고렴리 449-1번지","category":"일반휴게음식 - 일반한식"}]},{"lat":"37.054820284","long":"126.92029532","items":[{"name":"고잔낚시터","tel":"031-353-7878","addr":"경기도 평택시 청북읍 고렴리 387번지","category":"레저업소 - 기타레져업소"}]},{"lat":"37.062757179","long":"126.91824039","items":[{"name":"고향추어탕","tel":"031-686-6996","addr":"경기도 평택시 청북읍 고렴리 660-3번지 102호","category":"음식점 - 한식"},{"name":"고향추어탕","tel":"031-683-0668","addr":"경기도 평택시 청북읍 고렴리 660-3번지 외1필지1층2호,3호","category":"일반휴게음식 - 일반한식"},{"name":"대웅약국","tel":"031-684-1145","addr":"경기도 평택시 청북읍 고렴리 660-3번지 104호","category":"약국 - 약국"},{"name":"세이프랜드","tel":"031-686-5757","addr":"경기도 평택시 청북읍 고렴리 660-3번지","category":"기타 - 기계공구"},{"name":"신나라타이어주식회사","tel":"031-681-1030","addr":"경기도 평택시 청북읍 고렴리 660-3번지 외2필지","category":"자동차정비 유지 - 자동차시트·타이어"}]},{"lat":"37.061757927","long":"126.91954574","items":[{"name":"그린힐휴게소","tel":"031-683-2587","addr":"경기도 평택시 청북읍 고렴리 483번지","category":"일반휴게음식 - 일반한식"},{"name":"다원편의점/주식회사 다원에프앤비","tel":"031-111-1111","addr":"경기도 평택시 청북읍 고렴리 483번지","category":"유통업 영리 - 편 의 점"},{"name":"양성근의청북밥삽/주식회사 다원에프앤비","tel":"031-684-0442","addr":"경기도 평택시 청북읍 고렴리 483번지","category":"일반휴게음식 - 일반한식"},{"name":"임짱카페(청북점)/주식회사 다원에프앤비","tel":"031-111-1111","addr":"경기도 평택시 청북읍 고렴리 483번지","category":"일반휴게음식 - 서양음식"}]},{"lat":"37.060453153","long":"126.90979929","items":[{"name":"꿀단지","tel":"031-378-0447","addr":"경기도 평택시 청북읍 고렴리 744-15번지","category":"건강식품 - 기타건강식품"}]},{"lat":"37.05495963","long":"126.92654596","items":[{"name":"나애뜰","tel":"031-681-7044","addr":"경기도 평택시 청북읍 고렴리 100-10번지","category":"가구 - 일반가구"}]},{"lat":"37.057759422","long":"126.92274308","items":[{"name":"뉴)경동","tel":"031-684-4646","addr":"경기도 평택시 청북읍 고렴리 825-6번지 외5필지 2층","category":"자동차판매 - 중고자동차판매"}]},{"lat":"37.052925452","long":"126.93007802","items":[{"name":"뉴메디클린","tel":"031-686-6879","addr":"경기도 평택시 청북읍 고렴리 291번지","category":"수리서비스 - 세탁소"}]},{"lat":"37.064423623","long":"126.91751894","items":[{"name":"느런계량증명업소","tel":"031-683-7955","addr":"경기도 평택시 청북읍 고렴리 685-1번지","category":"용역 서비스 - 사무서비스"}]},{"lat":"37.063154021","long":"126.9187684","items":[{"name":"느런식당","tel":"031-683-5959","addr":"경기도 평택시 청북읍 고렴리 643-1번지 1층","category":"일반휴게음식 - 일반한식"},{"name":"유엔돈까스","tel":"031-684-2505","addr":"경기도 평택시 청북읍 고렴리 643-1번지","category":"일반휴게음식 - 일반한식"}]},{"lat":"37.063091241","long":"126.91918448","items":[{"name":"느런편의점","tel":"","addr":"경기도 평택시 청북읍 고렴리 633-5번지","category":"음료식품 - 기타음료식품"}]},{"lat":"37.063316744","long":"126.91952155","items":[{"name":"느런휴게소","tel":"031-683-5959","addr":"경기도 평택시 청북읍 고렴리 634번지","category":"일반휴게음식 - 일반한식"},{"name":"느런휴게소","tel":"031-683-5959","addr":"경기도 평택시 청북읍 고렴리 634","category":"유통업 영리 - 슈퍼마켓"}]},{"lat":"37.056816211","long":"126.92716245","items":[{"name":"담아라이팅(Dam-a)","tel":"031-683-3013","addr":"경기도 평택시 청북읍 고렴리 958번지","category":"건축자재 - 조명기구"}]},{"lat":"37.057758014","long":"126.92068564","items":[{"name":"대박한식뷔페","tel":"031-681-6269","addr":"경기도 평택시 청북읍 고렴리 975번지","category":"일반휴게음식 - 일반한식"},{"name":"한주정밀","tel":"031-683-0701","addr":"경기도 평택시 청북읍 고렴리 975","category":"기타 - 기계공구"}]},{"lat":"37.06367654","long":"126.9186329","items":[{"name":"대일프라스틱","tel":"031-686-5057","addr":"경기도 평택시 청북읍 고렴리 644-1번지","category":"기타 - 기타 전문점"}]},{"lat":"37.0646218","long":"126.91744001","items":[{"name":"대한건설자재유통","tel":"031-681-8388","addr":"경기도 평택시 청북읍 고렴리 688번지","category":"건축자재 - 기타건축자재"}]},{"lat":"37.064013674","long":"126.91151523","items":[{"name":"덕표내","tel":"","addr":"경기도 평택시 청북읍 고렴리 735-15번지","category":"문화.취미 - 애완동물"}]},{"lat":"37.049147583","long":"126.92623702","items":[{"name":"덕흥특수산업사","tel":"","addr":"경기도 평택시 청북읍 고렴리 181-5번지","category":"용역 서비스 - 부동산 중개·임대"}]},{"lat":"37.066456768","long":"126.9259385","items":[{"name":"동탄기업","tel":"031-684-7707","addr":"경기도 평택시 청북읍 고렴리 600-10번지 (601-6,601-8,600-10)","category":"건축자재 - 기타건축자재"}]},{"lat":"37.064848346","long":"126.91923877","items":[{"name":"드라이브인무인텔소풍","tel":"031-5182-9900","addr":"경기도 평택시 청북읍 고렴리 647-12번지","category":"숙박업 - 여관/기타숙박업"}]},{"lat":"37.064062533","long":"126.91659735","items":[{"name":"마당깊은식당","tel":"","addr":"경기도 평택시 청북읍 고렴리 685-10번지","category":"음식점 - 일반"},{"name":"마당깊은식당","tel":"031-683-7027","addr":"경기도 평택시 청북읍 고렴리 685-10번지","category":"일반휴게음식 - 일반한식"},{"name":"은혜카센타","tel":"","addr":"경기도 평택시 청북읍 고렴리 685-10번지","category":"자동차정비 유지 - 자동차시트·타이어"}]},{"lat":"37.056008438","long":"126.93232359","items":[{"name":"명봉산김치만두","tel":"031-683-1842","addr":"경기도 평택시 청북읍 고렴리 61-6","category":"일반휴게음식 - 스넥"}]},{"lat":"37.059371547","long":"126.92160583","items":[{"name":"모토리즘 유한회사","tel":"031-683-1761","addr":"경기도 평택시 청북읍 고렴리 466-2번지","category":"자동차정비 유지 - 자동차부품"},{"name":"시온모터스","tel":"031-684-3550","addr":"경기도 평택시 청북읍 고렴리 466-2번지","category":"자동차정비 유지 - 자동차정비"}]},{"lat":"37.064764816","long":"126.91585446","items":[{"name":"백년집","tel":"031-684-5989","addr":"경기도 평택시 청북읍 고렴리 705-7번지","category":"일반휴게음식 - 일반한식"}]},{"lat":"37.056622467","long":"126.92038331","items":[{"name":"새론 내의류","tel":"031-663-0447","addr":"경기도 평택시 청북읍 고렴리 372-3번지","category":"의류 - 내의판매"}]},{"lat":"37.062010727","long":"126.92026504","items":[{"name":"서울샷시부속","tel":"031-123-4567","addr":"경기도 평택시 청북읍 고렴리 479-4번지 104,105호","category":"건축자재 - 목재·석재·철물"},{"name":"황씨네","tel":"031-681-1959","addr":"경기도 평택시 청북읍 고렴리 479-4번지 1층","category":"일반휴게음식 - 일반한식"}]},{"lat":"37.052257992","long":"126.92898818","items":[{"name":"서해전동지게차","tel":"","addr":"경기도 평택시 청북읍 고렴리 113-1번지 1층 101호","category":"자동차판매 - 기타운송"},{"name":"서해지게차","tel":"","addr":"경기도 평택시 청북읍 고렴리 113-1번지","category":"자동차판매 - 기타운송"}]},{"lat":"37.055896487","long":"126.92616277","items":[{"name":"세한엔지니어링","tel":"031-684-8119","addr":"경기도 평택시 청북읍 고렴리 234-20번지","category":"자동차판매 - 기타운송"}]},{"lat":"37.057848408","long":"126.92110153","items":[{"name":"수복정","tel":"031-682-2897","addr":"경기도 평택시 청북읍 고렴리 831-8번지","category":"일반휴게음식 - 일반한식"}]},{"lat":"37.067205024","long":"126.92652244","items":[{"name":"신일랩핑","tel":"031-111-1111","addr":"경기도 평택시 청북읍 고렴리 1061번지","category":"건축자재 - 인테리어전문"}]},{"lat":"37.065205946","long":"126.91532549","items":[{"name":"씨유평택고령점","tel":"02-1577-8007","addr":"경기도 평택시 청북읍 고렴리 706-4번지","category":"유통업 영리 - 편 의 점"}]},{"lat":"37.061180376","long":"126.93207145","items":[{"name":"아름한식뷔페","tel":"031-682-8624","addr":"경기도 평택시 청북읍 고렴리 527-15번지 1층 덕지빌딩","category":"일반휴게음식 - 일반한식"},{"name":"아이지에이마트 청북점","tel":"","addr":"경기도 평택시 청북읍 고렴리 527-15번지 102호,103호","category":"유통업 영리 - 편 의 점"}]},{"lat":"37.063153388","long":"126.91788015","items":[{"name":"안동소고기장터국밥","tel":"031-686-5900","addr":"경기도 평택시 청북읍 고렴리 657번지 1층","category":"일반휴게음식 - 일반한식"},{"name":"이화수평택청북점","tel":"031-684-0028","addr":"경기도 평택시 청북읍 고렴리 657번지","category":"일반휴게음식 - 일반한식"},{"name":"이화수평택청북점","tel":"031-684-4000","addr":"경기도 평택시 청북읍 고렴리 657번지","category":"음식점 - 한식"}]},{"lat":"37.065512571","long":"126.91568495","items":[{"name":"옛날김치돼지찌개","tel":"031-683-4751","addr":"경기도 평택시 청북읍 고렴리 700번지","category":"일반휴게음식 - 일반한식"}]},{"lat":"37.063625767","long":"126.91093102","items":[{"name":"와이즈파츠","tel":"031-307-0009","addr":"경기도 평택시 청북읍 고렴리 735-17번지 2동 1층(사무)","category":"자동차정비 유지 - 자동차부품"}]},{"lat":"37.061677491","long":"126.92049027","items":[{"name":"용인토종순대국청북","tel":"","addr":"경기도 평택시 청북읍 고렴리 479-2번지","category":"음식점 - 일반"},{"name":"용인토종순대국청북점","tel":"031-683-4226","addr":"경기도 평택시 청북읍 고렴리 479-2","category":"일반휴게음식 - 일반한식"}]},{"lat":"37.063037471","long":"126.91960056","items":[{"name":"원일모터스","tel":"031-684-1551","addr":"경기도 평택시 청북읍 고렴리 632","category":"자동차정비 유지 - 자동차정비"}]},{"lat":"37.063369084","long":"126.9171041","items":[{"name":"유니켐루브","tel":"031-683-5182","addr":"경기도 평택시 청북읍 고렴리 661번지","category":"자동차정비 유지 - 윤활유 전문 판매"}]},{"lat":"37.063871581","long":"126.92726787","items":[{"name":"유진테크","tel":"031-683-9585","addr":"경기도 평택시 청북읍 고렴리 572번지","category":"전기제품 - 기타전기제품"}]},{"lat":"37.066925905","long":"126.9268488","items":[{"name":"자연산양농장","tel":"070-8888-5869","addr":"경기도 평택시 청북읍 고렴리 992-6번지","category":"레저업소 - 기타레져업소"}]},{"lat":"37.061982534","long":"126.93243049","items":[{"name":"정담식당","tel":"031-683-4502","addr":"경기도 평택시 청북읍 고렴리 527-10번지","category":"일반휴게음식 - 일반한식"}]},{"lat":"37.049731409","long":"126.92340353","items":[{"name":"주식회사 대호씨엠디","tel":"031-683-3866","addr":"경기도 평택시 청북읍 고렴리 216-14번지","category":"건축자재 - 기타건축자재"}]},{"lat":"37.059458716","long":"126.9310162","items":[{"name":"주식회사부성산업","tel":"031-686-9500","addr":"경기도 평택시 청북읍 고렴리 934-6","category":"건축자재 - 보일러·펌프·샷시"}]},{"lat":"37.066042037","long":"126.91279462","items":[{"name":"청산명가","tel":"031-686-8765","addr":"경기도 평택시 청북읍 고렴리 728-11번지 1층","category":"일반휴게음식 - 일반한식"}]},{"lat":"37.065483508","long":"126.91296394","items":[{"name":"청산명가","tel":"","addr":"경기도 평택시 청북읍 고렴리 729-4번지","category":"음식점 - 일반"}]},{"lat":"37.062257773","long":"126.92585279","items":[{"name":"한홍농원","tel":"031-651-0310","addr":"경기도 평택시 청북읍 고렴리 808-1번지","category":"음료식품 - 농·축·수산품"}]},{"lat":"37.063097375","long":"126.92838176","items":[{"name":"햇살한식뷔페","tel":"031-683-5975","addr":"경기도 평택시 청북읍 고렴리 529-18번지","category":"일반휴게음식 - 일반한식"}]},{"lat":"37.057014243","long":"126.92684745","items":[{"name":"현대상사","tel":"031-298-6060","addr":"경기도 평택시 청북읍 고렴리 957번지","category":"자동차정비 유지 - 자동차부품"}]},{"lat":"37.054455726","long":"126.92762573","items":[{"name":"호윤에너지","tel":"031-686-9814","addr":"경기도 평택시 청북읍 고렴리 102-1번지 A동","category":"유통업 영리 - 기타유통업"}]}]