[{"lat":"37.108143593","long":"126.97628634","imageIndex":17,"items":[{"name":"(주)신성하이테크","tel":"031-352-0873","addr":"경기도 화성시 양감면 사창리 52번지","indutype":"건축자재 - 건축용 요업제품","category":"other"}]},{"lat":"37.106592982","long":"126.97293436","imageIndex":17,"items":[{"name":"(주)푸르고팜","tel":"070-4047-8477","addr":"경기도 화성시 양감면 사창리 37-18번지","indutype":"농업 - 농기계","category":"other"}]},{"lat":"37.10636759","long":"126.9724282","imageIndex":17,"items":[{"name":"GS25양감초록로점","tel":"","addr":"경기도 화성시 양감면 사창리 37-12번지","indutype":"유통업 영리 - 편 의 점","category":"other"}]},{"lat":"37.106953152","long":"126.97195546","imageIndex":17,"items":[{"name":"국제공구철물","tel":"031-374-0095","addr":"경기도 화성시 양감면 사창리 75-1번지","indutype":"건축자재 - 목재·석재·철물","category":"other"}]},{"lat":"37.093227033","long":"126.96187152","imageIndex":17,"items":[{"name":"마이 주식회사","tel":"031-366-4093","addr":"경기도 화성시 양감면 사창리 802-4번지","indutype":"건축자재 - 조명기구","category":"other"}]},{"lat":"37.100702092","long":"126.98234099","imageIndex":17,"items":[{"name":"사단법인 한국장애인협회","tel":"031-358-2002","addr":"경기도 화성시 양감면 사창리 195-8번지 C동","indutype":"서적문구 - 문구용품","category":"other"}]},{"lat":"37.101449885","long":"126.98186832","imageIndex":17,"items":[{"name":"성한","tel":"070-4413-2319","addr":"경기도 화성시 양감면 사창리 195-4번지 코텍엔지니어링(주) E동","indutype":"전기제품 - 기타전기제품","category":"other"}]},{"lat":"37.100618823","long":"126.97226177","imageIndex":17,"items":[{"name":"세븐일레븐화성초록로점","tel":"","addr":"경기도 화성시 양감면 사창리 171번지","indutype":"유통업 영리 - 편 의 점","category":"other"}]},{"lat":"37.09461749","long":"126.97109436","imageIndex":17,"items":[{"name":"시흥장갑","tel":"031-354-9810","addr":"경기도 화성시 양감면 사창리 505번지","indutype":"의류 - 기타의류","category":"other"}]},{"lat":"37.110287499","long":"126.9737317","imageIndex":17,"items":[{"name":"신라철망스틸","tel":"031-352-2940","addr":"경기도 화성시 양감면 사창리 19번지","indutype":"건축자재 - 기타건축자재","category":"other"}]},{"lat":"37.107448511","long":"126.97112275","imageIndex":17,"items":[{"name":"씨유화성양감토성로점","tel":"080-080-3663","addr":"경기도 화성시 양감면 사창리 77-3번지","indutype":"유통업 영리 - 편 의 점","category":"other"},{"name":"알뜰잡화","tel":"","addr":"경기도 화성시 양감면 사창리 77-3번지","indutype":"신변잡화 - 기타잡화","category":"other"}]},{"lat":"37.104368217","long":"126.9764564","imageIndex":17,"items":[{"name":"영인스틸하우스","tel":"031-0000-0000","addr":"경기도 화성시 양감면 사창리 59-2번지","indutype":"건축자재 - 기타건축자재","category":"other"}]},{"lat":"37.093150793","long":"126.97984596","imageIndex":17,"items":[{"name":"와이엠산업공구","tel":"031-353-8509","addr":"경기도 화성시 양감면 사창리 319번지","indutype":"주방용구 - 주방용구","category":"other"}]},{"lat":"37.088230414","long":"126.97687816","imageIndex":17,"items":[{"name":"용웅솔루션","tel":"031-8059-7990","addr":"경기도 화성시 양감면 사창리 370-2번지","indutype":"건축자재 - 기타건축자재","category":"other"}]},{"lat":"37.093312939","long":"126.97962095","imageIndex":17,"items":[{"name":"우리철물건재","tel":"031-352-7907","addr":"경기도 화성시 양감면 사창리 319-1","indutype":"건축자재 - 기타건축자재","category":"other"}]},{"lat":"37.096951333","long":"126.97150958","imageIndex":17,"items":[{"name":"우진건설(주)","tel":"031-374-4983","addr":"경기도 화성시 양감면 사창리 535","indutype":"용역 서비스 - 기타용역서비스","category":"other"}]},{"lat":"37.11145","long":"126.97431629","imageIndex":17,"items":[{"name":"이마트24 화성양감점","tel":"","addr":"경기도 화성시 양감면 사창리 16-8번지 1층","indutype":"유통업 영리 - 편 의 점","category":"other"},{"name":"이마트24 화성양감점","tel":"","addr":"경기도 화성시 양감면 사창리 16-8번지 1층","indutype":"유통업 영리 - 편 의 점","category":"other"}]},{"lat":"37.087760661","long":"126.97187329","imageIndex":17,"items":[{"name":"주식회사 라온이앤지","tel":"031-831-5670","addr":"경기도 화성시 양감면 사창리 985-7번지","indutype":"직물 - 카페트,커튼,천막,지물","category":"other"}]},{"lat":"37.111287709","long":"126.97390008","imageIndex":17,"items":[{"name":"주식회사 스카이","tel":"070-4103-0382","addr":"경기도 화성시 양감면 사창리 13-2번지","indutype":"유통업 영리 - 기타유통업","category":"other"}]},{"lat":"37.093536193","long":"126.97098233","imageIndex":17,"items":[{"name":"주식회사 트러스콘지점","tel":"031-354-2366","addr":"경기도 화성시 양감면 사창리 490-2번지","indutype":"건축자재 - 기타건축자재","category":"other"}]},{"lat":"37.09475399","long":"126.97657222","imageIndex":17,"items":[{"name":"해와달홈 주식회사","tel":"02-1577-8373","addr":"경기도 화성시 양감면 사창리 1078번지 정문회화로","indutype":"건축자재 - 기타건축자재","category":"other"}]}]