[{"lat":"37.866607103","long":"126.78351133","items":[{"name":"(민속)병천순대","tel":"031-954-2014","addr":"경기도 파주시 문산읍 당동리 890-2번지","category":"일반휴게음식 - 일반한식"},{"name":"굿뜨스튜디오","tel":"070-4218-1225","addr":"경기도 파주시 문산읍 당동리 890-2번지","category":"광학제품 - 사진관"},{"name":"당동 소머리곰탕","tel":"031-000-0000","addr":"경기도 파주시 문산읍 당동리 890-2번지","category":"일반휴게음식 - 일반한식"},{"name":"샵노래연습장","tel":"031-953-5554","addr":"경기도 파주시 문산읍 당동리 890-2번지","category":"레저업소 - 노 래 방"},{"name":"어가로장어","tel":"031-954-6363","addr":"경기도 파주시 문산읍 당동리 890-2번지","category":"일반휴게음식 - 일반한식"},{"name":"주민상회","tel":"031-952-9708","addr":"경기도 파주시 문산읍 당동리 890-2번지","category":"일반휴게음식 - 주점"},{"name":"천연화장품 공방","tel":"031-952-5027","addr":"경기도 파주시 문산읍 당동리 890-2번지","category":"문화.취미 - 문화취미기타"},{"name":"커피한끼","tel":"031-952-1194","addr":"경기도 파주시 문산읍 당동리 890-2번지","category":"일반휴게음식 - 서양음식"}]},{"lat":"37.866660607","long":"126.76468007","items":[{"name":"(주)알크래프트 (R-CRAFT Co. Ltd)","tel":"070-4105-7000","addr":"경기도 파주시 문산읍 당동리 621-1번지","category":"서적문구 - 과학기자재"}]},{"lat":"37.866383772","long":"126.7845348","items":[{"name":"(주)오아시스여행사","tel":"031-954-8228","addr":"경기도 파주시 문산읍 당동리 888-8번지","category":"여행 - 관광여행"},{"name":"SKY어린이집","tel":"031-952-0684","addr":"경기도 파주시 문산읍 당동리 888-8번지","category":"학원 - 유아원"},{"name":"경희솔한의원","tel":"031-953-7515","addr":"경기도 파주시 문산읍 당동리 888-8번지","category":"의원 - 한의원"},{"name":"극장앞 Sandwich cafe","tel":"070-7766-4966","addr":"경기도 파주시 문산읍 당동리 888-8번지","category":"일반휴게음식 - 서양음식"},{"name":"마장동생고기","tel":"031-953-9539","addr":"경기도 파주시 문산읍 당동리 888-8번지","category":"일반휴게음식 - 일반한식"},{"name":"불불이족발","tel":"031-954-2892","addr":"경기도 파주시 문산읍 당동리 888-8번지 우리메디컬프라자 101호","category":"일반휴게음식 - 일반한식"},{"name":"수풀림수학교습소","tel":"031-954-0923","addr":"경기도 파주시 문산읍 당동리 888-8번지","category":"학원 - 보습학원"},{"name":"아미속눈썹전문샵","tel":"031-952-9096","addr":"경기도 파주시 문산읍 당동리 888-8번지","category":"보건위생 - 피부미용실"},{"name":"안경마을","tel":"031-952-6320","addr":"경기도 파주시 문산읍 당동리 888-8번지","category":"보건위생 - 안경"},{"name":"용인대석사MTA태권도","tel":"031-953-7775","addr":"경기도 파주시 문산읍 당동리 888-8번지","category":"학원 - 예·체능계학원"},{"name":"이쁘게","tel":"031-952-0085","addr":"경기도 파주시 문산읍 당동리 888-8번지","category":"문화.취미 - 애완동물"},{"name":"이큐(EQ)미술음악학원","tel":"031-942-4122","addr":"경기도 파주시 문산읍 당동리 888-8번지","category":"학원 - 예·체능계학원"},{"name":"조엘","tel":"031-952-2478","addr":"경기도 파주시 문산읍 당동리 888-8번지 우리메디컬프라자 102호","category":"보건위생 - 미용원"},{"name":"청담의원","tel":"031-953-9900","addr":"경기도 파주시 문산읍 당동리 888-8번지 4층 401호","category":"의원 - 의원"},{"name":"플로시 (FLOSY)","tel":"031-000-0000","addr":"경기도 파주시 문산읍 당동리 888-8번지","category":"문화.취미 - 화원"},{"name":"한우리독서논문문산교실","tel":"031-954-0570","addr":"경기도 파주시 문산읍 당동리 888-8번지","category":"회원제형태 - 학원"}]},{"lat":"37.862327533","long":"126.77397833","items":[{"name":"24시 낭만포차","tel":"031-952-5549","addr":"경기도 파주시 문산읍 당동리 914-7번지","category":"일반휴게음식 - 일반한식"}]},{"lat":"37.867437206","long":"126.78417939","items":[{"name":"3 POP PC 문산점","tel":"070-6221-6746","addr":"경기도 파주시 문산읍 당동리 889-3번지","category":"레저업소 - 기타레져업소"}]},{"lat":"37.866690362","long":"126.78468163","items":[{"name":"60계치킨 파주문산점","tel":"031-945-0660","addr":"경기도 파주시 문산읍 당동리 888-7번지","category":"일반휴게음식 - 스넥"},{"name":"901컴퓨터학원","tel":"031-952-0901","addr":"경기도 파주시 문산읍 당동리 888-7번지","category":"학원 - 보습학원"},{"name":"그레이스","tel":"070-4413-7700","addr":"경기도 파주시 문산읍 당동리 888-7번지","category":"의류 - 정장"},{"name":"문산뮤엠영어교습소","tel":"031-953-0511","addr":"경기도 파주시 문산읍 당동리 888-7번지","category":"학원 - 외국어학원"},{"name":"빽다방 문산당동점","tel":"031-954-1160","addr":"경기도 파주시 문산읍 당동리 888-7번지","category":"일반휴게음식 - 서양음식"},{"name":"셀턴43스킨앤바디","tel":"031-953-0203","addr":"경기도 파주시 문산읍 당동리 888-7번지","category":"보건위생 - 피부미용실"},{"name":"수철이네왕새우튀김 파주문산점","tel":"031-953-0527","addr":"경기도 파주시 문산읍 당동리 888-7번지","category":"일반휴게음식 - 일반한식"},{"name":"제이헤어","tel":"031-980-0320","addr":"경기도 파주시 문산읍 당동리 888-7번지","category":"보건위생 - 미용원"},{"name":"파리바게트","tel":"031-954-1232","addr":"경기도 파주시 문산읍 당동리 888-7번지","category":"음료식품 - 제과점"},{"name":"포메인 문산점","tel":"031-952-5656","addr":"경기도 파주시 문산읍 당동리 888-7번지","category":"일반휴게음식 - 일반한식"}]},{"lat":"37.867386032","long":"126.7857365","items":[{"name":"BHC치킨","tel":"031-952-0592","addr":"경기도 파주시 문산읍 당동리 935번지 파주힐스테이트1차","category":"일반휴게음식 - 주점"},{"name":"그린학원","tel":"031-953-5940","addr":"경기도 파주시 문산읍 당동리 935번지 파주힐스테이트1차","category":"학원 - 보습학원"},{"name":"대복떡집","tel":"","addr":"경기도 파주시 문산읍 당동리 935번지 파주힐스테이트1차","category":"음료식품 - 제과점"},{"name":"도도네일","tel":"031-952-2213","addr":"경기도 파주시 문산읍 당동리 935번지 파주힐스테이트1차","category":"보건위생 - 피부미용실"},{"name":"도도뷰티 앤 왁싱","tel":"031-952-2213","addr":"경기도 파주시 문산읍 당동리 935번지 파주힐스테이트1차","category":"보건위생 - 피부미용실"},{"name":"로뎀뜨개방","tel":"031-952-1236","addr":"경기도 파주시 문산읍 당동리 935번지 파주힐스테이트1차","category":"직물 - 침구·수예점"},{"name":"리틀아띠카페공방","tel":"031-952-0690","addr":"경기도 파주시 문산읍 당동리 935번지 파주힐스테이트1차","category":"일반휴게음식 - 서양음식"},{"name":"바른생고기","tel":"031-952-0777","addr":"경기도 파주시 문산읍 당동리 935번지 파주힐스테이트1차","category":"일반휴게음식 - 일반한식"},{"name":"뷰티힐스","tel":"031-954-2616","addr":"경기도 파주시 문산읍 당동리 935번지 파주힐스테이트1차","category":"보건위생 - 미용원"},{"name":"세븐일레븐문산힐스테이트점","tel":"","addr":"경기도 파주시 문산읍 당동리 935번지 파주힐스테이트1차","category":"유통업 영리 - 편 의 점"},{"name":"여우의 하루","tel":"031-952-0690","addr":"경기도 파주시 문산읍 당동리 935번지 파주힐스테이트1차","category":"문화.취미 - 문화취미기타"},{"name":"현대음악학원","tel":"031-954-5525","addr":"경기도 파주시 문산읍 당동리 935번지 파주힐스테이트1차","category":"학원 - 예·체능계학원"},{"name":"힐스어린이집[아이행복]","tel":"031-952-8090","addr":"경기도 파주시 문산읍 당동리 935번지 파주힐스테이트1차","category":"학원 - 유아원"}]},{"lat":"37.864123405","long":"126.78506422","items":[{"name":"BJ공조","tel":"031-8690-4691","addr":"경기도 파주시 문산읍 당동리 937번지 휴먼시아","category":"용역 서비스 - 기타용역서비스"}]},{"lat":"37.861942957","long":"126.78015009","items":[{"name":"GS25문산주공점","tel":"080-555-2525","addr":"경기도 파주시 문산읍 당동리 873번지","category":"유통업 영리 - 편 의 점"},{"name":"남양사","tel":"031-954-3460","addr":"경기도 파주시 문산읍 당동리 873","category":"수리서비스 - 세탁소"},{"name":"도담피아노교습소","tel":"","addr":"경기도 파주시 문산읍 당동리 873번지","category":"학원 - 예·체능계학원"},{"name":"헤어마당","tel":"031-954-2340","addr":"경기도 파주시 문산읍 당동리 873번지","category":"보건위생 - 미용원"}]},{"lat":"37.861914891","long":"126.77490008","items":[{"name":"GS25문산추천점","tel":"","addr":"경기도 파주시 문산읍 당동리 916-1번지","category":"유통업 영리 - 편 의 점"}]},{"lat":"37.867878134","long":"126.78389396","items":[{"name":"H FITNESS","tel":"031-953-9694","addr":"경기도 파주시 문산읍 당동리 888-1번지","category":"레저업소 - 헬스클럽"},{"name":"당동전자담배","tel":"031-954-1113","addr":"경기도 파주시 문산읍 당동리 888-1번지","category":"기타 - 기타 전문점"},{"name":"상상모아","tel":"031-953-6400","addr":"경기도 파주시 문산읍 당동리 888-1번지","category":"레저업소 - 기타레져업소"},{"name":"싸나이포차","tel":"031-952-9545","addr":"경기도 파주시 문산읍 당동리 888-1번지","category":"일반휴게음식 - 일반한식"},{"name":"올라(hola)","tel":"","addr":"경기도 파주시 문산읍 당동리 888-1번지","category":"일반휴게음식 - 서양음식"},{"name":"치킨플러스 문산점","tel":"031-953-0678","addr":"경기도 파주시 문산읍 당동리 888-1번지","category":"일반휴게음식 - 일반한식"},{"name":"해오름동물병원","tel":"031-953-7587","addr":"경기도 파주시 문산읍 당동리 888-1번지","category":"기타의료기관 - 동물병원"},{"name":"황금코다리","tel":"031-954-0565","addr":"경기도 파주시 문산읍 당동리 888-1번지","category":"일반휴게음식 - 일반한식"}]},{"lat":"37.865858399","long":"126.78301351","items":[{"name":"MS당구클럽","tel":"070-8874-3425","addr":"경기도 파주시 문산읍 당동리 898번지","category":"레저업소 - 당 구 장"},{"name":"감탄갈비","tel":"031-953-0055","addr":"경기도 파주시 문산읍 당동리 898번지","category":"일반휴게음식 - 일반한식"},{"name":"로꼬로꼬조개찜","tel":"031-000-0000","addr":"경기도 파주시 문산읍 당동리 898번지","category":"일반휴게음식 - 일반한식"},{"name":"박승광해물칼국수문산점","tel":"031-953-1190","addr":"경기도 파주시 문산읍 당동리 898번지","category":"일반휴게음식 - 일반한식"},{"name":"씨유당동산업단지점","tel":"080-080-3663","addr":"경기도 파주시 문산읍 당동리 898번지","category":"유통업 영리 - 편 의 점"}]},{"lat":"37.86374175","long":"126.77384895","items":[{"name":"MY세종발레하우스학원","tel":"031-953-6543","addr":"경기도 파주시 문산읍 당동리 169-9번지","category":"학원 - 예·체능계학원"},{"name":"한울태권도교육관","tel":"031-953-1224","addr":"경기도 파주시 문산읍 당동리 169-9번지","category":"학원 - 예·체능계학원"}]},{"lat":"37.867690963","long":"126.78498553","items":[{"name":"TKE어학원","tel":"031-954-3305","addr":"경기도 파주시 문산읍 당동리 888-4 홈프라자 301.302호","category":"회원제형태 - 학원"},{"name":"김밥천국","tel":"031-953-8807","addr":"경기도 파주시 문산읍 당동리 888-4번지","category":"일반휴게음식 - 스넥"},{"name":"데오로(De oro)","tel":"031-954-2656","addr":"경기도 파주시 문산읍 당동리 888-4번지","category":"신변잡화 - 액세서리"},{"name":"라바 주짓수 합기도","tel":"031-954-1247","addr":"경기도 파주시 문산읍 당동리 888-4번지","category":"레저업소 - 헬스클럽"},{"name":"문산점핑핏클럽","tel":"","addr":"경기도 파주시 문산읍 당동리 888-4번지","category":"레저업소 - 헬스클럽"},{"name":"뭘해도예뻐","tel":"","addr":"경기도 파주시 문산읍 당동리 888-4번지","category":"보건위생 - 피부미용실"},{"name":"미소나무미술학원","tel":"031-954-2855","addr":"경기도 파주시 문산읍 당동리 888-4번지","category":"학원 - 예·체능계학원"},{"name":"바나나티월드(Tworld)","tel":"031-941-0062","addr":"경기도 파주시 문산읍 당동리 888-4","category":"사무통신 - 통신기기"},{"name":"써니디저트카페","tel":"","addr":"경기도 파주시 문산읍 당동리 888-4번지","category":"일반휴게음식 - 서양음식"},{"name":"아맘","tel":"031-111-1111","addr":"경기도 파주시 문산읍 당동리 888-4번지","category":"의류 - 정장"},{"name":"엔젤약국","tel":"031-953-7795","addr":"경기도 파주시 문산읍 당동리 888-4번지","category":"약국 - 약국"},{"name":"엔젤히트슬라임멀티샵","tel":"031-954-3853","addr":"경기도 파주시 문산읍 당동리 888-4번지","category":"일반휴게음식 - 서양음식"},{"name":"연세세브란스 치과의원","tel":"031-954-7528","addr":"경기도 파주시 문산읍 당동리 888-4번지","category":"의원 - 치과의원"},{"name":"예닮헤어하우스","tel":"031-954-2959","addr":"경기도 파주시 문산읍 당동리 888-4번지","category":"보건위생 - 미용원"},{"name":"용하태권도교육관","tel":"031-952-4863","addr":"경기도 파주시 문산읍 당동리 888-4번지","category":"학원 - 예·체능계학원"},{"name":"인토 문산 독서실","tel":"031-937-8270","addr":"경기도 파주시 문산읍 당동리 888-4번지","category":"학원 - 독서실"},{"name":"인토스터디플레이스 문산점","tel":"031-937-8270","addr":"경기도 파주시 문산읍 당동리 888-4번지","category":"용역 서비스 - 사무서비스"},{"name":"참수학서연학원","tel":"031-943-4032","addr":"경기도 파주시 문산읍 당동리 888-4번지","category":"학원 - 보습학원"},{"name":"치킨매니아(문산점)","tel":"031-952-9269","addr":"경기도 파주시 문산읍 당동리 888-4번지","category":"일반휴게음식 - 주점"},{"name":"한울밥상","tel":"031-953-6485","addr":"경기도 파주시 문산읍 당동리 888-4번지","category":"일반휴게음식 - 일반한식"},{"name":"한평플러스공인중개사사무소","tel":"031-952-7745","addr":"경기도 파주시 문산읍 당동리 888-4번지","category":"용역 서비스 - 부동산 중개·임대"}]},{"lat":"37.865580974","long":"126.78401441","items":[{"name":"TheCell학원","tel":"031-952-1337","addr":"경기도 파주시 문산읍 당동리 899-2번지 202호","category":"학원 - 보습학원"},{"name":"모닝.맘","tel":"031-952-1588","addr":"경기도 파주시 문산읍 당동리 899-2번지","category":"음료식품 - 기타음료식품"},{"name":"문산김샘학원","tel":"031-952-1337","addr":"경기도 파주시 문산읍 당동리 899-2번지","category":"학원 - 보습학원"},{"name":"천운카피랜드","tel":"031-952-4346","addr":"경기도 파주시 문산읍 당동리 899-2번지","category":"용역 서비스 - 사무서비스"},{"name":"청수의료소비자 생활협동조합 파주삼성의원","tel":"031-953-1600","addr":"경기도 파주시 문산읍 당동리 899-2번지","category":"의원 - 의원"}]},{"lat":"37.86402752","long":"126.77255255","items":[{"name":"YBM시사 파주문산지사","tel":"031-942-0576","addr":"경기도 파주시 문산읍 당동리 940번지 파주힐스테이트2차","category":"회원제형태 - 학원"},{"name":"반짝반짝어린이집[아이행복]","tel":"031-0000-0000","addr":"경기도 파주시 문산읍 당동리 940번지 파주힐스테이트2차","category":"학원 - 유아원"}]},{"lat":"37.865995971","long":"126.78432002","items":[{"name":"mom coo(맘쿠)","tel":"070-4203-9631","addr":"경기도 파주시 문산읍 당동리 899번지 센터프라자 301호","category":"레저업소 - 기타레져업소"},{"name":"그릿(GRI;T)","tel":"","addr":"경기도 파주시 문산읍 당동리 899번지","category":"일반휴게음식 - 서양음식"},{"name":"맘쿠","tel":"070-4203-9631","addr":"경기도 파주시 문산읍 당동리 899번지 센터프라자 302호","category":"일반휴게음식 - 일반한식"},{"name":"박준뷰티랩","tel":"031-954-0454","addr":"경기도 파주시 문산읍 당동리 899번지","category":"보건위생 - 미용원"},{"name":"본죽당동점","tel":"031-954-6288","addr":"경기도 파주시 문산읍 당동리 899번지","category":"일반휴게음식 - 일반한식"},{"name":"뷰티스토리(Beauty Story)","tel":"031-953-0093","addr":"경기도 파주시 문산읍 당동리 899번지 센터프라자 101호","category":"보건위생 - 화장품"},{"name":"샤넬텔레콤","tel":"031-954-5949","addr":"경기도 파주시 문산읍 당동리 899번지 센터프라자 102호","category":"사무통신 - 통신기기"},{"name":"수입보세","tel":"070-8621-5734","addr":"경기도 파주시 문산읍 당동리 899번지","category":"의류 - 정장"},{"name":"왕노가리","tel":"031-952-8601","addr":"경기도 파주시 문산읍 당동리 899번지","category":"일반휴게음식 - 일반한식"},{"name":"정성을다하는치과의원","tel":"031-942-2875","addr":"경기도 파주시 문산읍 당동리 899번지","category":"의원 - 치과의원"},{"name":"피자스쿨문산당동점","tel":"031-952-8800","addr":"경기도 파주시 문산읍 당동리 899번지","category":"일반휴게음식 - 서양음식"}]},{"lat":"37.868360021","long":"126.78626779","items":[{"name":"강금자","tel":"031-8070-3537","addr":"경기도 파주시 문산읍 당동리 935번지 파주힐스테이트1차","category":"학원 - 기타 교육기관"}]},{"lat":"37.862012747","long":"126.77894531","items":[{"name":"개인과외","tel":"031-123-4567","addr":"경기도 파주시 문산읍 당동리 909번지 자연앤꿈에그린","category":"학원 - 기타 교육기관"},{"name":"미래사업기술","tel":"02-6463-3000","addr":"경기도 파주시 문산읍 당동리 909번지 자연앤꿈에그린","category":"서적문구 - 문구용품"}]},{"lat":"37.860448174","long":"126.77583641","items":[{"name":"경영축산","tel":"031-952-9573","addr":"경기도 파주시 문산읍 당동리 930번지 자연앤꿈에그린","category":"농업 - 농기계"}]},{"lat":"37.863783379","long":"126.77209874","items":[{"name":"고양, 파주 아이스타","tel":"070-4145-0830","addr":"경기도 파주시 문산읍 당동리 940번지 파주힐스테이트2차","category":"회원제형태 - 기타4"},{"name":"그린나래어린이집[아이행복]","tel":"070-4235-6710","addr":"경기도 파주시 문산읍 당동리 940번지 파주힐스테이트2차","category":"학원 - 유아원"},{"name":"드림아이학원","tel":"070-8639-6540","addr":"경기도 파주시 문산읍 당동리 940번지 파주힐스테이트2차","category":"학원 - 보습학원"},{"name":"힐링스터디학원","tel":"031-952-3333","addr":"경기도 파주시 문산읍 당동리 940번지 파주힐스테이트2차","category":"학원 - 보습학원"}]},{"lat":"37.86499359","long":"126.78306154","items":[{"name":"골든 공인중개사사무소","tel":"031-954-0777","addr":"경기도 파주시 문산읍 당동리 899-5번지","category":"용역 서비스 - 부동산 중개·임대"},{"name":"수랏간오삼","tel":"031-953-3577","addr":"경기도 파주시 문산읍 당동리 899-5번지","category":"일반휴게음식 - 일반한식"},{"name":"왕대박 정육점","tel":"070-7784-4107","addr":"경기도 파주시 문산읍 당동리 899-5번지","category":"음료식품 - 정육점"}]},{"lat":"37.864107548","long":"126.78139364","items":[{"name":"곱창이야기","tel":"031-953-4689","addr":"경기도 파주시 문산읍 당동리 904 (107호)","category":"일반휴게음식 - 일반한식"},{"name":"깐부치킨","tel":"031-953-3865","addr":"경기도 파주시 문산읍 당동리 904번지","category":"일반휴게음식 - 스넥"},{"name":"날나리돼지","tel":"031-954-2027","addr":"경기도 파주시 문산읍 당동리 904 (103,104호)","category":"일반휴게음식 - 일반한식"},{"name":"남도벌교꼬막대박집","tel":"031-952-1414","addr":"경기도 파주시 문산읍 당동리 904번지","category":"일반휴게음식 - 일반한식"}]},{"lat":"37.86688654","long":"126.78359005","items":[{"name":"굴사냥","tel":"02-2653-4790","addr":"경기도 파주시 문산읍 당동리 890-1번지","category":"일반휴게음식 - 일반한식"},{"name":"까페아토","tel":"031-923-9031","addr":"경기도 파주시 문산읍 당동리 890-1번지","category":"일반휴게음식 - 스넥"},{"name":"늘손네일","tel":"031-952-5255","addr":"경기도 파주시 문산읍 당동리 890-1번지","category":"보건위생 - 피부미용실"},{"name":"더(The)스킨&바디","tel":"031-954-5621","addr":"경기도 파주시 문산읍 당동리 890-1번지","category":"보건위생 - 화장품"},{"name":"레전드 국제식 대대 전용","tel":"031-552-7913","addr":"경기도 파주시 문산읍 당동리 890-1번지","category":"레저업소 - 당 구 장"},{"name":"명동찌개","tel":"031-953-8485","addr":"경기도 파주시 문산읍 당동리 890-1번지","category":"일반휴게음식 - 일반한식"},{"name":"명동찌개생선구이","tel":"031-953-8485","addr":"경기도 파주시 문산읍 당동리 890-1번지","category":"일반휴게음식 - 일반한식"},{"name":"비비드","tel":"","addr":"경기도 파주시 문산읍 당동리 890-1번지","category":"의류 - 정장"},{"name":"비비안 필라테스","tel":"031-953-9906","addr":"경기도 파주시 문산읍 당동리 890-1번지","category":"레저업소 - 헬스클럽"},{"name":"스타 스크린야구","tel":"031-952-7776","addr":"경기도 파주시 문산읍 당동리 890-1번지","category":"레저업소 - 기타레져업소"},{"name":"엄마네 손칼국수","tel":"031-952-4294","addr":"경기도 파주시 문산읍 당동리 890-1번지","category":"일반휴게음식 - 일반한식"},{"name":"엄마네손칼국수","tel":"031-952-4294","addr":"경기도 파주시 문산읍 당동리 890-1번지","category":"일반휴게음식 - 일반한식"},{"name":"오디야","tel":"031-954-2300","addr":"경기도 파주시 문산읍 당동리 890-1번지","category":"일반휴게음식 - 일반한식"},{"name":"육감만족","tel":"031-953-9252","addr":"경기도 파주시 문산읍 당동리 890-1번지","category":"일반휴게음식 - 일반한식"},{"name":"천하명당","tel":"031-953-7047","addr":"경기도 파주시 문산읍 당동리 890-1번지","category":"신변잡화 - 기타잡화"},{"name":"호로록 분식","tel":"031-952-8995","addr":"경기도 파주시 문산읍 당동리 890-1번지","category":"일반휴게음식 - 스넥"},{"name":"혼다라멘","tel":"031-952-7997","addr":"경기도 파주시 문산읍 당동리 890-1번지","category":"일반휴게음식 - 일반한식"}]},{"lat":"37.860601705","long":"126.77602912","items":[{"name":"그린숲어린이집[아이행복]","tel":"031-952-7922","addr":"경기도 파주시 문산읍 당동리 930번지 자연앤꿈에그린","category":"학원 - 유아원"},{"name":"세븐일레븐문산꿈에그린점","tel":"031-1577-0711","addr":"경기도 파주시 문산읍 당동리 930번지 자연앤꿈에그린","category":"유통업 영리 - 편 의 점"},{"name":"예쁜옷가게","tel":"","addr":"경기도 파주시 문산읍 당동리 930번지 자연앤꿈에그린","category":"의류 - 정장"}]},{"lat":"37.867825471","long":"126.78464419","items":[{"name":"글라스 스토리 안경 문산점","tel":"031-953-9001","addr":"경기도 파주시 문산읍 당동리 888-3번지 (1층101호102호)","category":"보건위생 - 안경"},{"name":"눈삔물고기낚시터","tel":"031-954-2172","addr":"경기도 파주시 문산읍 당동리 888-3번지","category":"레저업소 - 기타레져업소"},{"name":"석이네부대찌개","tel":"031-954-1566","addr":"경기도 파주시 문산읍 당동리 888-3번지 트윈프라자 2103호","category":"일반휴게음식 - 일반한식"},{"name":"일로헤어","tel":"031-952-3465","addr":"경기도 파주시 문산읍 당동리 888-3번지","category":"보건위생 - 미용원"},{"name":"찬","tel":"031-952-1141","addr":"경기도 파주시 문산읍 당동리 888-3번지","category":"음료식품 - 기타음료식품"},{"name":"투다리 문산점","tel":"031-954-7215","addr":"경기도 파주시 문산읍 당동리 888-3번지","category":"일반휴게음식 - 주점"}]},{"lat":"37.866295256","long":"126.7853874","items":[{"name":"글로리아","tel":"031-953-2453","addr":"경기도 파주시 문산읍 당동리 935번지 파주힐스테이트1차","category":"의류 - 정장"}]},{"lat":"37.867516823","long":"126.76042691","items":[{"name":"글로벌리더스학원","tel":"031-934-0872","addr":"경기도 파주시 문산읍 당동리 730-1번지","category":"학원 - 외국어학원"},{"name":"글로벌창의학원","tel":"031-934-0873","addr":"경기도 파주시 문산읍 당동리 730-1번지","category":"학원 - 예·체능계학원"},{"name":"브레인업학원","tel":"031-934-0872","addr":"경기도 파주시 문산읍 당동리 730-1번지","category":"학원 - 기타 교육기관"}]},{"lat":"37.861937756","long":"126.78217287","items":[{"name":"기타앤드럼음악교습소","tel":"031-954-0088","addr":"경기도 파주시 문산읍 당동리 134-3번지","category":"학원 - 예·체능계학원"},{"name":"코사마트(문산점)","tel":"031-953-7160","addr":"경기도 파주시 문산읍 당동리 134-3번지","category":"유통업 영리 - 슈퍼마켓"}]},{"lat":"37.86696984","long":"126.78478309","items":[{"name":"김대표당동점","tel":"031-953-1018","addr":"경기도 파주시 문산읍 당동리 888-6번지","category":"일반휴게음식 - 스넥"},{"name":"꽈배기상회","tel":"","addr":"경기도 파주시 문산읍 당동리 888-6번지","category":"일반휴게음식 - 서양음식"},{"name":"맘소아청소년과","tel":"031-943-0927","addr":"경기도 파주시 문산읍 당동리 888-6번지","category":"건강식품 - 기타건강식품"},{"name":"맘소아청소년과의원","tel":"031-943-0927","addr":"경기도 파주시 문산읍 당동리 888-6번지","category":"의원 - 의원"},{"name":"무한고기전투","tel":"031-953-0418","addr":"경기도 파주시 문산읍 당동리 888-6번지","category":"일반휴게음식 - 일반한식"},{"name":"아이러브헤어","tel":"031-952-1223","addr":"경기도 파주시 문산읍 당동리 888-6번지 SM프라자 106호","category":"보건위생 - 미용원"},{"name":"연세음악학원","tel":"031-954-2008","addr":"경기도 파주시 문산읍 당동리 888-6번지","category":"학원 - 예·체능계학원"},{"name":"오늘약국","tel":"031-954-1472","addr":"경기도 파주시 문산읍 당동리 888-6번지","category":"약국 - 약국"},{"name":"완뽕각","tel":"031-953-8886","addr":"경기도 파주시 문산읍 당동리 888-6번지","category":"일반휴게음식 - 중국식"},{"name":"주식회사 노엘에듀(G1230문산학원)","tel":"031-954-0005","addr":"경기도 파주시 문산읍 당동리 888-6번지","category":"학원 - 보습학원"},{"name":"황금참치","tel":"070-4922-1261","addr":"경기도 파주시 문산읍 당동리 888-6번지","category":"일반휴게음식 - 일반한식"}]},{"lat":"37.862045676","long":"126.78207027","items":[{"name":"까까야","tel":"031-952-2853","addr":"경기도 파주시 문산읍 당동리 134-2번지","category":"문화.취미 - 애완동물"},{"name":"맑은소리 음악학원","tel":"031-953-1017","addr":"경기도 파주시 문산읍 당동리 134-2번지","category":"학원 - 예·체능계학원"},{"name":"아이맥스학원","tel":"031-952-4419","addr":"경기도 파주시 문산읍 당동리 134-2번지","category":"학원 - 기타 교육기관"},{"name":"연지영헤어필","tel":"031-952-0623","addr":"경기도 파주시 문산읍 당동리 134-2번지","category":"보건위생 - 미용원"},{"name":"지맥스학원","tel":"070-4231-8285","addr":"경기도 파주시 문산읍 당동리 134-2번지","category":"학원 - 보습학원"}]},{"lat":"37.865489399","long":"126.77376399","items":[{"name":"꼬레랑","tel":"031-954-4478","addr":"경기도 파주시 문산읍 당동리 947번지 파주한양수자인리버팰리스아파트","category":"일반휴게음식 - 스넥"},{"name":"눈썹공주","tel":"","addr":"경기도 파주시 문산읍 당동리 947번지 파주한양수자인리버팰리스아파트","category":"보건위생 - 화장품"},{"name":"리버팰리스 어린이집[아이행복]","tel":"031-953-6091","addr":"경기도 파주시 문산읍 당동리 947번지 파주한양수자인리버팰리스아파트","category":"학원 - 유아원"},{"name":"마녀손톱","tel":"031-959-2255","addr":"경기도 파주시 문산읍 당동리 947번지 파주한양수자인리버팰리스아파트","category":"보건위생 - 피부미용실"},{"name":"문산EIE어학원","tel":"070-4285-0579","addr":"경기도 파주시 문산읍 당동리 947번지 파주한양수자인리버팰리스아파트","category":"학원 - 외국어학원"},{"name":"별이네십자수","tel":"031-8035-7666","addr":"경기도 파주시 문산읍 당동리 947번지 파주한양수자인리버팰리스아파트","category":"직물 - 침구·수예점"},{"name":"블랑제라피네","tel":"031-952-3586","addr":"경기도 파주시 문산읍 당동리 947번지 파주한양수자인리버팰리스아파트","category":"음료식품 - 제과점"},{"name":"비비큐 문산행복점","tel":"031-953-9383","addr":"경기도 파주시 문산읍 당동리 947번지 파주한양수자인리버팰리스아파트","category":"일반휴게음식 - 스넥"},{"name":"소소어린이집[아이행복]","tel":"031-953-3794","addr":"경기도 파주시 문산읍 당동리 947번지 파주한양수자인리버팰리스아파트","category":"학원 - 유아원"},{"name":"솜앰운(som&un)","tel":"070-7198-8243","addr":"경기도 파주시 문산읍 당동리 947번지 파주한양수자인리버팰리스아파트","category":"신변잡화 - 기타잡화"},{"name":"수자인세탁소","tel":"031-952-3450","addr":"경기도 파주시 문산읍 당동리 947번지 파주한양수자인리버팰리스아파트","category":"수리서비스 - 세탁소"},{"name":"수피아어린이집[아이행복]","tel":"031-8035-7679","addr":"경기도 파주시 문산읍 당동리 947번지 파주한양수자인리버팰리스아파트","category":"학원 - 유아원"},{"name":"스타일공감","tel":"031-953-8880","addr":"경기도 파주시 문산읍 당동리 947번지 파주한양수자인리버팰리스아파트","category":"보건위생 - 미용원"},{"name":"아이스 수제케키","tel":"070-1478-1236","addr":"경기도 파주시 문산읍 당동리 947번지 파주한양수자인리버팰리스아파트","category":"음료식품 - 기타음료식품"},{"name":"아이스크림 할인점/행운아이스","tel":"070-4785-4785","addr":"경기도 파주시 문산읍 당동리 947번지 파주한양수자인리버팰리스아파트","category":"음료식품 - 기타음료식품"},{"name":"원헤어#","tel":"031-949-0073","addr":"경기도 파주시 문산읍 당동리 947번지 파주한양수자인리버팰리스아파트","category":"보건위생 - 미용원"},{"name":"윤헤어#","tel":"031-959-1100","addr":"경기도 파주시 문산읍 당동리 947번지 파주한양수자인리버팰리스아파트","category":"보건위생 - 미용원"},{"name":"정육대장","tel":"031-953-2933","addr":"경기도 파주시 문산읍 당동리 947번지 파주한양수자인리버팰리스아파트","category":"음료식품 - 정육점"},{"name":"터치어카","tel":"","addr":"경기도 파주시 문산읍 당동리 947번지 파주한양수자인리버팰리스아파트","category":"자동차정비 유지 - 자동차부품"},{"name":"팡팡어린이집[아이행복]","tel":"031-953-7345","addr":"경기도 파주시 문산읍 당동리 947번지 파주한양수자인리버팰리스아파트","category":"학원 - 유아원"},{"name":"핑크피크닉","tel":"031-952-4242","addr":"경기도 파주시 문산읍 당동리 947번지 파주한양수자인리버팰리스아파트","category":"일반휴게음식 - 스넥"},{"name":"홈수선","tel":"031-954-5419","addr":"경기도 파주시 문산읍 당동리 947번지 파주한양수자인리버팰리스아파트","category":"수리서비스 - 세탁소"}]},{"lat":"37.864215358","long":"126.77185875","items":[{"name":"꼬마궁어린이집[아이행복]","tel":"031-953-3689","addr":"경기도 파주시 문산읍 당동리 940번지 파주힐스테이트2차","category":"학원 - 유아원"}]},{"lat":"37.866545011","long":"126.78403428","items":[{"name":"꼬마옴므","tel":"031-960-2400","addr":"경기도 파주시 문산읍 당동리 892번지","category":"의류 - 정장"},{"name":"꼬지사께 CGV문산점","tel":"031-952-6787","addr":"경기도 파주시 문산읍 당동리 892번지","category":"일반휴게음식 - 일반한식"},{"name":"단꿈","tel":"","addr":"경기도 파주시 문산읍 당동리 892번지","category":"음료식품 - 제과점"},{"name":"대원돈장군","tel":"031-954-1819","addr":"경기도 파주시 문산읍 당동리 892번지","category":"일반휴게음식 - 일반한식"},{"name":"더데일리밀","tel":"031-111-1111","addr":"경기도 파주시 문산읍 당동리 892번지","category":"일반휴게음식 - 서양음식"},{"name":"두가지맛떡볶이문산점","tel":"031-952-8851","addr":"경기도 파주시 문산읍 당동리 892번지","category":"일반휴게음식 - 스넥"},{"name":"램스진(LAMB'S JIN)","tel":"","addr":"경기도 파주시 문산읍 당동리 892번지","category":"일반휴게음식 - 일반한식"},{"name":"문산문고","tel":"031-952-9900","addr":"경기도 파주시 문산읍 당동리 892번지","category":"서적문구 - 문구용품"},{"name":"문산문고","tel":"031-952-9900","addr":"경기도 파주시 문산읍 당동리 892번지","category":"서적문구 - 문구용품"},{"name":"백작부인","tel":"031-961-6658","addr":"경기도 파주시 문산읍 당동리 892번지","category":"의류 - 정장"},{"name":"스타일노리터","tel":"031-8811-8127","addr":"경기도 파주시 문산읍 당동리 892번지","category":"의류 - 정장"},{"name":"오샤레","tel":"070-7543-5422","addr":"경기도 파주시 문산읍 당동리 892번지","category":"보건위생 - 화장품"},{"name":"좋아요(Like)","tel":"070-0000-0000","addr":"경기도 파주시 문산읍 당동리 892번지","category":"의류 - 정장"},{"name":"컨설 몬스터즈","tel":"070-7719-1218","addr":"경기도 파주시 문산읍 당동리 892번지","category":"유통업 영리 - 기타유통업"},{"name":"탐앤탐스","tel":"031-954-4565","addr":"경기도 파주시 문산읍 당동리 892번지","category":"일반휴게음식 - 서양음식"},{"name":"탐앤탐스","tel":"031-954-4565","addr":"경기도 파주시 문산읍 당동리 892번지","category":"일반휴게음식 - 서양음식"},{"name":"포레스트","tel":"031-111-1111","addr":"경기도 파주시 문산읍 당동리 892번지","category":"의류 - 정장"}]},{"lat":"37.866995751","long":"126.78418069","items":[{"name":"꼴통 신(  ) 닭발","tel":"070-7784-4107","addr":"경기도 파주시 문산읍 당동리 891번지","category":"일반휴게음식 - 일반한식"},{"name":"노랑통닭(문산점)","tel":"031-952-8080","addr":"경기도 파주시 문산읍 당동리 891번지","category":"일반휴게음식 - 일반한식"},{"name":"롯데리아 당동점","tel":"031-954-0033","addr":"경기도 파주시 문산읍 당동리 891번지","category":"일반휴게음식 - 서양음식"},{"name":"롯데리아당동점/주식회사희정컴퍼니","tel":"031-954-0033","addr":"경기도 파주시 문산읍 당동리 891번지","category":"일반휴게음식 - 서양음식"},{"name":"만원&행복","tel":"031-952-4130","addr":"경기도 파주시 문산읍 당동리 891번지","category":"일반휴게음식 - 일반한식"},{"name":"브런치카페 자매","tel":"031-953-5953","addr":"경기도 파주시 문산읍 당동리 891번지","category":"일반휴게음식 - 서양음식"},{"name":"사쿠사쿠당동점","tel":"031-953-4946","addr":"경기도 파주시 문산읍 당동리 891번지","category":"일반휴게음식 - 일반한식"},{"name":"엠씨엔(MCN)헤어뷰띠끄","tel":"031-952-0688","addr":"경기도 파주시 문산읍 당동리 891번지","category":"보건위생 - 미용원"},{"name":"여명철원양평해장국","tel":"031-952-3377","addr":"경기도 파주시 문산읍 당동리 891번지","category":"일반휴게음식 - 일반한식"},{"name":"육해공포차","tel":"070-4277-6777","addr":"경기도 파주시 문산읍 당동리 891번지","category":"일반휴게음식 - 일반한식"},{"name":"짚터문산CGV점","tel":"031-939-9267","addr":"경기도 파주시 문산읍 당동리 891번지","category":"일반휴게음식 - 일반한식"},{"name":"크림맥주빠마","tel":"031-953-8010","addr":"경기도 파주시 문산읍 당동리 891번지","category":"일반휴게음식 - 주점"}]},{"lat":"37.864663921","long":"126.7850399","items":[{"name":"꿈꾸는샘어린이집[아이행복]","tel":"031-952-0532","addr":"경기도 파주시 문산읍 당동리 937번지 휴먼시아","category":"학원 - 유아원"},{"name":"늘푸른빨래방","tel":"031-954-8889","addr":"경기도 파주시 문산읍 당동리 937번지 휴먼시아","category":"수리서비스 - 세탁소"},{"name":"미니스톱문산주공점","tel":"031-340-4261","addr":"경기도 파주시 문산읍 당동리 937번지 휴먼시아","category":"유통업 영리 - 편 의 점"},{"name":"수진헤어","tel":"031-953-6151","addr":"경기도 파주시 문산읍 당동리 937번지 휴먼시아","category":"보건위생 - 미용원"},{"name":"잼있는 악기점","tel":"031-954-0088","addr":"경기도 파주시 문산읍 당동리 937번지 휴먼시아","category":"레져용품 - 악기점"},{"name":"참나무장작구이","tel":"031-953-8292","addr":"경기도 파주시 문산읍 당동리 937번지 휴먼시아","category":"일반휴게음식 - 일반한식"},{"name":"하이클래스수학학원","tel":"031-953-2612","addr":"경기도 파주시 문산읍 당동리 937번지 휴먼시아","category":"학원 - 보습학원"},{"name":"한마음아동청소년발달치료센터","tel":"031-953-9069","addr":"경기도 파주시 문산읍 당동리 937번지 휴먼시아","category":"보건위생 - 기타대인서비스"}]},{"lat":"37.861480202","long":"126.77842419","items":[{"name":"꿈에그린어린이집[아이행복]","tel":"031-954-8327","addr":"경기도 파주시 문산읍 당동리 909번지 자연앤꿈에그린","category":"학원 - 유아원"}]},{"lat":"37.862272615","long":"126.77353531","items":[{"name":"나갈비","tel":"031-953-4745","addr":"경기도 파주시 문산읍 당동리 913-4번지","category":"일반휴게음식 - 일반한식"}]},{"lat":"37.864106092","long":"126.78062088","items":[{"name":"누나홀닭","tel":"031-953-9393","addr":"경기도 파주시 문산읍 당동리 903-2번지","category":"일반휴게음식 - 스넥"},{"name":"더스타일","tel":"031-941-7775","addr":"경기도 파주시 문산읍 당동리 903-2번지","category":"보건위생 - 미용원"},{"name":"성빈중화요리","tel":"031-953-2666","addr":"경기도 파주시 문산읍 당동리 903-2번지","category":"일반휴게음식 - 중국식"},{"name":"알트노래연습장","tel":"031-952-4615","addr":"경기도 파주시 문산읍 당동리 903-2번지","category":"레저업소 - 노 래 방"},{"name":"윤가네갈비탕","tel":"031-952-8867","addr":"경기도 파주시 문산읍 당동리 903-2번지","category":"일반휴게음식 - 일반한식"},{"name":"족쪽당동점","tel":"031-000-0000","addr":"경기도 파주시 문산읍 당동리 903-2번지","category":"일반휴게음식 - 일반한식"},{"name":"허브에비뉴","tel":"031-1111-1111","addr":"경기도 파주시 문산읍 당동리 903-2번지","category":"신변잡화 - 기타잡화"}]},{"lat":"37.86735745","long":"126.7848956","items":[{"name":"다온건설M&A","tel":"031-954-2504","addr":"경기도 파주시 문산읍 당동리 888-5번지","category":"용역 서비스 - 사무서비스"},{"name":"당동반점","tel":"031-952-2256","addr":"경기도 파주시 문산읍 당동리 888-5번지","category":"일반휴게음식 - 일반한식"},{"name":"당동카페(DangDong Cafe)","tel":"070-9161-6580","addr":"경기도 파주시 문산읍 당동리 888-5번지","category":"일반휴게음식 - 서양음식"},{"name":"더주넷","tel":"031-953-0303","addr":"경기도 파주시 문산읍 당동리 888-5번지","category":"사무통신 - 통신기기"},{"name":"동대문엽기떡볶이 문산점","tel":"031-953-8592","addr":"경기도 파주시 문산읍 당동리 888-5번지","category":"일반휴게음식 - 일반한식"},{"name":"러블린","tel":"031-952-0630","addr":"경기도 파주시 문산읍 당동리 888-5번지","category":"의류 - 정장"},{"name":"맘스터치 문산당동점","tel":"031-952-4100","addr":"경기도 파주시 문산읍 당동리 888-5번지","category":"일반휴게음식 - 일반한식"},{"name":"알레르망파주문산점","tel":"070-4145-8229","addr":"경기도 파주시 문산읍 당동리 888-5번지","category":"직물 - 침구·수예점"},{"name":"온도90(ondo90)","tel":"","addr":"경기도 파주시 문산읍 당동리 888-5번지","category":"일반휴게음식 - 서양음식"},{"name":"청담동 말자싸롱","tel":"031-111-1111","addr":"경기도 파주시 문산읍 당동리 888-5번지","category":"일반휴게음식 - 일반한식"},{"name":"카페 게이트","tel":"031-111-1111","addr":"경기도 파주시 문산읍 당동리 888-5번지","category":"일반휴게음식 - 서양음식"},{"name":"토즈멤버십라운지 문산센터","tel":"031-953-1013","addr":"경기도 파주시 문산읍 당동리 888-5번지","category":"용역 서비스 - 사무서비스"},{"name":"토즈스터디센터 문산독서실","tel":"031-953-1013","addr":"경기도 파주시 문산읍 당동리 888-5번지","category":"학원 - 독서실"},{"name":"픽미픽미아이스 문산당동점","tel":"","addr":"경기도 파주시 문산읍 당동리 888-5번지","category":"음료식품 - 기타음료식품"}]},{"lat":"37.863218657","long":"126.77356647","items":[{"name":"당당제빵소","tel":"031-952-0887","addr":"경기도 파주시 문산읍 당동리 167-2번지","category":"음료식품 - 제과점"},{"name":"메가엠지씨커피 파주당동점","tel":"","addr":"경기도 파주시 문산읍 당동리 167-2번지","category":"일반휴게음식 - 서양음식"},{"name":"문산원치과의원","tel":"031-952-2175","addr":"경기도 파주시 문산읍 당동리 167-2번지","category":"의원 - 치과의원"}]},{"lat":"37.871603369","long":"126.77667731","items":[{"name":"당동리 곤드레와불고기","tel":"031-953-5253","addr":"경기도 파주시 문산읍 당동리 450-1번지","category":"일반휴게음식 - 일반한식"},{"name":"오리랑닭이랑","tel":"031-953-5253","addr":"경기도 파주시 문산읍 당동리 450-1번지","category":"일반휴게음식 - 일반한식"}]},{"lat":"37.874544227","long":"126.78834099","items":[{"name":"대덕자동차공업사","tel":"031-953-1758","addr":"경기도 파주시 문산읍 당동리 26번지","category":"자동차정비 유지 - 자동차정비"}]},{"lat":"37.863463343","long":"126.78378202","items":[{"name":"더퓨어스킨케어&바디","tel":"031-952-7783","addr":"경기도 파주시 문산읍 당동리 92-4번지 세아아파트","category":"보건위생 - 피부미용실"},{"name":"정다운모터스","tel":"031-958-5189","addr":"경기도 파주시 문산읍 당동리 92-4번지 세아아파트","category":"자동차정비 유지 - 자동차정비"},{"name":"제이와이정보통신","tel":"070-4875-6214","addr":"경기도 파주시 문산읍 당동리 92-4 세아산호A 101-203 3/9","category":"회원제형태 - 기타3"}]},{"lat":"37.867580679","long":"126.78381529","items":[{"name":"두근두근","tel":"031-953-3396","addr":"경기도 파주시 문산읍 당동리 888번지","category":"일반휴게음식 - 일반한식"},{"name":"북창동순두부 파주문산점","tel":"","addr":"경기도 파주시 문산읍 당동리 888번지","category":"일반휴게음식 - 일반한식"},{"name":"성심노인전문요양원","tel":"031-953-1177","addr":"경기도 파주시 문산읍 당동리 888번지","category":"기타의료기관 - 기타의료기관 및 기타"},{"name":"신촌설렁탕 문산점","tel":"031-954-1667","addr":"경기도 파주시 문산읍 당동리 888번지","category":"일반휴게음식 - 일반한식"}]},{"lat":"37.862301321","long":"126.77439887","items":[{"name":"두두헤어","tel":"031-953-1104","addr":"경기도 파주시 문산읍 당동리 914-2번지","category":"보건위생 - 미용원"}]},{"lat":"37.86791491","long":"126.78429162","items":[{"name":"드래곤펍","tel":"070-8752-3245","addr":"경기도 파주시 문산읍 당동리 888-2번지","category":"레저업소 - 기타레져업소"},{"name":"만삼이","tel":"031-953-4541","addr":"경기도 파주시 문산읍 당동리 888-2번지","category":"일반휴게음식 - 일반한식"},{"name":"본국무예 문산 합기도검도","tel":"031-934-0907","addr":"경기도 파주시 문산읍 당동리 888-2번지","category":"학원 - 예·체능계학원"},{"name":"북경양꼬치","tel":"","addr":"경기도 파주시 문산읍 당동리 888-2번지","category":"일반휴게음식 - 일반한식"},{"name":"시양양 양꼬치","tel":"031-684-8647","addr":"경기도 파주시 문산읍 당동리 888-2번지","category":"일반휴게음식 - 일반한식"},{"name":"점프노리","tel":"031-952-7352","addr":"경기도 파주시 문산읍 당동리 888-2번지","category":"일반휴게음식 - 서양음식"},{"name":"헤어칙스","tel":"031-362-6006","addr":"경기도 파주시 문산읍 당동리 888-2번지","category":"보건위생 - 미용원"},{"name":"휴","tel":"070-2750-3566","addr":"경기도 파주시 문산읍 당동리 888-2번지","category":"레저업소 - 헬스클럽"},{"name":"흑형숯불구이","tel":"031-952-7792","addr":"경기도 파주시 문산읍 당동리 888-2번지","category":"일반휴게음식 - 일반한식"},{"name":"힐링노래연습장","tel":"031-954-1666","addr":"경기도 파주시 문산읍 당동리 888-2번지 402호","category":"레저업소 - 노 래 방"}]},{"lat":"37.864775091","long":"126.78184621","items":[{"name":"뚱발목욕장4층여탕 매점","tel":"","addr":"경기도 파주시 문산읍 당동리 902번지","category":"음료식품 - 기타음료식품"},{"name":"뚱스밥","tel":"","addr":"경기도 파주시 문산읍 당동리 902번지","category":"일반휴게음식 - 일반한식"},{"name":"라온","tel":"031-954-3450","addr":"경기도 파주시 문산읍 당동리 902번지","category":"의류 - 정장"},{"name":"스파스넥","tel":"031-000-0000","addr":"경기도 파주시 문산읍 당동리 902번지","category":"일반휴게음식 - 일반한식"},{"name":"일오삼김밥","tel":"031-954-0153","addr":"경기도 파주시 문산읍 당동리 902번지","category":"일반휴게음식 - 스넥"},{"name":"자담치킨 파주문산점","tel":"031-957-5333","addr":"경기도 파주시 문산읍 당동리 902번지","category":"일반휴게음식 - 스넥"},{"name":"주식회사 모든컴퍼니","tel":"031-954-9661","addr":"경기도 파주시 문산읍 당동리 902번지","category":"레저업소 - 기타레져업소"},{"name":"프라다통신","tel":"","addr":"경기도 파주시 문산읍 당동리 902번지","category":"사무통신 - 통신기기"},{"name":"플레이 볼 (PLAY BOWL) 문산","tel":"","addr":"경기도 파주시 문산읍 당동리 902번지","category":"레저업소 - 볼 링 장"},{"name":"플레이볼 펍","tel":"","addr":"경기도 파주시 문산읍 당동리 902번지","category":"일반휴게음식 - 서양음식"}]},{"lat":"37.861887312","long":"126.77461606","items":[{"name":"라니 스토리","tel":"070-4686-9412","addr":"경기도 파주시 문산읍 당동리 916-7번지","category":"신변잡화 - 액세서리"}]},{"lat":"37.861659606","long":"126.77334402","items":[{"name":"라온 까미니또(Raon Caminito)","tel":"031-954-1356","addr":"경기도 파주시 문산읍 당동리 921-5번지","category":"일반휴게음식 - 서양음식"}]},{"lat":"37.864582522","long":"126.78486968","items":[{"name":"마린(MARINE)","tel":"","addr":"경기도 파주시 문산읍 당동리 937번지 휴먼시아","category":"회원제형태 - 기타3"}]},{"lat":"37.86738372","long":"126.78448639","items":[{"name":"막창일번지 당동점","tel":"031-9540-9990","addr":"경기도 파주시 문산읍 당동리 889-2번지","category":"일반휴게음식 - 일반한식"},{"name":"빠시옹","tel":"031-952-2088","addr":"경기도 파주시 문산읍 당동리 889-2번지","category":"일반휴게음식 - 스넥"},{"name":"씨케이미용실(CK)","tel":"070-4240-1112","addr":"경기도 파주시 문산읍 당동리 889-2번지","category":"보건위생 - 미용원"},{"name":"아나바","tel":"031-945-9391","addr":"경기도 파주시 문산읍 당동리 889-2번지","category":"일반휴게음식 - 주점"},{"name":"열창노래연습장","tel":"031-952-0979","addr":"경기도 파주시 문산읍 당동리 889-2번지","category":"레저업소 - 노 래 방"},{"name":"피자 이탈리 (문산본점)","tel":"031-953-2033","addr":"경기도 파주시 문산읍 당동리 889-2번지","category":"일반휴게음식 - 서양음식"}]},{"lat":"37.866822935","long":"126.7647591","items":[{"name":"메이저시스템","tel":"031-904-2015","addr":"경기도 파주시 문산읍 당동리 621-3번지","category":"사무통신 - 사무용 OA기기"}]},{"lat":"37.86349768","long":"126.77342923","items":[{"name":"명문음악학원","tel":"053-572-5288","addr":"경기도 파주시 문산읍 당동리 168번지","category":"학원 - 예·체능계학원"},{"name":"싹둑미용실","tel":"031-952-6238","addr":"경기도 파주시 문산읍 당동리 168","category":"보건위생 - 미용원"}]},{"lat":"37.867156988","long":"126.78368017","items":[{"name":"모리화","tel":"031-953-9945","addr":"경기도 파주시 문산읍 당동리 890번지","category":"일반휴게음식 - 중국식"},{"name":"모리화","tel":"031-953-9945","addr":"경기도 파주시 문산읍 당동리 890번지","category":"일반휴게음식 - 중국식"},{"name":"블랙펍 PC","tel":"","addr":"경기도 파주시 문산읍 당동리 890번지","category":"레저업소 - 기타레져업소"},{"name":"야9하자","tel":"031-386-9175","addr":"경기도 파주시 문산읍 당동리 890번지","category":"레저업소 - 기타레져업소"},{"name":"육회본가","tel":"031-952-1112","addr":"경기도 파주시 문산읍 당동리 890번지","category":"일반휴게음식 - 일반한식"},{"name":"이디야 문산당동점","tel":"031-953-0211","addr":"경기도 파주시 문산읍 당동리 890번지","category":"일반휴게음식 - 서양음식"},{"name":"탑890 당구클럽","tel":"","addr":"경기도 파주시 문산읍 당동리 890번지","category":"레저업소 - 당 구 장"},{"name":"탑카페","tel":"","addr":"경기도 파주시 문산읍 당동리 890번지","category":"일반휴게음식 - 서양음식"},{"name":"토리덴","tel":"031-952-8241","addr":"경기도 파주시 문산읍 당동리 890번지","category":"일반휴게음식 - 일반한식"},{"name":"플로스 오브 가민헤어","tel":"031-954-0503","addr":"경기도 파주시 문산읍 당동리 890번지","category":"보건위생 - 미용원"}]},{"lat":"37.862098494","long":"126.78141101","items":[{"name":"문산온 심리상담센터","tel":"031-8035-5464","addr":"경기도 파주시 문산읍 당동리 871번지 주공아파트","category":"보건위생 - 기타대인서비스"},{"name":"문산온 심리상담센터","tel":"031-8035-5464","addr":"경기도 파주시 문산읍 당동리 871번지 주공아파트","category":"보건위생 - 기타대인서비스"},{"name":"문산온 심리상담센터","tel":"031-8035-5464","addr":"경기도 파주시 문산읍 당동리 871번지 주공아파트","category":"보건위생 - 기타대인서비스"}]},{"lat":"37.870631325","long":"126.78678394","items":[{"name":"문산참숯가마","tel":"031-952-3182","addr":"경기도 파주시 문산읍 당동리 50-6번지","category":"보건위생 - 사우나"}]},{"lat":"37.861689019","long":"126.77457122","items":[{"name":"문산카브레타","tel":"031-952-2371","addr":"경기도 파주시 문산읍 당동리 916-3","category":"자동차정비 유지 - 자동차정비"}]},{"lat":"37.867711256","long":"126.76298334","items":[{"name":"미주농장","tel":"031-958-0052","addr":"경기도 파주시 문산읍 당동리 616-2번지","category":"일반휴게음식 - 일반한식"}]},{"lat":"37.86640833","long":"126.76026007","items":[{"name":"반구정셀프장어타운","tel":"","addr":"경기도 파주시 문산읍 당동리 735번지","category":"일반휴게음식 - 일반한식"}]},{"lat":"37.86191348","long":"126.77417279","items":[{"name":"배통삼석쇠구이삼겹(문산점)","tel":"031-952-7747","addr":"경기도 파주시 문산읍 당동리 915-3번지","category":"일반휴게음식 - 일반한식"}]},{"lat":"37.861461186","long":"126.77790151","items":[{"name":"봄헤어","tel":"031-953-7747","addr":"경기도 파주시 문산읍 당동리 909번지 자연앤꿈에그린","category":"보건위생 - 미용원"},{"name":"자연엔어린이집[아이행복]","tel":"031-952-7009","addr":"경기도 파주시 문산읍 당동리 909번지 자연앤꿈에그린","category":"학원 - 유아원"}]},{"lat":"37.862157437","long":"126.77453568","items":[{"name":"부산갈매기","tel":"031-953-9792","addr":"경기도 파주시 문산읍 당동리 914-3번지","category":"일반휴게음식 - 일반한식"}]},{"lat":"37.865908674","long":"126.78583175","items":[{"name":"쁘띠아이어린이집[아이행복]","tel":"031-954-6227","addr":"경기도 파주시 문산읍 당동리 935번지 파주힐스테이트1차","category":"학원 - 유아원"}]},{"lat":"37.863830293","long":"126.77305318","items":[{"name":"사과나무i어린이집[아이행복]","tel":"070-7685-8502","addr":"경기도 파주시 문산읍 당동리 940번지 파주힐스테이트2차","category":"학원 - 유아원"},{"name":"이수정재료","tel":"031-948-3445","addr":"경기도 파주시 문산읍 당동리 940번지 파주힐스테이트2차","category":"회원제형태 - 기타4"}]},{"lat":"37.86291413","long":"126.77448789","items":[{"name":"상하이탕","tel":"031-953-2622","addr":"경기도 파주시 문산읍 당동리 176-2번지","category":"일반휴게음식 - 일반한식"},{"name":"코리엔탈 깻잎 두마리칩킨","tel":"031-952-4777","addr":"경기도 파주시 문산읍 당동리 176-2번지","category":"일반휴게음식 - 스넥"}]},{"lat":"37.86540948","long":"126.78384445","items":[{"name":"샛별 아동심리발달센터","tel":"031-953-0693","addr":"경기도 파주시 문산읍 당동리 899-3번지","category":"보건위생 - 기타대인서비스"}]},{"lat":"37.86249829","long":"126.77376188","items":[{"name":"설레는날","tel":"","addr":"경기도 파주시 문산읍 당동리 912-3번지","category":"일반휴게음식 - 서양음식"}]},{"lat":"37.862733729","long":"126.77906813","items":[{"name":"성현","tel":"","addr":"경기도 파주시 문산읍 당동리 908번지 문산당동4단지","category":"의류 - 정장"}]},{"lat":"37.876739817","long":"126.78201505","items":[{"name":"소소불개장&육국수","tel":"","addr":"경기도 파주시 문산읍 당동리 326-3번지","category":"일반휴게음식 - 일반한식"}]},{"lat":"37.863635227","long":"126.77466749","items":[{"name":"스피드 성경통독사역원","tel":"031-952-1609","addr":"경기도 파주시 문산읍 당동리 170-2번지 문산세성아파트","category":"서적문구 - 출판 및 인쇄물"}]},{"lat":"37.863469615","long":"126.78231604","items":[{"name":"스피드메이드문산점","tel":"031-952-9731","addr":"경기도 파주시 문산읍 당동리 88-1번지","category":"자동차정비 유지 - 자동차정비"}]},{"lat":"37.86238214","long":"126.77426226","items":[{"name":"신가네우동집","tel":"031-947-1525","addr":"경기도 파주시 문산읍 당동리 914-1번지","category":"일반휴게음식 - 일반한식"}]},{"lat":"37.862462959","long":"126.77412564","items":[{"name":"신망리순대국","tel":"031-953-7740","addr":"경기도 파주시 문산읍 당동리 914번지","category":"일반휴게음식 - 일반한식"}]},{"lat":"37.862631856","long":"126.77295463","items":[{"name":"싸군","tel":"070-8809-4949","addr":"경기도 파주시 문산읍 당동리 913번지","category":"일반휴게음식 - 일반한식"}]},{"lat":"37.861580511","long":"126.77436701","items":[{"name":"씨유당동만남점","tel":"031-953-7799","addr":"경기도 파주시 문산읍 당동리 916-4번지","category":"유통업 영리 - 편 의 점"}]},{"lat":"37.863881374","long":"126.78089429","items":[{"name":"씨유문산당동점","tel":"031-954-2338","addr":"경기도 파주시 문산읍 당동리 905번지","category":"유통업 영리 - 편 의 점"},{"name":"카페(Cafe) 세시봉","tel":"031-954-0877","addr":"경기도 파주시 문산읍 당동리 905번지","category":"일반휴게음식 - 서양음식"}]},{"lat":"37.866247305","long":"126.76523826","items":[{"name":"씨유파주당동점","tel":"031-953-6401","addr":"경기도 파주시 문산읍 당동리 122-9번지","category":"유통업 영리 - 편 의 점"}]},{"lat":"37.862662345","long":"126.77943199","items":[{"name":"아이소소 어린이집[아이행복]","tel":"031-952-3932","addr":"경기도 파주시 문산읍 당동리 908번지 문산당동4단지","category":"학원 - 유아원"},{"name":"오땡큐 문산점","tel":"031-953-6906","addr":"경기도 파주시 문산읍 당동리 908번지 문산당동4단지","category":"보건위생 - 미용원"},{"name":"오렌지유통","tel":"031-946-0800","addr":"경기도 파주시 문산읍 당동리 908번지 문산당동4단지","category":"유통업 영리 - 슈퍼마켓"},{"name":"용","tel":"031-954-0973","addr":"경기도 파주시 문산읍 당동리 908번지 문산당동4단지","category":"일반휴게음식 - 주점"}]},{"lat":"37.862137254","long":"126.77342209","items":[{"name":"아지트","tel":"031-953-5339","addr":"경기도 파주시 문산읍 당동리 913-5번지","category":"일반휴게음식 - 주점"}]},{"lat":"37.86179605","long":"126.77401406","items":[{"name":"안동국밥","tel":"031-949-5551","addr":"경기도 파주시 문산읍 당동리 915-4번지","category":"일반휴게음식 - 일반한식"},{"name":"피자마루","tel":"031-953-3003","addr":"경기도 파주시 문산읍 당동리 915-4번지","category":"일반휴게음식 - 서양음식"}]},{"lat":"37.863192757","long":"126.77414611","items":[{"name":"엄마손만두국","tel":"031-953-5063","addr":"경기도 파주시 문산읍 당동리 175-5번지","category":"일반휴게음식 - 일반한식"},{"name":"참솔한식당","tel":"031-953-3938","addr":"경기도 파주시 문산읍 당동리 175-5번지","category":"일반휴게음식 - 일반한식"}]},{"lat":"37.861019122","long":"126.77758467","items":[{"name":"예삐(YEBBI)","tel":"","addr":"경기도 파주시 문산읍 당동리 909번지 자연앤꿈에그린","category":"신변잡화 - 기타잡화"}]},{"lat":"37.867573021","long":"126.78454266","items":[{"name":"예성노블주간보호센터","tel":"031-953-0188","addr":"경기도 파주시 문산읍 당동리 889-1번지","category":"기타의료기관 - 기타의료기관 및 기타"},{"name":"와우샤브앤피쉬","tel":"031-952-3131","addr":"경기도 파주시 문산읍 당동리 889-1번지","category":"일반휴게음식 - 일반한식"}]},{"lat":"37.863594318","long":"126.77216752","items":[{"name":"예술의성","tel":"070-5031-0327","addr":"경기도 파주시 문산읍 당동리 940번지 파주힐스테이트2차","category":"서적문구 - 일반서적"}]},{"lat":"37.863023175","long":"126.78447653","items":[{"name":"옹다래감자탕 문산점","tel":"031-954-0577","addr":"경기도 파주시 문산읍 당동리 77-9번지","category":"일반휴게음식 - 일반한식"},{"name":"콩쥐팥쥐 삼채두부식당","tel":"031-954-2346","addr":"경기도 파주시 문산읍 당동리 77-9번지","category":"일반휴게음식 - 일반한식"}]},{"lat":"37.863130822","long":"126.7842262","items":[{"name":"왁스나라버블세차","tel":"031-954-7989","addr":"경기도 파주시 문산읍 당동리 77-2번지","category":"자동차정비 유지 - 세차장"}]},{"lat":"37.863970044","long":"126.77542786","items":[{"name":"운정몰탈","tel":"","addr":"경기도 파주시 문산읍 당동리 170-3번지 효형아파트","category":"용역 서비스 - 기타용역서비스"},{"name":"정자농원","tel":"031-952-8544","addr":"경기도 파주시 문산읍 당동리 170-3번지 효형아파트","category":"음료식품 - 농·축·수산품"}]},{"lat":"37.863632102","long":"126.78248601","items":[{"name":"음치노래연습장","tel":"031-953-7488","addr":"경기도 파주시 문산읍 당동리 92-8번지","category":"레저업소 - 노 래 방"},{"name":"의정부 부대찌개","tel":"031-954-7779","addr":"경기도 파주시 문산읍 당동리 92-8번지","category":"일반휴게음식 - 일반한식"},{"name":"중앙자전거","tel":"031-953-3935","addr":"경기도 파주시 문산읍 당동리 92-8번지","category":"레져용품 - 스포츠·레져용품"}]},{"lat":"37.862741496","long":"126.7737384","items":[{"name":"이디야커피숍","tel":"","addr":"경기도 파주시 문산읍 당동리 912-1번지","category":"일반휴게음식 - 서양음식"}]},{"lat":"37.862831258","long":"126.77356767","items":[{"name":"이혜승헤어","tel":"","addr":"경기도 파주시 문산읍 당동리 912번지","category":"보건위생 - 미용원"},{"name":"중독제육5900","tel":"","addr":"경기도 파주시 문산읍 당동리 912번지","category":"일반휴게음식 - 일반한식"},{"name":"친정엄마","tel":"031-953-1245","addr":"경기도 파주시 문산읍 당동리 912번지","category":"음료식품 - 기타음료식품"}]},{"lat":"37.86743676","long":"126.76534808","items":[{"name":"임진강매운탕","tel":"031-954-2589","addr":"경기도 파주시 문산읍 당동리 622번지","category":"일반휴게음식 - 일반한식"}]},{"lat":"37.86805145","long":"126.76192531","items":[{"name":"임진강집","tel":"031-953-4962","addr":"경기도 파주시 문산읍 당동리 717-1번지","category":"일반휴게음식 - 일반한식"}]},{"lat":"37.866469546","long":"126.76376015","items":[{"name":"자유로휴게소","tel":"031-953-5325","addr":"경기도 파주시 문산읍 당동리 617-1번지","category":"유통업 영리 - 슈퍼마켓"},{"name":"자유로휴게소농수산물센타","tel":"031-953-5325","addr":"경기도 파주시 문산읍 당동리 617-1","category":"음료식품 - 농·축·수산품"},{"name":"현대봉평막국수","tel":"031-952-9521","addr":"경기도 파주시 문산읍 당동리 617-1번지","category":"일반휴게음식 - 일반한식"}]},{"lat":"37.86277385","long":"126.78122717","items":[{"name":"잔치집","tel":"031-952-0952","addr":"경기도 파주시 문산읍 당동리 133-1번지","category":"일반휴게음식 - 일반한식"},{"name":"잔치집","tel":"031-952-0952","addr":"경기도 파주시 문산읍 당동리 133-1번지","category":"일반휴게음식 - 일반한식"}]},{"lat":"37.862049105","long":"126.77442238","items":[{"name":"정윤건설","tel":"","addr":"경기도 파주시 문산읍 당동리 914-4번지","category":"건축자재 - 인테리어전문"},{"name":"파주 가맥집","tel":"031-952-3513","addr":"경기도 파주시 문산읍 당동리 914-4번지","category":"일반휴게음식 - 일반한식"},{"name":"파주슈퍼","tel":"031-952-3513","addr":"경기도 파주시 문산읍 당동리 914-4번지","category":"유통업 영리 - 슈퍼마켓"}]},{"lat":"37.862353433","long":"126.77339869","items":[{"name":"주식회사 에스티스톤","tel":"070-8872-1905","addr":"경기도 파주시 문산읍 당동리 913-3번지","category":"건축자재 - 목재·석재·철물"}]},{"lat":"37.86827143","long":"126.78708632","items":[{"name":"최솔잎","tel":"","addr":"경기도 파주시 문산읍 당동리 935번지 파주힐스테이트1차","category":"학원 - 기타 교육기관"}]},{"lat":"37.865827298","long":"126.78084299","items":[{"name":"충공상사/삼원FA(담배)","tel":"","addr":"경기도 파주시 문산읍 당동리 883-5번지","category":"기타 - 기타 전문점"}]},{"lat":"37.862016405","long":"126.78087716","items":[{"name":"카이스터디","tel":"070-7584-7825","addr":"경기도 파주시 문산읍 당동리 871번지 주공아파트","category":"회원제형태 - 학원"},{"name":"파란 어린이집[아이행복]","tel":"031-953-3793","addr":"경기도 파주시 문산읍 당동리 871번지 주공아파트","category":"학원 - 유아원"}]},{"lat":"37.867635517","long":"126.78423562","items":[{"name":"카페아이드림","tel":"031-953-0888","addr":"경기도 파주시 문산읍 당동리 889번지","category":"일반휴게음식 - 서양음식"}]},{"lat":"37.861101737","long":"126.77370939","items":[{"name":"칼국수 이레","tel":"031-953-7463","addr":"경기도 파주시 문산읍 당동리 924-1번지","category":"일반휴게음식 - 일반한식"}]},{"lat":"37.861606413","long":"126.77378737","items":[{"name":"쿠웨이트떡볶이","tel":"031-952-0555","addr":"경기도 파주시 문산읍 당동리 921-2번지","category":"일반휴게음식 - 일반한식"}]},{"lat":"37.862128952","long":"126.77378576","items":[{"name":"토이월드","tel":"031-000-0000","addr":"경기도 파주시 문산읍 당동리 915번지","category":"서적문구 - 완구점"}]},{"lat":"37.867302492","long":"126.76134815","items":[{"name":"토탈기획","tel":"031-953-2655","addr":"경기도 파주시 문산읍 당동리 100번지","category":"용역 서비스 - 사무서비스"}]},{"lat":"37.861717101","long":"126.77982122","items":[{"name":"통일유통","tel":"031-954-1482","addr":"경기도 파주시 문산읍 당동리 874번지 주공아파트","category":"회원제형태 - 기타4"}]},{"lat":"37.861885812","long":"126.77384333","items":[{"name":"통큰낙지","tel":"031-954-7733","addr":"경기도 파주시 문산읍 당동리 915-5","category":"일반휴게음식 - 일반한식"}]},{"lat":"37.859935597","long":"126.78106521","items":[{"name":"파주고등학교매점","tel":"","addr":"경기도 파주시 문산읍 당동리 140번지","category":"음료식품 - 기타음료식품"}]},{"lat":"37.86735482","long":"126.76050699","items":[{"name":"파주국제유치원[아이행복]","tel":"031-953-8617","addr":"경기도 파주시 문산읍 당동리 730-3 외 1필지","category":"학원 - 유치원"}]},{"lat":"37.8678097","long":"126.78586027","items":[{"name":"포레스트(Forest)","tel":"031-953-2453","addr":"경기도 파주시 문산읍 당동리 935번지 파주힐스테이트1차","category":"의류 - 정장"}]},{"lat":"37.864434259","long":"126.76865335","items":[{"name":"풍년농원","tel":"031-952-1135","addr":"경기도 파주시 문산읍 당동리 532-1번지","category":"음료식품 - 미곡상"}]},{"lat":"37.866800344","long":"126.76250898","items":[{"name":"한탄강매운탕","tel":"031-954-0015","addr":"경기도 파주시 문산읍 당동리 615-2번지 A호 외2필지제 씨동호","category":"일반휴게음식 - 일반한식"}]},{"lat":"37.863185911","long":"126.78478288","items":[{"name":"해송쌈밥","tel":"031-954-7982","addr":"경기도 파주시 문산읍 당동리 77-7번지","category":"일반휴게음식 - 일반한식"}]},{"lat":"37.868812176","long":"126.78718702","items":[{"name":"행복미술","tel":"031-111-1111","addr":"경기도 파주시 문산읍 당동리 935번지 파주힐스테이트1차","category":"문화.취미 - 문화취미기타"}]},{"lat":"37.861881929","long":"126.78122984","items":[{"name":"호연","tel":"031-954-3663","addr":"경기도 파주시 문산읍 당동리 871번지 주공아파트","category":"일반휴게음식 - 주점"}]},{"lat":"37.871746293","long":"126.77604042","items":[{"name":"황금소나무집","tel":"031-953-9262","addr":"경기도 파주시 문산읍 당동리 451-3번지","category":"일반휴게음식 - 일반한식"}]}]