[{"lat":"37.38622854","long":"127.3206975","items":[{"name":"(주)목산","tel":"031-764-3890","addr":"경기도 광주시 초월읍 선동리 348번지","category":"가구 - 일반가구"}]},{"lat":"37.38669992","long":"127.3162505","items":[{"name":"(주)아지트","tel":"031-798-4170","addr":"경기도 광주시 초월읍 선동리 363-6번지","category":"가구 - 일반가구"}]},{"lat":"37.3832834","long":"127.3168912","items":[{"name":"(주)제우프랜트","tel":"031-766-6619","addr":"경기도 광주시 초월읍 선동리 352-21번지","category":"기타 - 기계공구"}]},{"lat":"37.38767425","long":"127.3157803","items":[{"name":"GS25광주산수로탑점","tel":"","addr":"경기도 광주시 초월읍 선동리 358-2번지 1층","category":"유통업 영리 - 편 의 점"}]},{"lat":"37.37842061","long":"127.3124677","items":[{"name":"K비닐 봉투","tel":"031-797-7933","addr":"경기도 광주시 초월읍 선동리 428-2번지 외1필지","category":"유통업 영리 - 기타유통업"}]},{"lat":"37.38698175","long":"127.3186907","items":[{"name":"거광상사","tel":"031-763-2801","addr":"경기도 광주시 초월읍 선동리 375번지","category":"신변잡화 - 기타잡화"}]},{"lat":"37.37478558","long":"127.3173864","items":[{"name":"경원콤프레샤","tel":"031-763-0994","addr":"경기도 광주시 초월읍 선동리 228-23번지","category":"기타 - 기계공구"}]},{"lat":"37.38914371","long":"127.3154703","items":[{"name":"남양우유광주보급소","tel":"031-766-8897","addr":"경기도 광주시 초월읍 선동리 413","category":"음료식품 - 기타음료식품"},{"name":"한림WOOD","tel":"031-764-9890","addr":"경기도 광주시 초월읍 선동리 413번지","category":"건축자재 - 목재·석재·철물"}]},{"lat":"37.38892354","long":"127.3236674","items":[{"name":"다익정공","tel":"031-763-6779","addr":"경기도 광주시 초월읍 선동리 38번지","category":"기타 - 기계공구"}]},{"lat":"37.37647578","long":"127.3153838","items":[{"name":"달래강숯불구이마당","tel":"031-766-7787","addr":"경기도 광주시 초월읍 선동리 238번지","category":"일반휴게음식 - 일반한식"}]},{"lat":"37.37486489","long":"127.3247478","items":[{"name":"대교린넨텍스타일","tel":"031-764-9088","addr":"경기도 광주시 초월읍 선동리 203-2번지","category":"직물 - 침구·수예점"}]},{"lat":"37.37717356","long":"127.3172722","items":[{"name":"대성공구철물","tel":"031-765-5651","addr":"경기도 광주시 초월읍 선동리 248-1번지","category":"기타 - 기계공구"},{"name":"뮤엠영어선동교습소","tel":"031-768-3305","addr":"경기도 광주시 초월읍 선동리 248-1번지 선동빌딩 2층","category":"회원제형태 - 학원"},{"name":"세븐일레븐경기광주초월본점","tel":"011-****-****","addr":"경기도 광주시 초월읍 선동리 248-1번지 선동빌딩","category":"유통업 영리 - 편 의 점"},{"name":"양푼이국수","tel":"031-766-7011","addr":"경기도 광주시 초월읍 선동리 248-1번지 선동빌딩 1층","category":"일반휴게음식 - 일반한식"}]},{"lat":"37.38012102","long":"127.3168329","items":[{"name":"대웅식당","tel":"031-762-3122","addr":"경기도 광주시 초월읍 선동리 294번지","category":"일반휴게음식 - 일반한식"}]},{"lat":"37.38823272","long":"127.3192267","items":[{"name":"대한특수여객운송","tel":"031-318-1208","addr":"경기도 광주시 초월읍 선동리 380-2","category":"용역 서비스 - 가례서비스업"}]},{"lat":"37.38025653","long":"127.3166979","items":[{"name":"도암윤활유","tel":"031-797-2729","addr":"경기도 광주시 초월읍 선동리 286-1 1층 105호,106호","category":"자동차정비 유지 - 윤활유 전문 판매"}]},{"lat":"37.37445161","long":"127.3176108","items":[{"name":"동광주현대서비스","tel":"031-767-1000","addr":"경기도 광주시 초월읍 선동리 230-1번지","category":"자동차정비 유지 - 자동차정비"},{"name":"동광주현대자동차서비스주식회사","tel":"031-767-1000","addr":"경기도 광주시 초월읍 선동리 230-1번지","category":"자동차정비 유지 - 자동차정비"}]},{"lat":"37.38200559","long":"127.3196635","items":[{"name":"동막 천막공사","tel":"031-797-0711","addr":"경기도 광주시 초월읍 선동리 316번지","category":"직물 - 카페트,커튼,천막,지물"}]},{"lat":"37.37837124","long":"127.3208901","items":[{"name":"동막골식당","tel":"031-767-6623","addr":"경기도 광주시 초월읍 선동리 164-7번지 1층","category":"일반휴게음식 - 일반한식"}]},{"lat":"37.37536575","long":"127.3194436","items":[{"name":"동양용접기","tel":"02-2296-4309","addr":"경기도 광주시 초월읍 선동리 263-6, 263-8","category":"기타 - 기계공구"},{"name":"주식회사 빈스홈(BINS HOME)","tel":"031-798-7407","addr":"경기도 광주시 초월읍 선동리 263-6번지","category":"가구 - 일반가구"}]},{"lat":"37.37892466","long":"127.3194699","items":[{"name":"렌탈제일","tel":"031-747-4444","addr":"경기도 광주시 초월읍 선동리 302-9번지","category":"직물 - 카페트,커튼,천막,지물"}]},{"lat":"37.38214283","long":"127.325558","items":[{"name":"리폼가구아울렛","tel":"","addr":"경기도 광주시 초월읍 선동리 119번지","category":"가구 - 일반가구"},{"name":"세화우드텍","tel":"031-769-2500","addr":"경기도 광주시 초월읍 선동리 119번지","category":"가구 - 일반가구"}]},{"lat":"37.3865381","long":"127.3161144","items":[{"name":"리혜산업","tel":"031-762-9040","addr":"경기도 광주시 초월읍 선동리 363-2번지","category":"가구 - 일반가구"}]},{"lat":"37.3786975","long":"127.3168043","items":[{"name":"맛집한식부페","tel":"031-764-9853","addr":"경기도 광주시 초월읍 선동리 296-1번지","category":"일반휴게음식 - 일반한식"},{"name":"씨유광주선동로드점","tel":"031-898-6568","addr":"경기도 광주시 초월읍 선동리 296-1번지","category":"유통업 영리 - 편 의 점"}]},{"lat":"37.37767613","long":"127.321384","items":[{"name":"매트85","tel":"031-765-5532","addr":"경기도 광주시 초월읍 선동리 170번지","category":"직물 - 카페트,커튼,천막,지물"}]},{"lat":"37.38836968","long":"127.3185498","items":[{"name":"명보교구상사","tel":"03-111-1111","addr":"경기도 광주시 초월읍 선동리 386-3번지","category":"서적문구 - 기타서적문구"}]},{"lat":"37.37848111","long":"127.3168599","items":[{"name":"몽고반점","tel":"031-791-1599","addr":"경기도 광주시 초월읍 선동리 280-1번지","category":"일반휴게음식 - 중국식"}]},{"lat":"37.38536818","long":"127.3223311","items":[{"name":"미래정밀","tel":"070-8160-2671","addr":"경기도 광주시 초월읍 선동리 84번지","category":"자동차정비 유지 - 자동차부품"}]},{"lat":"37.38714827","long":"127.3237727","items":[{"name":"백귀현","tel":"031-000-0000","addr":"경기도 광주시 초월읍 선동리 71-1번지","category":"문화.취미 - 화랑"}]},{"lat":"37.37684472","long":"127.3223063","items":[{"name":"비콘얼라이언스주식회사","tel":"02-443-2723","addr":"경기도 광주시 초월읍 선동리 190번지","category":"직물 - 옷감·직물"}]},{"lat":"37.37847733","long":"127.314884","items":[{"name":"삼정모터스","tel":"","addr":"경기도 광주시 초월읍 선동리 435-5번지","category":"자동차정비 유지 - 자동차정비"}]},{"lat":"37.3750337","long":"127.3155585","items":[{"name":"생기(주)","tel":"031-764-9581","addr":"경기도 광주시 초월읍 선동리 235-4번지","category":"용역 서비스 - 기타용역서비스"}]},{"lat":"37.37611906","long":"127.317392","items":[{"name":"선동리성원식당","tel":"031-761-4938","addr":"경기도 광주시 초월읍 선동리 254-2번지 지층","category":"일반휴게음식 - 일반한식"},{"name":"선동자동차공업사","tel":"031-764-8552","addr":"경기도 광주시 초월읍 선동리 254-2번지","category":"자동차정비 유지 - 자동차정비"},{"name":"유진카크리닉","tel":"031-761-3959","addr":"경기도 광주시 초월읍 선동리 254-2번지","category":"자동차정비 유지 - 자동차정비"}]},{"lat":"37.37753909","long":"127.3220834","items":[{"name":"선동식당","tel":"031-763-3504","addr":"경기도 광주시 초월읍 선동리 171-1번지 가동 1층","category":"일반휴게음식 - 일반한식"},{"name":"씨유광주선동점","tel":"031-798-3192","addr":"경기도 광주시 초월읍 선동리 171-1번지","category":"유통업 영리 - 편 의 점"}]},{"lat":"37.37703751","long":"127.3176103","items":[{"name":"수진헤어샵","tel":"031-764-0203","addr":"경기도 광주시 초월읍 선동리 248-2번지","category":"보건위생 - 미용원"}]},{"lat":"37.38661472","long":"127.3244931","items":[{"name":"스티오스포츠(주)","tel":"031-769-3361","addr":"경기도 광주시 초월읍 선동리 75번지","category":"보건위생 - 안경"}]},{"lat":"37.37545126","long":"127.314386","items":[{"name":"스파핸드유한회사","tel":"031-767-4597","addr":"경기도 광주시 초월읍 선동리 235-24번지","category":"건축자재 - 인테리어전문"}]},{"lat":"37.37881138","long":"127.3247195","items":[{"name":"쎄봉이식당","tel":"031-765-0799","addr":"경기도 광주시 초월읍 선동리 134-3번지","category":"일반휴게음식 - 일반한식"}]},{"lat":"37.37386828","long":"127.3201147","items":[{"name":"씨엘가구","tel":"031-763-0860","addr":"경기도 광주시 초월읍 선동리 223번지 외 5필지 중 일부","category":"가구 - 일반가구"}]},{"lat":"37.37856202","long":"127.3203038","items":[{"name":"엄지척","tel":"","addr":"경기도 광주시 초월읍 선동리 304번지","category":"의류 - 내의판매"}]},{"lat":"37.38933925","long":"127.3198637","items":[{"name":"에덴인테리어","tel":"031-764-4030","addr":"경기도 광주시 초월읍 선동리 394번지 396","category":"가구 - 일반가구"}]},{"lat":"37.37864704","long":"127.3188364","items":[{"name":"에스엠코리아주식회사","tel":"031-769-0561","addr":"경기도 광주시 초월읍 선동리 301-1","category":"자동차판매 - 기타운송"}]},{"lat":"37.38895345","long":"127.3226061","items":[{"name":"에프디씨코리아","tel":"02-442-0103","addr":"경기도 광주시 초월읍 선동리 40번지 40","category":"음료식품 - 농·축·수산품"}]},{"lat":"37.37958977","long":"127.3200824","items":[{"name":"우리가구","tel":"070-3526-7788","addr":"경기도 광주시 초월읍 선동리 306-1번지","category":"주방용구 - 주방용구"}]},{"lat":"37.37764828","long":"127.3216887","items":[{"name":"유일특장","tel":"031-797-3033","addr":"경기도 광주시 초월읍 선동리 170-4번지","category":"기타 - 기계공구"},{"name":"주식회사 동일오피스","tel":"031-768-7062","addr":"경기도 광주시 초월읍 선동리 170-4번지","category":"사무통신 - 기타 사무용품"}]},{"lat":"37.3827325","long":"127.3240814","items":[{"name":"이레부속상사주식회사","tel":"031-798-5282","addr":"경기도 광주시 초월읍 선동리 106번지","category":"자동차판매 - 이륜차판매"}]},{"lat":"37.38764612","long":"127.316198","items":[{"name":"이정식당","tel":"031-763-0026","addr":"경기도 광주시 초월읍 선동리 361-5","category":"일반휴게음식 - 일반한식"}]},{"lat":"37.38956299","long":"127.3136427","items":[{"name":"이화골재","tel":"031-761-5023","addr":"경기도 광주시 초월읍 선동리 418-3번지","category":"건축자재 - 건축용 요업제품"}]},{"lat":"37.38637032","long":"127.3249099","items":[{"name":"잼에스디","tel":"031-263-9680","addr":"경기도 광주시 초월읍 선동리 76번지","category":"가구 - 기타가구"}]},{"lat":"37.37639431","long":"127.3189173","items":[{"name":"전주회관","tel":"031-762-6540","addr":"경기도 광주시 초월읍 선동리 260-2번지 1층","category":"일반휴게음식 - 일반한식"}]},{"lat":"37.37845309","long":"127.3206082","items":[{"name":"종가집정육점식당","tel":"031-762-6132","addr":"경기도 광주시 초월읍 선동리 164-2번지","category":"일반휴게음식 - 일반한식"}]},{"lat":"37.38798059","long":"127.3157816","items":[{"name":"주경모터스","tel":"031-762-3009","addr":"경기도 광주시 초월읍 선동리 358번지","category":"자동차정비 유지 - 자동차정비"}]},{"lat":"37.38069736","long":"127.3169482","items":[{"name":"주식회사 스페이스에스","tel":"031-1661-0739","addr":"경기도 광주시 초월읍 선동리 292-1번지","category":"전기제품 - 기타전기제품"}]},{"lat":"37.39069733","long":"127.3207728","items":[{"name":"주식회사 아카두로","tel":"031-8026-9444","addr":"경기도 광주시 초월읍 선동리 403번지","category":"가구 - 일반가구"}]},{"lat":"37.3805617","long":"127.3171396","items":[{"name":"주식회사 영공스틸","tel":"031-562-8050","addr":"경기도 광주시 초월읍 선동리 293","category":"건축자재 - 기타건축자재"}]},{"lat":"37.37669928","long":"127.3227798","items":[{"name":"주식회사 온힘(ONHIM Co.,Ltd)","tel":"070-8823-1351","addr":"경기도 광주시 초월읍 선동리 194번지","category":"서적문구 - 완구점"}]},{"lat":"37.37667869","long":"127.3203862","items":[{"name":"주식회사 우성레이져","tel":"031-768-7997","addr":"경기도 광주시 초월읍 선동리 267번지","category":"건축자재 - 기타건축자재"}]},{"lat":"37.38328628","long":"127.3191946","items":[{"name":"주식회사 이현산업","tel":"031-767-6225","addr":"경기도 광주시 초월읍 선동리 337-1번지","category":"기타 - 기계공구"}]},{"lat":"37.37769963","long":"127.3226938","items":[{"name":"주식회사 태림에너지","tel":"031-797-9983","addr":"경기도 광주시 초월읍 선동리 456-22번지","category":"전기제품 - 냉열기기"}]},{"lat":"37.38514534","long":"127.3214382","items":[{"name":"주식회사 투티","tel":"070-7804-6975","addr":"경기도 광주시 초월읍 선동리 91번지","category":"가구 - 일반가구"}]},{"lat":"37.38151128","long":"127.3191985","items":[{"name":"주식회사이엔에스히팅코리아","tel":"031-852-7263","addr":"경기도 광주시 초월읍 선동리 319-14번지","category":"건축자재 - 기타건축자재"}]},{"lat":"37.38250753","long":"127.3172719","items":[{"name":"참팜","tel":"031-797-7062","addr":"경기도 광주시 초월읍 선동리 333-5번지","category":"음료식품 - 농·축·수산품"}]},{"lat":"37.38617124","long":"127.3252252","items":[{"name":"탄넨바움목공소","tel":"031-768-8090","addr":"경기도 광주시 초월읍 선동리 76-4번지","category":"가구 - 일반가구"}]},{"lat":"37.37942739","long":"127.3133637","items":[{"name":"태성기계","tel":"031-761-0774","addr":"경기도 광주시 초월읍 선동리 425-3번지","category":"기타 - 기계공구"}]},{"lat":"37.38170302","long":"127.3182508","items":[{"name":"태화산업","tel":"031-769-9892","addr":"경기도 광주시 초월읍 선동리 319-1","category":"전기제품 - 기타전기제품"}]},{"lat":"37.37967088","long":"127.3166955","items":[{"name":"토스트.COM","tel":"","addr":"경기도 광주시 초월읍 선동리 296-11번지","category":"일반휴게음식 - 스넥"}]},{"lat":"37.38142305","long":"127.3184981","items":[{"name":"페어컴파니","tel":"031-786-0411","addr":"경기도 광주시 초월읍 선동리 319-3번지 2층","category":"레져용품 - 스포츠·레져용품"}]},{"lat":"37.38348288","long":"127.3164178","items":[{"name":"하이탑 에스지(SG)스크린골프","tel":"031-769-6008","addr":"경기도 광주시 초월읍 선동리 329번지","category":"레저업소 - 스크린골프"}]},{"lat":"37.37464709","long":"127.318639","items":[{"name":"한진인테리어","tel":"031-764-9856","addr":"경기도 광주시 초월읍 선동리 228-3번지","category":"건축자재 - 기타건축자재"}]},{"lat":"37.38994859","long":"127.3244396","items":[{"name":"헤베하우스","tel":"","addr":"경기도 광주시 초월읍 선동리 53-8번지","category":"신변잡화 - 액세서리"}]},{"lat":"37.37525431","long":"127.3173093","items":[{"name":"현(  )가네","tel":"031-768-6891","addr":"경기도 광주시 초월읍 선동리 229-3번지 1호동 1층","category":"음료식품 - 농·축·수산품"}]},{"lat":"37.3820334","long":"127.3227235","items":[{"name":"호남목공기계","tel":"031-765-6206","addr":"경기도 광주시 초월읍 선동리 100-1번지","category":"기타 - 기계공구"}]},{"lat":"37.38450813","long":"127.3171334","items":[{"name":"화인택","tel":"031-761-1665","addr":"경기도 광주시 초월읍 선동리 352-6번지","category":"기타 - 기계공구"}]}]